[{"ID":43194,"Name":"Abra Pampa","Lat":-22.7167,"Lon":-65.7,"CountryCode":null},{"ID":34404,"Name":"Acasusso","Lat":-34.4667,"Lon":-58.5167,"CountryCode":null},{"ID":43165,"Name":"Adolfo Gonzales Chaves","Lat":-38.0333,"Lon":-60.0833,"CountryCode":null},{"ID":18485,"Name":"Adrogue","Lat":-34.8,"Lon":-58.3833,"CountryCode":null},{"ID":16574,"Name":"Aguilares","Lat":-27.4333,"Lon":-65.6167,"CountryCode":null},{"ID":41865,"Name":"Alcorta","Lat":-33.5333,"Lon":-61.1167,"CountryCode":null},{"ID":26561,"Name":"Aldo Bonzi","Lat":-34.7083,"Lon":-58.5181,"CountryCode":null},{"ID":23355,"Name":"Alejandro Korn","Lat":-34.9667,"Lon":-58.3667,"CountryCode":null},{"ID":22152,"Name":"Allen","Lat":-38.9667,"Lon":-67.8333,"CountryCode":null},{"ID":11637,"Name":"Alta Gracia","Lat":-31.6667,"Lon":-64.4333,"CountryCode":null},{"ID":47135,"Name":"Alto Rio Senguer","Lat":-45.0167,"Lon":-70.8167,"CountryCode":null},{"ID":21792,"Name":"Anatuya","Lat":-28.4667,"Lon":-62.8333,"CountryCode":null},{"ID":32187,"Name":"Andalgala","Lat":-27.6,"Lon":-66.3167,"CountryCode":null},{"ID":13396,"Name":"Apostoles","Lat":-27.9167,"Lon":-55.7667,"CountryCode":null},{"ID":14283,"Name":"Aristobulo del Valle","Lat":-27.1167,"Lon":-54.9167,"CountryCode":null},{"ID":37972,"Name":"Armstrong","Lat":-32.7833,"Lon":-61.6,"CountryCode":null},{"ID":19199,"Name":"Arrecifes","Lat":-34.0667,"Lon":-60.1167,"CountryCode":null},{"ID":22266,"Name":"Arroyito","Lat":-31.4167,"Lon":-63.05,"CountryCode":null},{"ID":24056,"Name":"Arroyo Seco","Lat":-33.1667,"Lon":-60.5,"CountryCode":null},{"ID":21749,"Name":"Avellaneda","Lat":-29.1175,"Lon":-59.6583,"CountryCode":null},{"ID":16672,"Name":"Avellaneda","Lat":-34.6625,"Lon":-58.3678,"CountryCode":null},{"ID":27515,"Name":"Ayacucho","Lat":-37.1333,"Lon":-58.4667,"CountryCode":null},{"ID":10253,"Name":"Azul","Lat":-36.7833,"Lon":-59.85,"CountryCode":null},{"ID":2282,"Name":"Bahia Blanca","Lat":-38.7167,"Lon":-62.2667,"CountryCode":null},{"ID":12382,"Name":"Balcarce","Lat":-37.8456,"Lon":-58.2578,"CountryCode":null},{"ID":9176,"Name":"Banda del Rio Sali","Lat":-26.85,"Lon":-65.1667,"CountryCode":null},{"ID":2980,"Name":"Banfield","Lat":-34.75,"Lon":-58.3833,"CountryCode":null},{"ID":18337,"Name":"Baradero","Lat":-33.8,"Lon":-59.5167,"CountryCode":null},{"ID":10424,"Name":"Barranqueras","Lat":-27.4833,"Lon":-58.9333,"CountryCode":null},{"ID":42255,"Name":"Basavilbaso","Lat":-32.3667,"Lon":-58.8833,"CountryCode":null},{"ID":40829,"Name":"Batan","Lat":-38.0078,"Lon":-57.7097,"CountryCode":null},{"ID":9780,"Name":"Beccar","Lat":-34.4667,"Lon":-58.5167,"CountryCode":null},{"ID":35589,"Name":"Belen","Lat":-27.65,"Lon":-67.0333,"CountryCode":null},{"ID":10428,"Name":"Belen de Escobar","Lat":-34.3333,"Lon":-58.8167,"CountryCode":null},{"ID":15880,"Name":"Bell Ville","Lat":-32.6333,"Lon":-62.6833,"CountryCode":null},{"ID":18235,"Name":"Bella Vista","Lat":-28.4667,"Lon":-59.05,"CountryCode":null},{"ID":8158,"Name":"Bella Vista","Lat":-34.5333,"Lon":-58.6667,"CountryCode":null},{"ID":30443,"Name":"Bella Vista","Lat":-27.0333,"Lon":-65.3,"CountryCode":null},{"ID":31861,"Name":"Benito Juarez","Lat":-37.6667,"Lon":-59.7833,"CountryCode":null},{"ID":3589,"Name":"Berazategui","Lat":-34.7167,"Lon":-58.25,"CountryCode":null},{"ID":6821,"Name":"Berisso","Lat":-34.8728,"Lon":-57.8858,"CountryCode":null},{"ID":5637,"Name":"Bernal","Lat":-34.7,"Lon":-58.2833,"CountryCode":null},{"ID":38769,"Name":"Bernardo de Irigoyen","Lat":-26.25,"Lon":-53.9833,"CountryCode":null},{"ID":25526,"Name":"Billinghurst","Lat":-34.5667,"Lon":-58.5333,"CountryCode":null},{"ID":16129,"Name":"Bragado","Lat":-35.1167,"Lon":-60.5,"CountryCode":null},{"ID":24827,"Name":"Brandsen","Lat":-35.1667,"Lon":-58.2167,"CountryCode":null},{"ID":41793,"Name":"Brinkmann","Lat":-30.8669,"Lon":-62.0336,"CountryCode":null},{"ID":19,"Name":"Buenos Aires","Lat":-34.6033,"Lon":-58.3817,"CountryCode":null},{"ID":6221,"Name":"Burzaco","Lat":-34.8167,"Lon":-58.3667,"CountryCode":null},{"ID":36613,"Name":"Cafayate","Lat":-26.0833,"Lon":-65.9667,"CountryCode":null},{"ID":10940,"Name":"Caleta Olivia","Lat":-46.4333,"Lon":-67.5333,"CountryCode":null},{"ID":6929,"Name":"Campana","Lat":-34.1667,"Lon":-58.9167,"CountryCode":null},{"ID":39138,"Name":"Campo Largo","Lat":-26.8,"Lon":-60.8333,"CountryCode":null},{"ID":17984,"Name":"Canada de Gomez","Lat":-32.8167,"Lon":-61.4,"CountryCode":null},{"ID":20422,"Name":"Candelaria","Lat":-27.4594,"Lon":-55.7453,"CountryCode":null},{"ID":16669,"Name":"Canuelas","Lat":-35.0333,"Lon":-58.7333,"CountryCode":null},{"ID":37971,"Name":"Capilla del Monte","Lat":-30.85,"Lon":-64.5167,"CountryCode":null},{"ID":43752,"Name":"Capilla del Senor","Lat":-34.2833,"Lon":-59.1,"CountryCode":null},{"ID":17976,"Name":"Capitan Bermudez","Lat":-32.8167,"Lon":-60.7167,"CountryCode":null},{"ID":37662,"Name":"Capitan Sarmiento","Lat":-34.1667,"Lon":-59.7833,"CountryCode":null},{"ID":28861,"Name":"Carcarana","Lat":-32.85,"Lon":-61.15,"CountryCode":null},{"ID":28903,"Name":"Carhue","Lat":-37.1796,"Lon":-62.7601,"CountryCode":null},{"ID":23581,"Name":"Carlos Casares","Lat":-35.6167,"Lon":-61.3667,"CountryCode":null},{"ID":25877,"Name":"Carlos Spegazzini","Lat":-34.8833,"Lon":-58.5667,"CountryCode":null},{"ID":31195,"Name":"Carmen de Areco","Lat":-34.3858,"Lon":-59.8294,"CountryCode":null},{"ID":24153,"Name":"Carmen de Patagones","Lat":-40.7833,"Lon":-62.9667,"CountryCode":null},{"ID":6379,"Name":"Caseros","Lat":-34.6106,"Lon":-58.5625,"CountryCode":null},{"ID":15341,"Name":"Casilda","Lat":-33.05,"Lon":-61.1667,"CountryCode":null},{"ID":5738,"Name":"Castelar","Lat":-34.6667,"Lon":-58.6667,"CountryCode":null},{"ID":19067,"Name":"Castelli","Lat":-25.95,"Lon":-60.6167,"CountryCode":null},{"ID":4036,"Name":"Catamarca","Lat":-28.4667,"Lon":-65.7833,"CountryCode":null},{"ID":11749,"Name":"Catriel","Lat":-37.8667,"Lon":-67.8333,"CountryCode":null},{"ID":18508,"Name":"Caucete","Lat":-31.65,"Lon":-68.2833,"CountryCode":null},{"ID":15626,"Name":"Centenario","Lat":-38.8,"Lon":-68.1333,"CountryCode":null},{"ID":31486,"Name":"Ceres","Lat":-29.8667,"Lon":-61.95,"CountryCode":null},{"ID":27162,"Name":"Cerrillos","Lat":-24.9,"Lon":-65.4833,"CountryCode":null},{"ID":14165,"Name":"Chacabuco","Lat":-34.6333,"Lon":-60.4667,"CountryCode":null},{"ID":12124,"Name":"Chajari","Lat":-30.7667,"Lon":-57.9833,"CountryCode":null},{"ID":34259,"Name":"Chamical","Lat":-30.3667,"Lon":-66.3167,"CountryCode":null},{"ID":19499,"Name":"Charata","Lat":-27.2167,"Lon":-61.2,"CountryCode":null},{"ID":15967,"Name":"Chascomus","Lat":-35.575,"Lon":-58.0089,"CountryCode":null},{"ID":46570,"Name":"Chepes","Lat":-31.35,"Lon":-66.6,"CountryCode":null},{"ID":15924,"Name":"Chilecito","Lat":-29.1667,"Lon":-67.5,"CountryCode":null},{"ID":6903,"Name":"Chimbas","Lat":-31.5,"Lon":-68.5319,"CountryCode":null},{"ID":9880,"Name":"Chivilcoy","Lat":-34.9,"Lon":-60.0167,"CountryCode":null},{"ID":40846,"Name":"Choele Choel","Lat":-39.2667,"Lon":-65.6833,"CountryCode":null},{"ID":33887,"Name":"Chos Malal","Lat":-37.3833,"Lon":-70.2667,"CountryCode":null},{"ID":46981,"Name":"Chumbicha","Lat":-28.8667,"Lon":-66.2333,"CountryCode":null},{"ID":22216,"Name":"Cinco Saltos","Lat":-38.8167,"Lon":-68.0667,"CountryCode":null},{"ID":6883,"Name":"Cipolletti","Lat":-38.9333,"Lon":-67.9833,"CountryCode":null},{"ID":16359,"Name":"City Bell","Lat":-34.85,"Lon":-58.05,"CountryCode":null},{"ID":41908,"Name":"Ciudad de Loreto","Lat":-28.3,"Lon":-64.2,"CountryCode":null},{"ID":6540,"Name":"Ciudad General Belgrano","Lat":-34.7167,"Lon":-58.5333,"CountryCode":null},{"ID":8051,"Name":"Ciudadela","Lat":-34.6333,"Lon":-58.5333,"CountryCode":null},{"ID":13302,"Name":"Claypole","Lat":-34.8,"Lon":-58.3333,"CountryCode":null},{"ID":10733,"Name":"Clorinda","Lat":-25.2833,"Lon":-57.7167,"CountryCode":null},{"ID":21892,"Name":"Colon","Lat":-32.2167,"Lon":-58.1333,"CountryCode":null},{"ID":21878,"Name":"Colon","Lat":-33.8833,"Lon":-61.1,"CountryCode":null},{"ID":47302,"Name":"Comallo","Lat":-41.0333,"Lon":-70.2667,"CountryCode":null},{"ID":46764,"Name":"Comandante Fontana","Lat":-25.3333,"Lon":-59.6833,"CountryCode":null},{"ID":46528,"Name":"Comandante Luis Piedra Buena","Lat":-49.983,"Lon":-68.91,"CountryCode":null},{"ID":1022,"Name":"Comodoro Rivadavia","Lat":-45.8647,"Lon":-67.4808,"CountryCode":null},{"ID":11316,"Name":"Concepcion","Lat":-27.3333,"Lon":-65.5833,"CountryCode":null},{"ID":6106,"Name":"Concepcion del Uruguay","Lat":-32.4833,"Lon":-58.2333,"CountryCode":null},{"ID":4272,"Name":"Concordia","Lat":-31.4,"Lon":-58.0333,"CountryCode":null},{"ID":395,"Name":"Cordoba","Lat":-31.4167,"Lon":-64.1833,"CountryCode":null},{"ID":26626,"Name":"Coronda","Lat":-31.9667,"Lon":-60.9167,"CountryCode":null},{"ID":37214,"Name":"Coronel Dorrego","Lat":-38.7,"Lon":-61.2667,"CountryCode":null},{"ID":44497,"Name":"Coronel Du Graty","Lat":-27.6667,"Lon":-60.9333,"CountryCode":null},{"ID":12980,"Name":"Coronel Suarez","Lat":-37.4667,"Lon":-61.9333,"CountryCode":null},{"ID":40044,"Name":"Corral de Bustos","Lat":-33.2833,"Lon":-62.2,"CountryCode":null},{"ID":1989,"Name":"Corrientes","Lat":-27.4833,"Lon":-58.8167,"CountryCode":null},{"ID":39881,"Name":"Corzuela","Lat":-26.9333,"Lon":-60.9667,"CountryCode":null},{"ID":9981,"Name":"Cosquin","Lat":-31.2436,"Lon":-64.4653,"CountryCode":null},{"ID":25137,"Name":"Crespo","Lat":-32.0333,"Lon":-60.3167,"CountryCode":null},{"ID":17225,"Name":"Cruz del Eje","Lat":-30.7333,"Lon":-64.8,"CountryCode":null},{"ID":15597,"Name":"Curuzu Cuatia","Lat":-29.7833,"Lon":-58.0833,"CountryCode":null},{"ID":15175,"Name":"Cutral-Co","Lat":-38.9333,"Lon":-69.2333,"CountryCode":null},{"ID":28221,"Name":"Daireaux","Lat":-36.6,"Lon":-61.75,"CountryCode":null},{"ID":46863,"Name":"Darregueira","Lat":-37.6996,"Lon":-63.1666,"CountryCode":null},{"ID":23243,"Name":"Dean Funes","Lat":-30.4333,"Lon":-64.35,"CountryCode":null},{"ID":25522,"Name":"Diamante","Lat":-32.0667,"Lon":-60.65,"CountryCode":null},{"ID":12756,"Name":"Dock Sur","Lat":-34.6417,"Lon":-58.3478,"CountryCode":null},{"ID":19870,"Name":"Dolores","Lat":-36.3167,"Lon":-57.6667,"CountryCode":null},{"ID":23816,"Name":"Don Bosco","Lat":-34.7,"Lon":-58.2833,"CountryCode":null},{"ID":8979,"Name":"Don Torcuato","Lat":-34.5,"Lon":-58.6167,"CountryCode":null},{"ID":25667,"Name":"El Bolson","Lat":-41.9667,"Lon":-71.5333,"CountryCode":null},{"ID":20395,"Name":"El Calafate","Lat":-50.3378,"Lon":-72.26,"CountryCode":null},{"ID":46791,"Name":"El Maiten","Lat":-42.05,"Lon":-71.1667,"CountryCode":null},{"ID":9749,"Name":"El Palomar","Lat":-34.6167,"Lon":-58.5833,"CountryCode":null},{"ID":11171,"Name":"El Talar de Pacheco","Lat":-34.4719,"Lon":-58.655,"CountryCode":null},{"ID":38215,"Name":"El Trebol","Lat":-32.1833,"Lon":-61.7167,"CountryCode":null},{"ID":10001,"Name":"Eldorado","Lat":-26.4,"Lon":-54.6333,"CountryCode":null},{"ID":44212,"Name":"Embalse","Lat":-32.1833,"Lon":-64.4167,"CountryCode":null},{"ID":21295,"Name":"Embarcacion","Lat":-23.2167,"Lon":-64.1,"CountryCode":null},{"ID":33623,"Name":"Empedrado","Lat":-27.9333,"Lon":-58.7833,"CountryCode":null},{"ID":10463,"Name":"Ensenada","Lat":-34.8644,"Lon":-57.9103,"CountryCode":null},{"ID":10986,"Name":"Ensenada Berisso","Lat":-34.8667,"Lon":-57.9,"CountryCode":null},{"ID":13032,"Name":"Esperanza","Lat":-31.4167,"Lon":-60.9333,"CountryCode":null},{"ID":14744,"Name":"Esquel","Lat":-42.9,"Lon":-71.3167,"CountryCode":null},{"ID":5645,"Name":"Esteban Echeverria","Lat":-34.8167,"Lon":-58.4667,"CountryCode":null},{"ID":7458,"Name":"Ezpeleta","Lat":-34.7517,"Lon":-58.2344,"CountryCode":null},{"ID":22097,"Name":"Famailla","Lat":-27.05,"Lon":-65.4,"CountryCode":null},{"ID":28394,"Name":"Federacion","Lat":-30.9833,"Lon":-57.9167,"CountryCode":null},{"ID":29150,"Name":"Federal","Lat":-30.95,"Lon":-58.8,"CountryCode":null},{"ID":20007,"Name":"Firmat","Lat":-33.45,"Lon":-61.4833,"CountryCode":null},{"ID":4355,"Name":"Florencio Varela","Lat":-34.8167,"Lon":-58.2833,"CountryCode":null},{"ID":11633,"Name":"Florida","Lat":-34.5167,"Lon":-58.5,"CountryCode":null},{"ID":16600,"Name":"Fontana","Lat":-27.4167,"Lon":-59.0333,"CountryCode":null},{"ID":2868,"Name":"Formosa","Lat":-26.1833,"Lon":-58.1833,"CountryCode":null},{"ID":30380,"Name":"Fray Luis A. Beltran","Lat":-32.7833,"Lon":-60.7333,"CountryCode":null},{"ID":19408,"Name":"Frias","Lat":-28.6333,"Lon":-65.1333,"CountryCode":null},{"ID":39736,"Name":"Frontera","Lat":-31.4278,"Lon":-62.0619,"CountryCode":null},{"ID":21620,"Name":"Funes","Lat":-32.9167,"Lon":-60.8167,"CountryCode":null},{"ID":24546,"Name":"Galvez","Lat":-32.0333,"Lon":-61.2167,"CountryCode":null},{"ID":9712,"Name":"Garin","Lat":-34.4167,"Lon":-58.75,"CountryCode":null},{"ID":18207,"Name":"Garupa","Lat":-27.4833,"Lon":-55.8333,"CountryCode":null},{"ID":47341,"Name":"Gastre","Lat":-42.2667,"Lon":-69.2167,"CountryCode":null},{"ID":34914,"Name":"General Acha","Lat":-37.3833,"Lon":-64.6,"CountryCode":null},{"ID":42033,"Name":"General Alvear","Lat":-36.0333,"Lon":-60.0167,"CountryCode":null},{"ID":17624,"Name":"General Alvear","Lat":-34.9667,"Lon":-67.7,"CountryCode":null},{"ID":33150,"Name":"General Belgrano","Lat":-35.7667,"Lon":-58.5,"CountryCode":null},{"ID":36729,"Name":"General Cabrera","Lat":-32.7994,"Lon":-63.8683,"CountryCode":null},{"ID":46626,"Name":"General Conesa","Lat":-40.1,"Lon":-64.4167,"CountryCode":null},{"ID":26769,"Name":"General Deheza","Lat":-32.7564,"Lon":-63.7889,"CountryCode":null},{"ID":33840,"Name":"General Enrique Mosconi","Lat":-22.6,"Lon":-63.8167,"CountryCode":null},{"ID":16734,"Name":"General Jose de San Martin","Lat":-26.5375,"Lon":-59.3417,"CountryCode":null},{"ID":26660,"Name":"General Juan Madariaga","Lat":-37.0167,"Lon":-57.1333,"CountryCode":null},{"ID":34487,"Name":"General Las Heras","Lat":-34.9333,"Lon":-58.95,"CountryCode":null},{"ID":11797,"Name":"General Martin Miguel de Guemes","Lat":-24.6667,"Lon":-65.05,"CountryCode":null},{"ID":12717,"Name":"General Pacheco","Lat":-34.45,"Lon":-58.65,"CountryCode":null},{"ID":9944,"Name":"General Pico","Lat":-35.6667,"Lon":-63.7333,"CountryCode":null},{"ID":29632,"Name":"General Pinedo","Lat":-27.3167,"Lon":-61.2833,"CountryCode":null},{"ID":3988,"Name":"General Roca","Lat":-39.0333,"Lon":-67.5833,"CountryCode":null},{"ID":7043,"Name":"General Rodriguez","Lat":-34.6167,"Lon":-58.95,"CountryCode":null},{"ID":18444,"Name":"General San Martin","Lat":-34.5667,"Lon":-58.5333,"CountryCode":null},{"ID":33236,"Name":"General Viamonte","Lat":-35,"Lon":-61.0333,"CountryCode":null},{"ID":28874,"Name":"General Villegas","Lat":-35.0333,"Lon":-63.0167,"CountryCode":null},{"ID":9004,"Name":"Gerli","Lat":-34.6833,"Lon":-58.3667,"CountryCode":null},{"ID":9920,"Name":"Glew","Lat":-34.8833,"Lon":-58.3833,"CountryCode":null},{"ID":7358,"Name":"Gobernador Galvez","Lat":-33.0256,"Lon":-60.6336,"CountryCode":null},{"ID":46740,"Name":"Gobernador Gregores","Lat":-48.7667,"Lon":-70.25,"CountryCode":null},{"ID":17234,"Name":"Gobernador Virasora","Lat":-28.05,"Lon":-56.0333,"CountryCode":null},{"ID":3430,"Name":"Godoy Cruz","Lat":-32.9167,"Lon":-68.8333,"CountryCode":null},{"ID":2812,"Name":"Gonzalez Catan","Lat":-34.7667,"Lon":-58.6167,"CountryCode":null},{"ID":8136,"Name":"Goya","Lat":-29.1333,"Lon":-59.25,"CountryCode":null},{"ID":14632,"Name":"Granadero Baigorria","Lat":-32.85,"Lon":-60.7,"CountryCode":null},{"ID":7050,"Name":"Grand Bourg","Lat":-34.4833,"Lon":-58.7167,"CountryCode":null},{"ID":12795,"Name":"Gualeguay","Lat":-33.15,"Lon":-59.3333,"CountryCode":null},{"ID":5653,"Name":"Gualeguaychu","Lat":-33.0167,"Lon":-58.5167,"CountryCode":null},{"ID":10792,"Name":"Guernica","Lat":-34.9167,"Lon":-58.3833,"CountryCode":null},{"ID":14386,"Name":"Haedo","Lat":-34.65,"Lon":-58.6,"CountryCode":null},{"ID":42718,"Name":"Henderson","Lat":-36.2833,"Lon":-61.7167,"CountryCode":null},{"ID":37970,"Name":"Hernando","Lat":-32.4167,"Lon":-63.7333,"CountryCode":null},{"ID":43189,"Name":"Huinca Renanco","Lat":-34.8333,"Lon":-64.3833,"CountryCode":null},{"ID":37552,"Name":"Humahuaca","Lat":-23.2,"Lon":-65.35,"CountryCode":null},{"ID":9594,"Name":"Hurlingham","Lat":-34.6,"Lon":-58.6333,"CountryCode":null},{"ID":46520,"Name":"Ingeniero Guillermo N. Juarez","Lat":-23.9,"Lon":-61.85,"CountryCode":null},{"ID":46542,"Name":"Ingeniero Jacobacci","Lat":-41.3,"Lon":-69.5833,"CountryCode":null},{"ID":35110,"Name":"Ingeniero Maschwitz","Lat":-34.3667,"Lon":-58.75,"CountryCode":null},{"ID":14148,"Name":"Ingeniero Pablo Nogues","Lat":-34.4667,"Lon":-58.7667,"CountryCode":null},{"ID":39842,"Name":"Ingeniero White","Lat":-38.7667,"Lon":-62.2667,"CountryCode":null},{"ID":3442,"Name":"Isidro Casanova","Lat":-34.7,"Lon":-58.5833,"CountryCode":null},{"ID":4659,"Name":"Ituzaingo","Lat":-34.6667,"Lon":-58.6667,"CountryCode":null},{"ID":25100,"Name":"Ituzaingo","Lat":-27.6,"Lon":-56.6667,"CountryCode":null},{"ID":20042,"Name":"Jardin America","Lat":-27.05,"Lon":-55.2333,"CountryCode":null},{"ID":16794,"Name":"Jesus Maria","Lat":-30.9833,"Lon":-64.1,"CountryCode":null},{"ID":23651,"Name":"Joaquin V. Gonzalez","Lat":-25.0833,"Lon":-64.1833,"CountryCode":null},{"ID":3072,"Name":"Jose C. Paz","Lat":-34.5167,"Lon":-58.7667,"CountryCode":null},{"ID":4009,"Name":"Jose Maria Ezeiza","Lat":-34.8333,"Lon":-58.5167,"CountryCode":null},{"ID":13320,"Name":"Jose Marmol","Lat":-34.7833,"Lon":-58.3667,"CountryCode":null},{"ID":7032,"Name":"Junin","Lat":-34.5833,"Lon":-60.95,"CountryCode":null},{"ID":34831,"Name":"Junin de los Andes","Lat":-39.9167,"Lon":-71.0667,"CountryCode":null},{"ID":35824,"Name":"Justo Daract","Lat":-33.8667,"Lon":-65.1667,"CountryCode":null},{"ID":41834,"Name":"Kaiken","Lat":-54.5062,"Lon":-67.1905,"CountryCode":null},{"ID":5795,"Name":"La Banda","Lat":-27.7333,"Lon":-64.25,"CountryCode":null},{"ID":16509,"Name":"La Calera","Lat":-31.3439,"Lon":-64.3353,"CountryCode":null},{"ID":35000,"Name":"La Carlota","Lat":-33.4333,"Lon":-63.3,"CountryCode":null},{"ID":46016,"Name":"La Cruz","Lat":-28.1833,"Lon":-56.65,"CountryCode":null},{"ID":28798,"Name":"La Falda","Lat":-31.0833,"Lon":-64.5,"CountryCode":null},{"ID":41100,"Name":"La Leonesa","Lat":-27.05,"Lon":-58.7167,"CountryCode":null},{"ID":29499,"Name":"La Lucila","Lat":-34.4833,"Lon":-58.4833,"CountryCode":null},{"ID":42799,"Name":"La Paz","Lat":-33.4667,"Lon":-67.55,"CountryCode":null},{"ID":21024,"Name":"La Paz","Lat":-30.75,"Lon":-59.65,"CountryCode":null},{"ID":3409,"Name":"La Plata","Lat":-34.9211,"Lon":-57.9544,"CountryCode":null},{"ID":28128,"Name":"La Quiaca","Lat":-22.1042,"Lon":-65.5972,"CountryCode":null},{"ID":11697,"Name":"La Reja","Lat":-34.6394,"Lon":-58.8283,"CountryCode":null},{"ID":3582,"Name":"La Rioja","Lat":-29.4125,"Lon":-66.8542,"CountryCode":null},{"ID":24150,"Name":"Laboulaye","Lat":-34.1167,"Lon":-63.4,"CountryCode":null},{"ID":35416,"Name":"Laguna Paiva","Lat":-31.3039,"Lon":-60.6589,"CountryCode":null},{"ID":1596,"Name":"Lanus","Lat":-34.7,"Lon":-58.4,"CountryCode":null},{"ID":22073,"Name":"Las Brenas","Lat":-27.0667,"Lon":-61.0667,"CountryCode":null},{"ID":19407,"Name":"Las Flores","Lat":-36.0139,"Lon":-59.1,"CountryCode":null},{"ID":3464,"Name":"Las Heras","Lat":-32.85,"Lon":-68.8167,"CountryCode":null},{"ID":26972,"Name":"Las Heras","Lat":-46.55,"Lon":-68.95,"CountryCode":null},{"ID":46782,"Name":"Las Lajas","Lat":-38.6,"Lon":-70.3,"CountryCode":null},{"ID":35277,"Name":"Las Lomitas","Lat":-24.7072,"Lon":-60.5944,"CountryCode":null},{"ID":35326,"Name":"Las Parejas","Lat":-32.6833,"Lon":-61.5333,"CountryCode":null},{"ID":32860,"Name":"Las Rosas","Lat":-32.4833,"Lon":-61.5833,"CountryCode":null},{"ID":20230,"Name":"Leandro N. Alem","Lat":-27.6,"Lon":-55.3333,"CountryCode":null},{"ID":40108,"Name":"Leones","Lat":-32.6617,"Lon":-62.2967,"CountryCode":null},{"ID":6127,"Name":"Libertad","Lat":-34.6833,"Lon":-58.6833,"CountryCode":null},{"ID":11949,"Name":"Libertador General San Martin","Lat":-23.8,"Lon":-64.7833,"CountryCode":null},{"ID":18611,"Name":"Lincoln","Lat":-34.85,"Lon":-61.5167,"CountryCode":null},{"ID":13216,"Name":"Llavallol","Lat":-34.7667,"Lon":-58.3833,"CountryCode":null},{"ID":35701,"Name":"Loberia","Lat":-38.1333,"Lon":-58.7667,"CountryCode":null},{"ID":16988,"Name":"Lobos","Lat":-35.1833,"Lon":-59.0833,"CountryCode":null},{"ID":5512,"Name":"Lomas de Zamora","Lat":-34.7667,"Lon":-58.4,"CountryCode":null},{"ID":8222,"Name":"Lomas del Mirador","Lat":-34.6667,"Lon":-58.5297,"CountryCode":null},{"ID":11736,"Name":"Longchamps","Lat":-34.85,"Lon":-58.3833,"CountryCode":null},{"ID":47213,"Name":"Los Blancos","Lat":-23.6,"Lon":-62.6,"CountryCode":null},{"ID":9486,"Name":"Los Polvorines","Lat":-34.5,"Lon":-58.7,"CountryCode":null},{"ID":5775,"Name":"Lujan","Lat":-34.5667,"Lon":-59.1,"CountryCode":null},{"ID":8062,"Name":"Lujan de Cuyo","Lat":-32.998,"Lon":-68.873,"CountryCode":null},{"ID":22858,"Name":"Machagai","Lat":-26.9167,"Lon":-60.0333,"CountryCode":null},{"ID":43596,"Name":"Magdalena","Lat":-35.0833,"Lon":-57.5167,"CountryCode":null},{"ID":45066,"Name":"Maipu","Lat":-36.8667,"Lon":-57.8667,"CountryCode":null},{"ID":5787,"Name":"Maipu","Lat":-32.9667,"Lon":-68.75,"CountryCode":null},{"ID":18828,"Name":"Malargue","Lat":-35.475,"Lon":-69.5833,"CountryCode":null},{"ID":35730,"Name":"Malvinas Argentinas","Lat":-31.3697,"Lon":-64.0531,"CountryCode":null},{"ID":22063,"Name":"Manuel B. Gonnet","Lat":-34.85,"Lon":-58.0167,"CountryCode":null},{"ID":20158,"Name":"Mar de Ajo","Lat":-36.7203,"Lon":-56.6878,"CountryCode":null},{"ID":1094,"Name":"Mar del Plata","Lat":-38,"Lon":-57.55,"CountryCode":null},{"ID":19186,"Name":"Marcos Juarez","Lat":-32.7,"Lon":-62.1,"CountryCode":null},{"ID":13932,"Name":"Marcos Paz","Lat":-34.7667,"Lon":-58.8333,"CountryCode":null},{"ID":10523,"Name":"Mariano Acosta","Lat":-34.7167,"Lon":-58.7833,"CountryCode":null},{"ID":25554,"Name":"Martin Coronado","Lat":-34.6,"Lon":-58.55,"CountryCode":null},{"ID":8849,"Name":"Martinez","Lat":-34.4833,"Lon":-58.5,"CountryCode":null},{"ID":24742,"Name":"Matheu","Lat":-34.3667,"Lon":-58.8333,"CountryCode":null},{"ID":44508,"Name":"Mburucuya","Lat":-28.05,"Lon":-58.2333,"CountryCode":null},{"ID":22416,"Name":"Melchor Romero","Lat":-34.9492,"Lon":-58.0472,"CountryCode":null},{"ID":5413,"Name":"Mendoza","Lat":-32.8833,"Lon":-68.8167,"CountryCode":null},{"ID":9168,"Name":"Mercedes","Lat":-34.65,"Lon":-59.4333,"CountryCode":null},{"ID":15988,"Name":"Mercedes","Lat":-29.2,"Lon":-58.0833,"CountryCode":null},{"ID":2752,"Name":"Merlo","Lat":-34.6653,"Lon":-58.7275,"CountryCode":null},{"ID":17484,"Name":"Miramar","Lat":-38.2667,"Lon":-57.8333,"CountryCode":null},{"ID":21666,"Name":"Monte Caseros","Lat":-30.25,"Lon":-57.65,"CountryCode":null},{"ID":7056,"Name":"Monte Chingolo","Lat":-34.7333,"Lon":-58.35,"CountryCode":null},{"ID":26470,"Name":"Monte Cristo","Lat":-31.3431,"Lon":-63.9444,"CountryCode":null},{"ID":34988,"Name":"Monte Quemado","Lat":-25.8036,"Lon":-62.8303,"CountryCode":null},{"ID":44011,"Name":"Monte Rico","Lat":-24.4514,"Lon":-65.1667,"CountryCode":null},{"ID":21806,"Name":"Monteros","Lat":-27.1667,"Lon":-65.5,"CountryCode":null},{"ID":6207,"Name":"Moron","Lat":-34.65,"Lon":-58.6167,"CountryCode":null},{"ID":28110,"Name":"Morteros","Lat":-30.7,"Lon":-62,"CountryCode":null},{"ID":19677,"Name":"Muniz","Lat":-34.5333,"Lon":-58.7,"CountryCode":null},{"ID":15044,"Name":"Munro","Lat":-34.5333,"Lon":-58.5167,"CountryCode":null},{"ID":37096,"Name":"Navarro","Lat":-35.0167,"Lon":-59.2667,"CountryCode":null},{"ID":6723,"Name":"Necochea","Lat":-38.55,"Lon":-58.7333,"CountryCode":null},{"ID":2894,"Name":"Neuquen","Lat":-38.9525,"Lon":-68.0642,"CountryCode":null},{"ID":22185,"Name":"Nogoya","Lat":-32.4,"Lon":-59.8,"CountryCode":null},{"ID":14810,"Name":"Nueve de Julio","Lat":-35.45,"Lon":-60.8833,"CountryCode":null},{"ID":8821,"Name":"Obera","Lat":-27.4833,"Lon":-55.1333,"CountryCode":null},{"ID":6736,"Name":"Olavarria","Lat":-36.9,"Lon":-60.3333,"CountryCode":null},{"ID":36853,"Name":"Oliva","Lat":-32.0333,"Lon":-63.5667,"CountryCode":null},{"ID":33730,"Name":"Oncativo","Lat":-31.9167,"Lon":-63.6667,"CountryCode":null},{"ID":11206,"Name":"Palpala","Lat":-24.25,"Lon":-65.1167,"CountryCode":null},{"ID":46364,"Name":"Pampa del Infierno","Lat":-26.5167,"Lon":-61.1667,"CountryCode":null},{"ID":2718,"Name":"Parana","Lat":-31.7331,"Lon":-60.5297,"CountryCode":null},{"ID":12735,"Name":"Paso de los Libres","Lat":-29.7167,"Lon":-57.0833,"CountryCode":null},{"ID":43018,"Name":"Pedro Luro","Lat":-39.5,"Lon":-62.6833,"CountryCode":null},{"ID":16818,"Name":"Pehuajo","Lat":-35.8,"Lon":-61.9,"CountryCode":null},{"ID":19528,"Name":"Perez","Lat":-33,"Lon":-60.7667,"CountryCode":null},{"ID":5885,"Name":"Pergamino","Lat":-33.8833,"Lon":-60.5667,"CountryCode":null},{"ID":46730,"Name":"Perito Moreno","Lat":-46.5886,"Lon":-70.9242,"CountryCode":null},{"ID":17122,"Name":"Pichanal","Lat":-23.3167,"Lon":-64.2167,"CountryCode":null},{"ID":23806,"Name":"Pico Truncado","Lat":-46.795,"Lon":-67.955,"CountryCode":null},{"ID":32629,"Name":"Pigue","Lat":-37.6167,"Lon":-62.4167,"CountryCode":null},{"ID":31133,"Name":"Pilar","Lat":-31.6833,"Lon":-63.9,"CountryCode":null},{"ID":2326,"Name":"Pilar","Lat":-34.45,"Lon":-58.9167,"CountryCode":null},{"ID":13575,"Name":"Pinamar","Lat":-37.1,"Lon":-56.85,"CountryCode":null},{"ID":9012,"Name":"Pirane","Lat":-25.7328,"Lon":-59.11,"CountryCode":null},{"ID":33748,"Name":"Plaza Huincul","Lat":-38.9338,"Lon":-69.1987,"CountryCode":null},{"ID":16442,"Name":"Plottier","Lat":-38.95,"Lon":-68.2333,"CountryCode":null},{"ID":2470,"Name":"Posadas","Lat":-27.3667,"Lon":-55.9,"CountryCode":null},{"ID":35640,"Name":"Presidencia de la Plaza","Lat":-26.9833,"Lon":-59.8333,"CountryCode":null},{"ID":6730,"Name":"Presidencia Roque Saenz Pena","Lat":-26.7833,"Lon":-60.45,"CountryCode":null},{"ID":24016,"Name":"Profesor Salvador Mazza","Lat":-22.05,"Lon":-63.7,"CountryCode":null},{"ID":28731,"Name":"Puan","Lat":-37.55,"Lon":-62.7667,"CountryCode":null},{"ID":32019,"Name":"Puerto Deseado","Lat":-47.75,"Lon":-65.9167,"CountryCode":null},{"ID":7257,"Name":"Puerto Iguazu","Lat":-25.6,"Lon":-54.5667,"CountryCode":null},{"ID":5404,"Name":"Puerto Madryn","Lat":-42.7667,"Lon":-65.05,"CountryCode":null},{"ID":27350,"Name":"Puerto Rico","Lat":-26.8,"Lon":-55.0167,"CountryCode":null},{"ID":33629,"Name":"Puerto San Martin","Lat":-32.7167,"Lon":-60.7333,"CountryCode":null},{"ID":42185,"Name":"Puerto Tirol","Lat":-27.3667,"Lon":-59.0667,"CountryCode":null},{"ID":9853,"Name":"Punta Alta","Lat":-38.88,"Lon":-62.075,"CountryCode":null},{"ID":43387,"Name":"Punta Indio","Lat":-35.2667,"Lon":-57.2167,"CountryCode":null},{"ID":2580,"Name":"Quilmes","Lat":-34.7167,"Lon":-58.2667,"CountryCode":null},{"ID":38592,"Name":"Quimili","Lat":-27.6333,"Lon":-62.4167,"CountryCode":null},{"ID":16581,"Name":"Quitilipi","Lat":-26.8667,"Lon":-60.2167,"CountryCode":null},{"ID":44243,"Name":"Rada Tilly","Lat":-45.9333,"Lon":-67.5333,"CountryCode":null},{"ID":10150,"Name":"Rafael Calzada","Lat":-34.7833,"Lon":-58.3667,"CountryCode":null},{"ID":4316,"Name":"Rafael Castillo","Lat":-34.7167,"Lon":-58.6167,"CountryCode":null},{"ID":6541,"Name":"Rafaela","Lat":-31.2667,"Lon":-61.4833,"CountryCode":null},{"ID":37416,"Name":"Ramallo","Lat":-33.3167,"Lon":-60.2,"CountryCode":null},{"ID":5173,"Name":"Ramos Mejia","Lat":-34.65,"Lon":-58.5667,"CountryCode":null},{"ID":40321,"Name":"Ranchos","Lat":-35.5333,"Lon":-58.2833,"CountryCode":null},{"ID":31594,"Name":"Rauch","Lat":-36.7667,"Lon":-59.1,"CountryCode":null},{"ID":20808,"Name":"Rawson","Lat":-43.3,"Lon":-65.1,"CountryCode":null},{"ID":8038,"Name":"Reconquista","Lat":-29.2333,"Lon":-59.9333,"CountryCode":null},{"ID":36467,"Name":"Recreo","Lat":-29.2667,"Lon":-65.0667,"CountryCode":null},{"ID":7307,"Name":"Remedios de Escalada","Lat":-34.7167,"Lon":-58.4,"CountryCode":null},{"ID":2359,"Name":"Resistencia","Lat":-27.4514,"Lon":-58.9867,"CountryCode":null},{"ID":47422,"Name":"Rinconada","Lat":-22.4333,"Lon":-66.1667,"CountryCode":null},{"ID":36734,"Name":"Rio Colorado","Lat":-38.9908,"Lon":-64.0958,"CountryCode":null},{"ID":3312,"Name":"Rio Cuarto","Lat":-33.1333,"Lon":-64.35,"CountryCode":null},{"ID":6377,"Name":"Rio Gallegos","Lat":-51.6233,"Lon":-69.2161,"CountryCode":null},{"ID":6253,"Name":"Rio Grande","Lat":-53.7833,"Lon":-67.7,"CountryCode":null},{"ID":46953,"Name":"Rio Mayo","Lat":-45.6869,"Lon":-70.26,"CountryCode":null},{"ID":24977,"Name":"Rio Segundo","Lat":-31.6501,"Lon":-63.9116,"CountryCode":null},{"ID":11991,"Name":"Rio Tercero","Lat":-32.1833,"Lon":-64.1,"CountryCode":null},{"ID":7232,"Name":"Rivadavia","Lat":-31.5303,"Lon":-68.5947,"CountryCode":null},{"ID":7233,"Name":"Rivadavia","Lat":-33.1833,"Lon":-68.4667,"CountryCode":null},{"ID":46973,"Name":"Rodeo","Lat":-30.2164,"Lon":-69.1394,"CountryCode":null},{"ID":31826,"Name":"Roldan","Lat":-32.9011,"Lon":-60.9072,"CountryCode":null},{"ID":43783,"Name":"Romang","Lat":-29.5,"Lon":-59.7667,"CountryCode":null},{"ID":38733,"Name":"Roque Perez","Lat":-35.4167,"Lon":-59.3167,"CountryCode":null},{"ID":599,"Name":"Rosario","Lat":-32.9575,"Lon":-60.6394,"CountryCode":null},{"ID":19700,"Name":"Rosario de la Frontera","Lat":-25.8,"Lon":-64.9667,"CountryCode":null},{"ID":23191,"Name":"Rosario de Lerma","Lat":-24.9833,"Lon":-65.5833,"CountryCode":null},{"ID":34477,"Name":"Rosario del Tala","Lat":-32.3,"Lon":-59.1333,"CountryCode":null},{"ID":25967,"Name":"Rufino","Lat":-34.2667,"Lon":-62.7,"CountryCode":null},{"ID":24974,"Name":"Saavedra","Lat":-37.7833,"Lon":-62.35,"CountryCode":null},{"ID":26378,"Name":"Saladas","Lat":-28.25,"Lon":-58.6167,"CountryCode":null},{"ID":1384,"Name":"Salta","Lat":-24.7833,"Lon":-65.4167,"CountryCode":null},{"ID":21995,"Name":"San Andres de Giles","Lat":-34.4333,"Lon":-59.4333,"CountryCode":null},{"ID":23421,"Name":"San Antonio de Areco","Lat":-34.25,"Lon":-59.4667,"CountryCode":null},{"ID":46628,"Name":"San Antonio de los Cobres","Lat":-24.2178,"Lon":-66.32,"CountryCode":null},{"ID":14367,"Name":"San Antonio de Padua","Lat":-34.6667,"Lon":-58.7,"CountryCode":null},{"ID":28878,"Name":"San Antonio Oeste","Lat":-40.7333,"Lon":-64.95,"CountryCode":null},{"ID":38177,"Name":"San Bernardo","Lat":-27.2667,"Lon":-60.7,"CountryCode":null},{"ID":38295,"Name":"San Carlos Centro","Lat":-31.7333,"Lon":-61.1,"CountryCode":null},{"ID":5503,"Name":"San Carlos de Bariloche","Lat":-41.15,"Lon":-71.3,"CountryCode":null},{"ID":31679,"Name":"San Cristobal","Lat":-30.3167,"Lon":-61.2333,"CountryCode":null},{"ID":3940,"Name":"San Fernando","Lat":-34.45,"Lon":-58.5667,"CountryCode":null},{"ID":9327,"Name":"San Francisco","Lat":-31.4356,"Lon":-62.0714,"CountryCode":null},{"ID":6631,"Name":"San Francisco Solano","Lat":-34.7667,"Lon":-58.3167,"CountryCode":null},{"ID":12654,"Name":"San Isidro","Lat":-34.4667,"Lon":-58.5167,"CountryCode":null},{"ID":23613,"Name":"San Isidro de Lules","Lat":-26.9333,"Lon":-65.35,"CountryCode":null},{"ID":33010,"Name":"San Javier","Lat":-30.5833,"Lon":-59.95,"CountryCode":null},{"ID":27192,"Name":"San Jorge","Lat":-31.8961,"Lon":-61.8597,"CountryCode":null},{"ID":40455,"Name":"San Jose de Feliciano","Lat":-30.3833,"Lon":-58.75,"CountryCode":null},{"ID":23673,"Name":"San Jose de Jachal","Lat":-30.2333,"Lon":-68.75,"CountryCode":null},{"ID":1560,"Name":"San Juan","Lat":-31.5342,"Lon":-68.5261,"CountryCode":null},{"ID":46395,"Name":"San Julian","Lat":-49.3,"Lon":-67.7167,"CountryCode":null},{"ID":4622,"Name":"San Justo","Lat":-34.6833,"Lon":-58.55,"CountryCode":null},{"ID":23161,"Name":"San Justo","Lat":-30.7833,"Lon":-60.5833,"CountryCode":null},{"ID":12027,"Name":"San Lorenzo","Lat":-32.75,"Lon":-60.7333,"CountryCode":null},{"ID":11734,"Name":"San Lorenzo","Lat":-28.12,"Lon":-58.77,"CountryCode":null},{"ID":3793,"Name":"San Luis","Lat":-33.3,"Lon":-66.3333,"CountryCode":null},{"ID":30145,"Name":"San Luis del Palmar","Lat":-27.5167,"Lon":-58.5667,"CountryCode":null},{"ID":7472,"Name":"San Martin","Lat":-33.0806,"Lon":-68.4706,"CountryCode":null},{"ID":22798,"Name":"San Martin","Lat":-31.4397,"Lon":-68.5206,"CountryCode":null},{"ID":18665,"Name":"San Martin de los Andes","Lat":-40.1667,"Lon":-71.35,"CountryCode":null},{"ID":4063,"Name":"San Miguel","Lat":-34.5333,"Lon":-58.7167,"CountryCode":null},{"ID":1238,"Name":"San Miguel de Tucuman","Lat":-26.8167,"Lon":-65.2167,"CountryCode":null},{"ID":4018,"Name":"San Nicolas de los Arroyos","Lat":-33.3333,"Lon":-60.2167,"CountryCode":null},{"ID":7825,"Name":"San Pedro","Lat":-33.6792,"Lon":-59.6669,"CountryCode":null},{"ID":9832,"Name":"San Pedro","Lat":-24.2196,"Lon":-64.87,"CountryCode":null},{"ID":3090,"Name":"San Rafael","Lat":-34.6,"Lon":-68.3333,"CountryCode":null},{"ID":7783,"Name":"San Ramon de la Nueva Oran","Lat":-23.1333,"Lon":-64.3333,"CountryCode":null},{"ID":38778,"Name":"San Roque","Lat":-28.5667,"Lon":-58.7167,"CountryCode":null},{"ID":34617,"Name":"San Salvador","Lat":-31.6167,"Lon":-58.5,"CountryCode":null},{"ID":2170,"Name":"San Salvador de Jujuy","Lat":-24.1833,"Lon":-65.3,"CountryCode":null},{"ID":12447,"Name":"San Vicente","Lat":-35.0167,"Lon":-58.4167,"CountryCode":null},{"ID":27006,"Name":"Santa Elena","Lat":-30.95,"Lon":-59.8,"CountryCode":null},{"ID":1774,"Name":"Santa Fe","Lat":-31.6333,"Lon":-60.7,"CountryCode":null},{"ID":37030,"Name":"Santa Lucia","Lat":-28.9833,"Lon":-59.1,"CountryCode":null},{"ID":42925,"Name":"Santa Maria","Lat":-31.2611,"Lon":-64.4639,"CountryCode":null},{"ID":27908,"Name":"Santa Maria","Lat":-26.6833,"Lon":-66.0333,"CountryCode":null},{"ID":29538,"Name":"Santa Rosa","Lat":-33.25,"Lon":-68.15,"CountryCode":null},{"ID":5985,"Name":"Santa Rosa","Lat":-36.6167,"Lon":-64.2833,"CountryCode":null},{"ID":34423,"Name":"Santa Rosa de Calamuchita","Lat":-32.0667,"Lon":-64.5333,"CountryCode":null},{"ID":38813,"Name":"Santa Rosa de Rio Primero","Lat":-31.15,"Lon":-63.3833,"CountryCode":null},{"ID":44416,"Name":"Santa Sylvina","Lat":-27.7833,"Lon":-61.15,"CountryCode":null},{"ID":842,"Name":"Santiago del Estero","Lat":-27.7833,"Lon":-64.2667,"CountryCode":null},{"ID":8869,"Name":"Santo Tome","Lat":-31.6667,"Lon":-60.7667,"CountryCode":null},{"ID":21785,"Name":"Santo Tome","Lat":-28.55,"Lon":-56.05,"CountryCode":null},{"ID":9500,"Name":"Sarandi","Lat":-34.6833,"Lon":-58.3333,"CountryCode":null},{"ID":38853,"Name":"Sarmiento","Lat":-45.6,"Lon":-69.0833,"CountryCode":null},{"ID":44174,"Name":"Sauce","Lat":-30.0667,"Lon":-58.7667,"CountryCode":null},{"ID":47136,"Name":"Sierra Colorada","Lat":-40.5833,"Lon":-67.8,"CountryCode":null},{"ID":24144,"Name":"Sunchales","Lat":-30.9333,"Lon":-61.5667,"CountryCode":null},{"ID":47227,"Name":"Susques","Lat":-23.4167,"Lon":-66.4833,"CountryCode":null},{"ID":13802,"Name":"Tafi Viejo","Lat":-26.7333,"Lon":-65.2667,"CountryCode":null},{"ID":47412,"Name":"Tandil","Lat":-37.3167,"Lon":-59.1333,"CountryCode":null},{"ID":21563,"Name":"Tapiales","Lat":-34.7058,"Lon":-58.5047,"CountryCode":null},{"ID":9182,"Name":"Tartagal","Lat":-22.5,"Lon":-63.8333,"CountryCode":null},{"ID":47358,"Name":"Telsen","Lat":-42.3833,"Lon":-66.95,"CountryCode":null},{"ID":5124,"Name":"Temperley","Lat":-34.7667,"Lon":-58.3833,"CountryCode":null},{"ID":16561,"Name":"Termas de Rio Hondo","Lat":-27.4833,"Lon":-64.8667,"CountryCode":null},{"ID":37279,"Name":"Tinogasta","Lat":-28.0667,"Lon":-67.5667,"CountryCode":null},{"ID":13144,"Name":"Tolosa","Lat":-34.8942,"Lon":-57.9647,"CountryCode":null},{"ID":36670,"Name":"Tornquist","Lat":-38.1,"Lon":-62.2167,"CountryCode":null},{"ID":13237,"Name":"Tortuguitas","Lat":-34.475,"Lon":-58.7556,"CountryCode":null},{"ID":31350,"Name":"Tostado","Lat":-29.2333,"Lon":-61.7667,"CountryCode":null},{"ID":46866,"Name":"Trancas","Lat":-26.2172,"Lon":-65.2831,"CountryCode":null},{"ID":6260,"Name":"Trelew","Lat":-43.25,"Lon":-65.3,"CountryCode":null},{"ID":12074,"Name":"Trenque Lauquen","Lat":-35.9667,"Lon":-62.7,"CountryCode":null},{"ID":10014,"Name":"Tres Arroyos","Lat":-38.3667,"Lon":-60.2667,"CountryCode":null},{"ID":20724,"Name":"Tres Isletas","Lat":-26.35,"Lon":-60.4167,"CountryCode":null},{"ID":11442,"Name":"Tunuyan","Lat":-33.5667,"Lon":-69.0167,"CountryCode":null},{"ID":26228,"Name":"Unquillo","Lat":-31.2333,"Lon":-64.3167,"CountryCode":null},{"ID":44669,"Name":"Urdinarrain","Lat":-32.6856,"Lon":-58.8867,"CountryCode":null},{"ID":10068,"Name":"Ushuaia","Lat":-54.8019,"Lon":-68.3031,"CountryCode":null},{"ID":46860,"Name":"Uspallata","Lat":-32.5667,"Lon":-69.3167,"CountryCode":null},{"ID":46579,"Name":"Veinticinco de Mayo","Lat":-37.7712,"Lon":-67.7174,"CountryCode":null},{"ID":21704,"Name":"Veinticinco de Mayo","Lat":-35.4167,"Lon":-60.1667,"CountryCode":null},{"ID":46556,"Name":"Veintiocho de Noviembre","Lat":-51.65,"Lon":-72.3,"CountryCode":null},{"ID":47516,"Name":"Venado Tuerto","Lat":-33.75,"Lon":-61.9667,"CountryCode":null},{"ID":25474,"Name":"Vera","Lat":-29.4667,"Lon":-60.2167,"CountryCode":null},{"ID":44826,"Name":"Viale","Lat":-31.8667,"Lon":-60.0167,"CountryCode":null},{"ID":21211,"Name":"Vicente Lopez","Lat":-34.5333,"Lon":-58.475,"CountryCode":null},{"ID":17258,"Name":"Victoria","Lat":-32.6167,"Lon":-60.1667,"CountryCode":null},{"ID":46747,"Name":"Victorica","Lat":-36.2167,"Lon":-65.45,"CountryCode":null},{"ID":9328,"Name":"Viedma","Lat":-40.8,"Lon":-63,"CountryCode":null},{"ID":44787,"Name":"Villa Aberastain","Lat":-31.65,"Lon":-68.5833,"CountryCode":null},{"ID":15240,"Name":"Villa Adelina","Lat":-34.5167,"Lon":-58.5333,"CountryCode":null},{"ID":13307,"Name":"Villa Alsina","Lat":-34.6667,"Lon":-58.4167,"CountryCode":null},{"ID":13231,"Name":"Villa Angela","Lat":-27.5833,"Lon":-60.7167,"CountryCode":null},{"ID":15245,"Name":"Villa Ballester","Lat":-34.5167,"Lon":-58.5333,"CountryCode":null},{"ID":36039,"Name":"Villa Berthet","Lat":-27.2667,"Lon":-60.4167,"CountryCode":null},{"ID":43179,"Name":"Villa Canas","Lat":-34,"Lon":-61.6,"CountryCode":null},{"ID":7852,"Name":"Villa Carlos Paz","Lat":-31.4,"Lon":-64.5167,"CountryCode":null},{"ID":7543,"Name":"Villa Celina","Lat":-34.7167,"Lon":-58.4833,"CountryCode":null},{"ID":11787,"Name":"Villa Constitucion","Lat":-33.2333,"Lon":-60.3333,"CountryCode":null},{"ID":30095,"Name":"Villa del Rosario","Lat":-31.5833,"Lon":-63.5333,"CountryCode":null},{"ID":17644,"Name":"Villa Dolores","Lat":-31.9333,"Lon":-65.2,"CountryCode":null},{"ID":9285,"Name":"Villa Dominico","Lat":-34.6917,"Lon":-58.3333,"CountryCode":null},{"ID":25034,"Name":"Villa Elisa","Lat":-34.8533,"Lon":-58.0792,"CountryCode":null},{"ID":40502,"Name":"Villa Elisa","Lat":-32.1667,"Lon":-58.4,"CountryCode":null},{"ID":17793,"Name":"Villa Gesell","Lat":-37.25,"Lon":-56.9833,"CountryCode":null},{"ID":5739,"Name":"Villa Krause","Lat":-31.5833,"Lon":-68.5333,"CountryCode":null},{"ID":38274,"Name":"Villa La Angostura","Lat":-40.7625,"Lon":-71.6463,"CountryCode":null},{"ID":6466,"Name":"Villa Luzuriaga","Lat":-34.6595,"Lon":-58.5833,"CountryCode":null},{"ID":6812,"Name":"Villa Maria","Lat":-32.4103,"Lon":-63.2314,"CountryCode":null},{"ID":5575,"Name":"Villa Mercedes","Lat":-33.6667,"Lon":-65.4667,"CountryCode":null},{"ID":39026,"Name":"Villa Nougues","Lat":-26.8578,"Lon":-65.3756,"CountryCode":null},{"ID":25880,"Name":"Villa Nueva","Lat":-32.4331,"Lon":-63.2475,"CountryCode":null},{"ID":30568,"Name":"Villa Ocampo","Lat":-28.4833,"Lon":-59.35,"CountryCode":null},{"ID":30695,"Name":"Villa Ojo de Agua","Lat":-29.5167,"Lon":-63.7,"CountryCode":null},{"ID":30181,"Name":"Villa Paranacito","Lat":-33.7,"Lon":-58.6833,"CountryCode":null},{"ID":17508,"Name":"Villa Regina","Lat":-39.1,"Lon":-67.0667,"CountryCode":null},{"ID":47192,"Name":"Villa Rumipal","Lat":-32.1879,"Lon":-64.4803,"CountryCode":null},{"ID":28795,"Name":"Villa San Jose","Lat":-32.2,"Lon":-58.2167,"CountryCode":null},{"ID":27362,"Name":"Villa Sarmiento","Lat":-34.6333,"Lon":-58.5667,"CountryCode":null},{"ID":35572,"Name":"Villa Union","Lat":-29.3,"Lon":-68.2,"CountryCode":null},{"ID":11385,"Name":"Villaguay","Lat":-31.85,"Lon":-59.0167,"CountryCode":null},{"ID":46946,"Name":"Villalonga","Lat":-39.8829,"Lon":-62.5833,"CountryCode":null},{"ID":13831,"Name":"Virreyes","Lat":-34.45,"Lon":-58.5333,"CountryCode":null},{"ID":29906,"Name":"Wanda","Lat":-25.9667,"Lon":-54.5833,"CountryCode":null},{"ID":8846,"Name":"Wilde","Lat":-34.7,"Lon":-58.3167,"CountryCode":null},{"ID":45240,"Name":"Yacimiento Rio Turbio","Lat":-51.5333,"Lon":-72.3,"CountryCode":null},{"ID":11230,"Name":"Yerba Buena","Lat":-26.8167,"Lon":-65.3167,"CountryCode":null},{"ID":16573,"Name":"Zapala","Lat":-38.9,"Lon":-70.0667,"CountryCode":null},{"ID":6233,"Name":"Zarate","Lat":-34.0833,"Lon":-59.0333,"CountryCode":null}]