[{"ID":42100,"Name":"Altmunster","Lat":47.9014,"Lon":13.7514,"CountryCode":null},{"ID":21581,"Name":"Amstetten","Lat":48.1167,"Lon":14.8667,"CountryCode":null},{"ID":28975,"Name":"Ansfelden","Lat":48.2083,"Lon":14.2889,"CountryCode":null},{"ID":44799,"Name":"Attnang-Puchheim","Lat":48.0167,"Lon":13.7197,"CountryCode":null},{"ID":32098,"Name":"Bad Ischl","Lat":47.7203,"Lon":13.6333,"CountryCode":null},{"ID":36478,"Name":"Bad Voslau","Lat":47.9667,"Lon":16.2167,"CountryCode":null},{"ID":19635,"Name":"Baden","Lat":48.0075,"Lon":16.2344,"CountryCode":null},{"ID":44357,"Name":"Berndorf","Lat":47.9428,"Lon":16.1036,"CountryCode":null},{"ID":39684,"Name":"Bischofshofen","Lat":47.4172,"Lon":13.2194,"CountryCode":null},{"ID":30790,"Name":"Bludenz","Lat":47.1333,"Lon":9.8167,"CountryCode":null},{"ID":27829,"Name":"Braunau am Inn","Lat":48.2583,"Lon":13.035,"CountryCode":null},{"ID":17780,"Name":"Bregenz","Lat":47.505,"Lon":9.7492,"CountryCode":null},{"ID":29513,"Name":"Bruck an der Mur","Lat":47.4167,"Lon":15.2667,"CountryCode":null},{"ID":36431,"Name":"Brunn am Gebirge","Lat":48.1,"Lon":16.2833,"CountryCode":null},{"ID":36756,"Name":"Deutschlandsberg","Lat":46.8161,"Lon":15.215,"CountryCode":null},{"ID":45812,"Name":"Deutsch-Wagram","Lat":48.3,"Lon":16.5667,"CountryCode":null},{"ID":11646,"Name":"Dornbirn","Lat":47.4139,"Lon":9.7444,"CountryCode":null},{"ID":38636,"Name":"Ebreichsdorf","Lat":47.9667,"Lon":16.4,"CountryCode":null},{"ID":31522,"Name":"Eisenstadt","Lat":47.85,"Lon":16.5167,"CountryCode":null},{"ID":45318,"Name":"Engerwitzdorf","Lat":48.3397,"Lon":14.4256,"CountryCode":null},{"ID":36284,"Name":"Enns","Lat":48.2167,"Lon":14.475,"CountryCode":null},{"ID":33388,"Name":"Feldbach","Lat":46.95,"Lon":15.8833,"CountryCode":null},{"ID":31999,"Name":"Feldkirchen","Lat":46.7167,"Lon":14.1,"CountryCode":null},{"ID":46166,"Name":"Furstenfeld","Lat":47.05,"Lon":16.0833,"CountryCode":null},{"ID":37467,"Name":"Ganserndorf","Lat":48.3406,"Lon":16.7175,"CountryCode":null},{"ID":38044,"Name":"Gerasdorf bei Wien","Lat":48.295,"Lon":16.4675,"CountryCode":null},{"ID":39080,"Name":"Gleisdorf","Lat":47.1039,"Lon":15.7083,"CountryCode":null},{"ID":33714,"Name":"Gmunden","Lat":47.9181,"Lon":13.7994,"CountryCode":null},{"ID":37305,"Name":"Gotzis","Lat":47.3331,"Lon":9.6333,"CountryCode":null},{"ID":2357,"Name":"Graz","Lat":47.0708,"Lon":15.4386,"CountryCode":null},{"ID":36534,"Name":"Gross-Enzersdorf","Lat":48.2,"Lon":16.55,"CountryCode":null},{"ID":43964,"Name":"Guntramsdorf","Lat":48.05,"Lon":16.3167,"CountryCode":null},{"ID":32499,"Name":"Hall in Tirol","Lat":47.2833,"Lon":11.5,"CountryCode":null},{"ID":23560,"Name":"Hallein","Lat":47.6831,"Lon":13.0969,"CountryCode":null},{"ID":33180,"Name":"Hard","Lat":47.4667,"Lon":9.6667,"CountryCode":null},{"ID":28036,"Name":"Hohenems","Lat":47.3667,"Lon":9.6667,"CountryCode":null},{"ID":36828,"Name":"Hollabrunn","Lat":48.5667,"Lon":16.1,"CountryCode":null},{"ID":39782,"Name":"Imst","Lat":47.2394,"Lon":10.7381,"CountryCode":null},{"ID":4808,"Name":"Innsbruck","Lat":47.2683,"Lon":11.3933,"CountryCode":null},{"ID":41585,"Name":"Judenburg","Lat":47.1725,"Lon":14.6603,"CountryCode":null},{"ID":22212,"Name":"Kapfenberg","Lat":47.4333,"Lon":15.2833,"CountryCode":null},{"ID":6064,"Name":"Klagenfurt","Lat":46.6167,"Lon":14.3,"CountryCode":null},{"ID":19147,"Name":"Klosterneuburg","Lat":48.3042,"Lon":16.3167,"CountryCode":null},{"ID":34822,"Name":"Knittelfeld","Lat":47.215,"Lon":14.8294,"CountryCode":null},{"ID":41802,"Name":"Koflach","Lat":47.0667,"Lon":15.0833,"CountryCode":null},{"ID":34136,"Name":"Korneuburg","Lat":48.3453,"Lon":16.3331,"CountryCode":null},{"ID":11260,"Name":"Krems an der Donau","Lat":48.4167,"Lon":15.6167,"CountryCode":null},{"ID":25543,"Name":"Kufstein","Lat":47.5833,"Lon":12.1667,"CountryCode":null},{"ID":41892,"Name":"Laakirchen","Lat":47.9828,"Lon":13.8242,"CountryCode":null},{"ID":41223,"Name":"Lauterach","Lat":47.4772,"Lon":9.7314,"CountryCode":null},{"ID":34029,"Name":"Leibnitz","Lat":46.7831,"Lon":15.545,"CountryCode":null},{"ID":20791,"Name":"Leoben","Lat":47.3817,"Lon":15.0972,"CountryCode":null},{"ID":18266,"Name":"Leonding","Lat":48.2667,"Lon":14.25,"CountryCode":null},{"ID":36286,"Name":"Lienz","Lat":46.8297,"Lon":12.7697,"CountryCode":null},{"ID":3152,"Name":"Linz","Lat":48.3058,"Lon":14.2864,"CountryCode":null},{"ID":3313,"Name":"Lochau","Lat":47.5167,"Lon":9.75,"CountryCode":null},{"ID":21574,"Name":"Lustenau","Lat":47.4297,"Lon":9.6597,"CountryCode":null},{"ID":33011,"Name":"Marchtrenk","Lat":48.1917,"Lon":14.1106,"CountryCode":null},{"ID":45192,"Name":"Maria Enzersdorf","Lat":48.1,"Lon":16.2833,"CountryCode":null},{"ID":37103,"Name":"Mistelbach","Lat":48.5667,"Lon":16.5667,"CountryCode":null},{"ID":24130,"Name":"Modling","Lat":48.0833,"Lon":16.2667,"CountryCode":null},{"ID":34340,"Name":"Neunkirchen","Lat":47.7333,"Lon":16.0833,"CountryCode":null},{"ID":30550,"Name":"Perchtoldsdorf","Lat":48.1167,"Lon":16.2667,"CountryCode":null},{"ID":42382,"Name":"Purkersdorf","Lat":48.2092,"Lon":16.1792,"CountryCode":null},{"ID":36450,"Name":"Rankweil","Lat":47.2667,"Lon":9.65,"CountryCode":null},{"ID":36354,"Name":"Ried im Innkreis","Lat":48.21,"Lon":13.4894,"CountryCode":null},{"ID":43466,"Name":"Rum","Lat":47.2872,"Lon":11.4581,"CountryCode":null},{"ID":28351,"Name":"Saalfelden am Steinernen Meer","Lat":47.4269,"Lon":12.8483,"CountryCode":null},{"ID":4122,"Name":"Salzburg","Lat":47.8,"Lon":13.045,"CountryCode":null},{"ID":41600,"Name":"Sankt Andra","Lat":46.7667,"Lon":14.8167,"CountryCode":null},{"ID":37840,"Name":"Sankt Johann im Pongau","Lat":47.35,"Lon":13.2,"CountryCode":null},{"ID":42227,"Name":"Sankt Johann in Tirol","Lat":47.5225,"Lon":12.4256,"CountryCode":null},{"ID":10293,"Name":"Sankt Polten","Lat":48.2,"Lon":15.6167,"CountryCode":null},{"ID":43457,"Name":"Sankt Valentin","Lat":48.1667,"Lon":14.5333,"CountryCode":null},{"ID":34979,"Name":"Sankt Veit an der Glan","Lat":46.7667,"Lon":14.3667,"CountryCode":null},{"ID":32641,"Name":"Schwaz","Lat":47.35,"Lon":11.7,"CountryCode":null},{"ID":26716,"Name":"Schwechat","Lat":48.1411,"Lon":16.4786,"CountryCode":null},{"ID":43362,"Name":"Sierning","Lat":48.0447,"Lon":14.31,"CountryCode":null},{"ID":30067,"Name":"Spittal an der Drau","Lat":46.7833,"Lon":13.4833,"CountryCode":null},{"ID":45695,"Name":"Stainz","Lat":46.8833,"Lon":15.2667,"CountryCode":null},{"ID":14193,"Name":"Steyr","Lat":48.0333,"Lon":14.4167,"CountryCode":null},{"ID":28071,"Name":"Stockerau","Lat":48.3833,"Lon":16.2167,"CountryCode":null},{"ID":41278,"Name":"Strasshof an der Nordbahn","Lat":48.3194,"Lon":16.6475,"CountryCode":null},{"ID":29191,"Name":"Telfs","Lat":47.2833,"Lon":11.0667,"CountryCode":null},{"ID":31271,"Name":"Ternitz","Lat":47.7167,"Lon":16.0333,"CountryCode":null},{"ID":25835,"Name":"Traiskirchen","Lat":48.0167,"Lon":16.3,"CountryCode":null},{"ID":20901,"Name":"Traun","Lat":48.2217,"Lon":14.2397,"CountryCode":null},{"ID":38120,"Name":"Trofaiach","Lat":47.426,"Lon":15.0067,"CountryCode":null},{"ID":44771,"Name":"Velden am Worthersee","Lat":46.6,"Lon":14.0333,"CountryCode":null},{"ID":376,"Name":"Vienna","Lat":48.2083,"Lon":16.3725,"CountryCode":null},{"ID":8948,"Name":"Villach","Lat":46.6167,"Lon":13.85,"CountryCode":null},{"ID":35495,"Name":"Vocklabruck","Lat":48.0086,"Lon":13.6558,"CountryCode":null},{"ID":43273,"Name":"Voitsberg","Lat":47.0333,"Lon":15.15,"CountryCode":null},{"ID":38625,"Name":"Volkermarkt","Lat":46.6667,"Lon":14.6333,"CountryCode":null},{"ID":37633,"Name":"Waidhofen an der Ybbs","Lat":47.9667,"Lon":14.7667,"CountryCode":null},{"ID":36948,"Name":"Weiz","Lat":47.2169,"Lon":15.6331,"CountryCode":null},{"ID":9440,"Name":"Wels","Lat":48.15,"Lon":14.0167,"CountryCode":null},{"ID":43180,"Name":"Wiener Neudorf","Lat":48.0833,"Lon":16.3167,"CountryCode":null},{"ID":12459,"Name":"Wiener Neustadt","Lat":47.8167,"Lon":16.25,"CountryCode":null},{"ID":20484,"Name":"Wolfsberg","Lat":46.85,"Lon":14.8333,"CountryCode":null},{"ID":32638,"Name":"Worgl","Lat":47.4833,"Lon":12.0667,"CountryCode":null},{"ID":42186,"Name":"Zell am See","Lat":47.3167,"Lon":12.8,"CountryCode":null},{"ID":39195,"Name":"Zwettl","Lat":48.6033,"Lon":15.1689,"CountryCode":null}]