[{"ID":3521,"Name":"Banja Luka","Lat":44.7725,"Lon":17.1925,"CountryCode":null},{"ID":27794,"Name":"Banovici","Lat":44.4,"Lon":18.5333,"CountryCode":null},{"ID":10174,"Name":"Bihac","Lat":44.8167,"Lon":15.8667,"CountryCode":null},{"ID":5435,"Name":"Bijeljina","Lat":44.7569,"Lon":19.2161,"CountryCode":null},{"ID":38972,"Name":"Bileca","Lat":42.8667,"Lon":18.4333,"CountryCode":null},{"ID":40708,"Name":"Bosanska Krupa","Lat":44.8833,"Lon":16.15,"CountryCode":null},{"ID":24328,"Name":"Bratunac","Lat":44.1839,"Lon":19.3308,"CountryCode":null},{"ID":13704,"Name":"Brcko","Lat":44.8772,"Lon":18.8111,"CountryCode":null},{"ID":31379,"Name":"Breza","Lat":44.0167,"Lon":18.2611,"CountryCode":null},{"ID":28438,"Name":"Brod","Lat":45.1333,"Lon":17.9833,"CountryCode":null},{"ID":15559,"Name":"Bugojno","Lat":44.05,"Lon":17.45,"CountryCode":null},{"ID":26225,"Name":"Busovaca","Lat":44.1,"Lon":17.8833,"CountryCode":null},{"ID":18566,"Name":"Capljina","Lat":43.1118,"Lon":17.7055,"CountryCode":null},{"ID":8817,"Name":"Cazin","Lat":44.9667,"Lon":15.9333,"CountryCode":null},{"ID":39788,"Name":"Celic","Lat":44.7167,"Lon":18.8167,"CountryCode":null},{"ID":26592,"Name":"Citluk","Lat":43.2,"Lon":17.7,"CountryCode":null},{"ID":34717,"Name":"Derventa","Lat":44.9775,"Lon":17.9075,"CountryCode":null},{"ID":8568,"Name":"Doboj","Lat":44.7314,"Lon":18.0844,"CountryCode":null},{"ID":14495,"Name":"Donji Kakanj","Lat":44.1311,"Lon":18.0972,"CountryCode":null},{"ID":32351,"Name":"Donji Vakuf","Lat":44.15,"Lon":17.4,"CountryCode":null},{"ID":35417,"Name":"Foca","Lat":43.5064,"Lon":18.7747,"CountryCode":null},{"ID":35363,"Name":"Fojnica","Lat":43.9667,"Lon":17.9,"CountryCode":null},{"ID":44651,"Name":"Gacko","Lat":43.1667,"Lon":18.5333,"CountryCode":null},{"ID":35048,"Name":"Gorazde","Lat":43.6667,"Lon":18.9833,"CountryCode":null},{"ID":22554,"Name":"Gornji Vakuf","Lat":43.9333,"Lon":17.5833,"CountryCode":null},{"ID":12251,"Name":"Gracanica","Lat":44.6892,"Lon":18.3022,"CountryCode":null},{"ID":13876,"Name":"Gradacac","Lat":44.8789,"Lon":18.4258,"CountryCode":null},{"ID":10944,"Name":"Gradiska","Lat":45.1458,"Lon":17.2539,"CountryCode":null},{"ID":21351,"Name":"Hadzici","Lat":43.8217,"Lon":18.2017,"CountryCode":null},{"ID":8758,"Name":"Ilidza","Lat":43.8167,"Lon":18.3,"CountryCode":null},{"ID":25064,"Name":"Ilijas","Lat":43.95,"Lon":18.2667,"CountryCode":null},{"ID":39565,"Name":"Jablanica","Lat":43.65,"Lon":17.75,"CountryCode":null},{"ID":36130,"Name":"Jajce","Lat":44.3417,"Lon":17.2694,"CountryCode":null},{"ID":23961,"Name":"Kiseljak","Lat":43.9431,"Lon":18.0775,"CountryCode":null},{"ID":35389,"Name":"Kladanj","Lat":44.2256,"Lon":18.6925,"CountryCode":null},{"ID":25977,"Name":"Kljuc","Lat":44.5333,"Lon":16.7667,"CountryCode":null},{"ID":44400,"Name":"Livno","Lat":43.8253,"Lon":17.0058,"CountryCode":null},{"ID":18530,"Name":"Ljubuski","Lat":43.1981,"Lon":17.5467,"CountryCode":null},{"ID":30132,"Name":"Lopare","Lat":44.6361,"Lon":18.8444,"CountryCode":null},{"ID":11919,"Name":"Lukavac","Lat":44.55,"Lon":18.5167,"CountryCode":null},{"ID":15398,"Name":"Maglaj","Lat":44.55,"Lon":18.1,"CountryCode":null},{"ID":37382,"Name":"Milici","Lat":44.1661,"Lon":19.075,"CountryCode":null},{"ID":5496,"Name":"Mostar","Lat":43.3436,"Lon":17.8075,"CountryCode":null},{"ID":19111,"Name":"Novi Grad","Lat":45.0481,"Lon":16.3769,"CountryCode":null},{"ID":20438,"Name":"Novi Travnik","Lat":44.1748,"Lon":17.6634,"CountryCode":null},{"ID":25876,"Name":"Odzak","Lat":45.0106,"Lon":18.3264,"CountryCode":null},{"ID":40765,"Name":"Olovo","Lat":44.1275,"Lon":18.58,"CountryCode":null},{"ID":24843,"Name":"Orasje","Lat":45.0361,"Lon":18.6933,"CountryCode":null},{"ID":22575,"Name":"Pale","Lat":43.8119,"Lon":18.5711,"CountryCode":null},{"ID":24214,"Name":"Posusje","Lat":43.472,"Lon":17.3297,"CountryCode":null},{"ID":6758,"Name":"Prijedor","Lat":44.9808,"Lon":16.7133,"CountryCode":null},{"ID":39192,"Name":"Rogatica","Lat":43.7986,"Lon":19.0036,"CountryCode":null},{"ID":11792,"Name":"Sanski Most","Lat":44.7667,"Lon":16.6667,"CountryCode":null},{"ID":35822,"Name":"Sapna","Lat":44.4917,"Lon":19.0028,"CountryCode":null},{"ID":1710,"Name":"Sarajevo","Lat":43.8564,"Lon":18.4131,"CountryCode":null},{"ID":18139,"Name":"Siroki Brijeg","Lat":43.3831,"Lon":17.5927,"CountryCode":null},{"ID":27231,"Name":"Srbac","Lat":45.0958,"Lon":17.5192,"CountryCode":null},{"ID":33303,"Name":"Srebrenica","Lat":44.1042,"Lon":19.2972,"CountryCode":null},{"ID":13780,"Name":"Srebrenik","Lat":44.7,"Lon":18.4833,"CountryCode":null},{"ID":14640,"Name":"Stara Gora","Lat":43.8667,"Lon":18.4333,"CountryCode":null},{"ID":30889,"Name":"Stolac","Lat":43.0825,"Lon":17.9558,"CountryCode":null},{"ID":12783,"Name":"Tesanj","Lat":44.6142,"Lon":17.9894,"CountryCode":null},{"ID":10622,"Name":"Travnik","Lat":44.2264,"Lon":17.6597,"CountryCode":null},{"ID":16863,"Name":"Trebinje","Lat":42.7119,"Lon":18.3461,"CountryCode":null},{"ID":5593,"Name":"Tuzla","Lat":44.5381,"Lon":18.6761,"CountryCode":null},{"ID":42812,"Name":"Vares","Lat":44.1619,"Lon":18.3269,"CountryCode":null},{"ID":13694,"Name":"Visoko","Lat":43.9833,"Lon":18.1667,"CountryCode":null},{"ID":19951,"Name":"Vitez","Lat":44.1585,"Lon":17.7885,"CountryCode":null},{"ID":37326,"Name":"Vlasenica","Lat":44.1833,"Lon":18.9333,"CountryCode":null},{"ID":19598,"Name":"Vogosca","Lat":43.9,"Lon":18.35,"CountryCode":null},{"ID":8330,"Name":"Zenica","Lat":44.2039,"Lon":17.9078,"CountryCode":null},{"ID":16804,"Name":"Zepce","Lat":44.4333,"Lon":18.0333,"CountryCode":null},{"ID":9933,"Name":"Zivinice","Lat":44.45,"Lon":18.65,"CountryCode":null},{"ID":9120,"Name":"Zvornik","Lat":44.3842,"Lon":19.1025,"CountryCode":null}]