[{"ID":12133,"Name":"Aribinda","Lat":14.2292,"Lon":-0.8633,"CountryCode":null},{"ID":5309,"Name":"Banfora","Lat":10.6308,"Lon":-4.7589,"CountryCode":null},{"ID":26783,"Name":"Batie","Lat":9.8833,"Lon":-2.9167,"CountryCode":null},{"ID":22928,"Name":"Beguedo","Lat":11.7833,"Lon":-0.7333,"CountryCode":null},{"ID":36231,"Name":"Bena","Lat":12.0804,"Lon":-4.189,"CountryCode":null},{"ID":44427,"Name":"Beregadougou","Lat":10.7667,"Lon":-4.75,"CountryCode":null},{"ID":14797,"Name":"Binde","Lat":11.75,"Lon":-1.1,"CountryCode":null},{"ID":16981,"Name":"Bittou","Lat":11.2575,"Lon":-0.3039,"CountryCode":null},{"ID":850,"Name":"Bobo-Dioulasso","Lat":11.1833,"Lon":-4.2833,"CountryCode":null},{"ID":23315,"Name":"Bogande","Lat":12.9667,"Lon":-0.15,"CountryCode":null},{"ID":24463,"Name":"Boromo","Lat":11.75,"Lon":-2.9333,"CountryCode":null},{"ID":21125,"Name":"Boulsa","Lat":12.6667,"Lon":-0.5833,"CountryCode":null},{"ID":19063,"Name":"Bourzanga","Lat":13.6781,"Lon":-1.5461,"CountryCode":null},{"ID":20496,"Name":"Bousse","Lat":12.6667,"Lon":-1.8975,"CountryCode":null},{"ID":19887,"Name":"Dano","Lat":11.1436,"Lon":-3.0628,"CountryCode":null},{"ID":9130,"Name":"Dedougou","Lat":12.4667,"Lon":-3.4667,"CountryCode":null},{"ID":29926,"Name":"Diapaga","Lat":12.0667,"Lon":1.7833,"CountryCode":null},{"ID":20050,"Name":"Diebougou","Lat":10.9667,"Lon":-3.25,"CountryCode":null},{"ID":9414,"Name":"Djibo","Lat":14.1011,"Lon":-1.6306,"CountryCode":null},{"ID":11966,"Name":"Dori","Lat":14.03,"Lon":-0.03,"CountryCode":null},{"ID":8045,"Name":"Fada Ngourma","Lat":12.05,"Lon":0.3667,"CountryCode":null},{"ID":24248,"Name":"Fara","Lat":11.5333,"Lon":-2.7667,"CountryCode":null},{"ID":12235,"Name":"Gaoua","Lat":10.3167,"Lon":-3.1667,"CountryCode":null},{"ID":12257,"Name":"Gaoua","Lat":10.3167,"Lon":-3.1667,"CountryCode":null},{"ID":12266,"Name":"Garango","Lat":11.8,"Lon":-0.55,"CountryCode":null},{"ID":30385,"Name":"Gayeri","Lat":12.65,"Lon":0.5,"CountryCode":null},{"ID":30162,"Name":"Gomboussougou","Lat":11.4333,"Lon":-0.7667,"CountryCode":null},{"ID":42218,"Name":"Gorom-Gorom","Lat":14.45,"Lon":-0.2333,"CountryCode":null},{"ID":13618,"Name":"Gourcy","Lat":13.2167,"Lon":-2.35,"CountryCode":null},{"ID":6911,"Name":"Hounde","Lat":11.5,"Lon":-3.5167,"CountryCode":null},{"ID":36031,"Name":"Imassogo","Lat":12.4393,"Lon":-2.3331,"CountryCode":null},{"ID":5070,"Name":"Kaya","Lat":13.0833,"Lon":-1.0833,"CountryCode":null},{"ID":16516,"Name":"Kindi","Lat":12.4333,"Lon":-2.0167,"CountryCode":null},{"ID":42363,"Name":"Kokologo","Lat":12.1833,"Lon":-1.8833,"CountryCode":null},{"ID":18295,"Name":"Kombissiri","Lat":12.0667,"Lon":-1.3333,"CountryCode":null},{"ID":10596,"Name":"Kongoussi","Lat":13.3333,"Lon":-1.5333,"CountryCode":null},{"ID":25811,"Name":"Korsimoro","Lat":12.825,"Lon":-1.0672,"CountryCode":null},{"ID":4011,"Name":"Koudougou","Lat":12.25,"Lon":-2.3667,"CountryCode":null},{"ID":27603,"Name":"Kouka","Lat":11.9,"Lon":-4.3333,"CountryCode":null},{"ID":12110,"Name":"Koupela","Lat":12.1794,"Lon":-0.3517,"CountryCode":null},{"ID":15931,"Name":"Leo","Lat":11.1,"Lon":-2.1,"CountryCode":null},{"ID":18298,"Name":"Manga","Lat":11.6667,"Lon":-1.0667,"CountryCode":null},{"ID":30522,"Name":"Mani","Lat":13.26,"Lon":-0.2094,"CountryCode":null},{"ID":20044,"Name":"Mogtedo","Lat":12.2833,"Lon":-0.8333,"CountryCode":null},{"ID":39228,"Name":"Nandiala","Lat":12.3333,"Lon":-2.1667,"CountryCode":null},{"ID":16010,"Name":"Niangoloko","Lat":10.2833,"Lon":-4.9167,"CountryCode":null},{"ID":33106,"Name":"Niaogho","Lat":11.7667,"Lon":-0.7667,"CountryCode":null},{"ID":16433,"Name":"Nouna","Lat":12.7333,"Lon":-3.8667,"CountryCode":null},{"ID":16045,"Name":"Orodara","Lat":10.98,"Lon":-4.91,"CountryCode":null},{"ID":333,"Name":"Ouagadougou","Lat":12.3686,"Lon":-1.5275,"CountryCode":null},{"ID":5014,"Name":"Ouahigouya","Lat":13.5833,"Lon":-2.4167,"CountryCode":null},{"ID":44271,"Name":"Ouaregou","Lat":11.8,"Lon":-0.7,"CountryCode":null},{"ID":33276,"Name":"Ouargaye","Lat":11.5,"Lon":0.05,"CountryCode":null},{"ID":30386,"Name":"Pa","Lat":11.55,"Lon":-3.26,"CountryCode":null},{"ID":33051,"Name":"Pama","Lat":11.25,"Lon":0.7,"CountryCode":null},{"ID":21693,"Name":"Pissila","Lat":13.1667,"Lon":-0.8167,"CountryCode":null},{"ID":18599,"Name":"Po","Lat":11.1667,"Lon":-1.15,"CountryCode":null},{"ID":6159,"Name":"Pouytenga","Lat":12.25,"Lon":-0.4333,"CountryCode":null},{"ID":15853,"Name":"Reo","Lat":12.3167,"Lon":-2.4667,"CountryCode":null},{"ID":30534,"Name":"Sabou","Lat":12.0667,"Lon":-2.2333,"CountryCode":null},{"ID":20703,"Name":"Salanso","Lat":12.1833,"Lon":-4.0833,"CountryCode":null},{"ID":23566,"Name":"Sapone","Lat":12.0528,"Lon":-1.6036,"CountryCode":null},{"ID":19596,"Name":"Sapouy","Lat":11.5544,"Lon":-1.7736,"CountryCode":null},{"ID":37693,"Name":"Sebba","Lat":13.4333,"Lon":0.5333,"CountryCode":null},{"ID":37379,"Name":"Sideradougou","Lat":10.6876,"Lon":-4.2627,"CountryCode":null},{"ID":43205,"Name":"Soubakaniedougou","Lat":10.4824,"Lon":-5.0098,"CountryCode":null},{"ID":12644,"Name":"Tanghin-Dassouri","Lat":12.2667,"Lon":-1.7167,"CountryCode":null},{"ID":9816,"Name":"Tenkodogo","Lat":11.7833,"Lon":-0.3667,"CountryCode":null},{"ID":44678,"Name":"Tiou","Lat":11.95,"Lon":-2.2,"CountryCode":null},{"ID":11618,"Name":"Titao","Lat":13.25,"Lon":-2.05,"CountryCode":null},{"ID":29488,"Name":"Toma","Lat":12.7667,"Lon":-2.8833,"CountryCode":null},{"ID":19595,"Name":"Tougan","Lat":13.0667,"Lon":-3.0667,"CountryCode":null},{"ID":23786,"Name":"Vili","Lat":12.2833,"Lon":-2.2167,"CountryCode":null},{"ID":14080,"Name":"Yako","Lat":12.9667,"Lon":-2.2667,"CountryCode":null},{"ID":23071,"Name":"Zabre","Lat":11.1833,"Lon":-0.6333,"CountryCode":null},{"ID":16094,"Name":"Ziniare","Lat":12.5833,"Lon":-1.3,"CountryCode":null},{"ID":15205,"Name":"Zorgo","Lat":12.25,"Lon":-0.6167,"CountryCode":null}]