[{"ID":8840,"Name":"Asenovgrad","Lat":42.0167,"Lon":24.8667,"CountryCode":null},{"ID":19006,"Name":"Aytos","Lat":42.7,"Lon":27.25,"CountryCode":null},{"ID":35234,"Name":"Balchik","Lat":43.4269,"Lon":28.1617,"CountryCode":null},{"ID":37582,"Name":"Bankya","Lat":42.7,"Lon":23.1333,"CountryCode":null},{"ID":25875,"Name":"Berkovitsa","Lat":43.2333,"Lon":23.1167,"CountryCode":null},{"ID":7960,"Name":"Blagoevgrad","Lat":42.0119,"Lon":23.0897,"CountryCode":null},{"ID":24079,"Name":"Botevgrad","Lat":42.9083,"Lon":23.7919,"CountryCode":null},{"ID":3144,"Name":"Burgas","Lat":42.503,"Lon":27.4702,"CountryCode":null},{"ID":22274,"Name":"Byala Slatina","Lat":43.4667,"Lon":23.9333,"CountryCode":null},{"ID":30763,"Name":"Chirpan","Lat":42.1998,"Lon":25.3244,"CountryCode":null},{"ID":44936,"Name":"Devnya","Lat":43.2167,"Lon":27.5667,"CountryCode":null},{"ID":15395,"Name":"Dimitrovgrad","Lat":42.05,"Lon":25.6,"CountryCode":null},{"ID":6737,"Name":"Dobrich","Lat":43.5667,"Lon":27.8333,"CountryCode":null},{"ID":44171,"Name":"Dospat","Lat":41.65,"Lon":24.1667,"CountryCode":null},{"ID":12932,"Name":"Dupnitsa","Lat":42.2645,"Lon":23.1164,"CountryCode":null},{"ID":42980,"Name":"Elhovo","Lat":42.1667,"Lon":26.5667,"CountryCode":null},{"ID":40337,"Name":"Etropole","Lat":42.8333,"Lon":24,"CountryCode":null},{"ID":10439,"Name":"Gabrovo","Lat":42.8667,"Lon":25.3333,"CountryCode":null},{"ID":17453,"Name":"Gorna Oryahovitsa","Lat":43.1333,"Lon":25.7,"CountryCode":null},{"ID":17799,"Name":"Gotse Delchev","Lat":41.5667,"Lon":23.7333,"CountryCode":null},{"ID":24999,"Name":"Harmanli","Lat":41.9333,"Lon":25.9,"CountryCode":null},{"ID":7157,"Name":"Haskovo","Lat":41.9333,"Lon":25.5667,"CountryCode":null},{"ID":32981,"Name":"Ihtiman","Lat":42.4333,"Lon":23.8167,"CountryCode":null},{"ID":22384,"Name":"Isperih","Lat":43.7167,"Lon":26.8333,"CountryCode":null},{"ID":10925,"Name":"Kardzhali","Lat":41.65,"Lon":25.3667,"CountryCode":null},{"ID":22945,"Name":"Karlovo","Lat":42.6436,"Lon":24.8072,"CountryCode":null},{"ID":22455,"Name":"Karnobat","Lat":42.6333,"Lon":26.9833,"CountryCode":null},{"ID":29517,"Name":"Kavarna","Lat":43.4331,"Lon":28.3383,"CountryCode":null},{"ID":8813,"Name":"Kazanlak","Lat":42.6167,"Lon":25.4,"CountryCode":null},{"ID":40387,"Name":"Knezha","Lat":43.5,"Lon":24.0833,"CountryCode":null},{"ID":37450,"Name":"Kostinbrod","Lat":42.8167,"Lon":23.2167,"CountryCode":null},{"ID":36278,"Name":"Kozloduy","Lat":43.7833,"Lon":23.7333,"CountryCode":null},{"ID":9511,"Name":"Kyustendil","Lat":42.2833,"Lon":22.6833,"CountryCode":null},{"ID":41169,"Name":"Levski","Lat":43.3667,"Lon":25.1333,"CountryCode":null},{"ID":22930,"Name":"Lom","Lat":43.8256,"Lon":23.2375,"CountryCode":null},{"ID":14493,"Name":"Lovech","Lat":43.1347,"Lon":24.7172,"CountryCode":null},{"ID":25912,"Name":"Lukovit","Lat":43.2,"Lon":24.1667,"CountryCode":null},{"ID":32785,"Name":"Lyaskovets","Lat":43.1,"Lon":25.7167,"CountryCode":null},{"ID":23072,"Name":"Mezdra","Lat":43.15,"Lon":23.7,"CountryCode":null},{"ID":43792,"Name":"Momchilgrad","Lat":41.5333,"Lon":25.4167,"CountryCode":null},{"ID":13649,"Name":"Montana","Lat":43.4075,"Lon":23.2217,"CountryCode":null},{"ID":32074,"Name":"Nesebar","Lat":42.65,"Lon":27.7333,"CountryCode":null},{"ID":22688,"Name":"Nova Zagora","Lat":42.4911,"Lon":26.0144,"CountryCode":null},{"ID":33151,"Name":"Novi Iskar","Lat":42.8,"Lon":23.35,"CountryCode":null},{"ID":34657,"Name":"Novi Pazar","Lat":43.35,"Lon":27.2,"CountryCode":null},{"ID":20631,"Name":"Omurtag","Lat":43.1,"Lon":26.417,"CountryCode":null},{"ID":23332,"Name":"Panagyurishte","Lat":42.5,"Lon":24.1833,"CountryCode":null},{"ID":33731,"Name":"Parvomay","Lat":42.1,"Lon":25.2167,"CountryCode":null},{"ID":41491,"Name":"Pavlikeni","Lat":43.2428,"Lon":25.3217,"CountryCode":null},{"ID":6692,"Name":"Pazardzhik","Lat":42.2,"Lon":24.3333,"CountryCode":null},{"ID":6304,"Name":"Pernik","Lat":42.6,"Lon":23.0333,"CountryCode":null},{"ID":24828,"Name":"Peshtera","Lat":42.0333,"Lon":24.3,"CountryCode":null},{"ID":17777,"Name":"Petrich","Lat":41.3953,"Lon":23.2069,"CountryCode":null},{"ID":5210,"Name":"Pleven","Lat":43.4078,"Lon":24.6203,"CountryCode":null},{"ID":2029,"Name":"Plovdiv","Lat":42.15,"Lon":24.75,"CountryCode":null},{"ID":31642,"Name":"Pomorie","Lat":42.5683,"Lon":27.6167,"CountryCode":null},{"ID":21407,"Name":"Popovo","Lat":43.35,"Lon":26.2333,"CountryCode":null},{"ID":35248,"Name":"Provadia","Lat":43.1833,"Lon":27.4333,"CountryCode":null},{"ID":37224,"Name":"Radnevo","Lat":42.3,"Lon":25.9333,"CountryCode":null},{"ID":33809,"Name":"Radomir","Lat":42.55,"Lon":22.95,"CountryCode":null},{"ID":45859,"Name":"Rakitovo","Lat":41.9833,"Lon":24.0833,"CountryCode":null},{"ID":20285,"Name":"Rakovski","Lat":42.3,"Lon":24.9667,"CountryCode":null},{"ID":12347,"Name":"Razgrad","Lat":43.5333,"Lon":26.5167,"CountryCode":null},{"ID":35404,"Name":"Razlog","Lat":41.8833,"Lon":23.4667,"CountryCode":null},{"ID":4435,"Name":"Ruse","Lat":43.8231,"Lon":25.9539,"CountryCode":null},{"ID":15218,"Name":"Samokov","Lat":42.3333,"Lon":23.55,"CountryCode":null},{"ID":14842,"Name":"Sandanski","Lat":41.5667,"Lon":23.2833,"CountryCode":null},{"ID":22505,"Name":"Sevlievo","Lat":43.0256,"Lon":25.1133,"CountryCode":null},{"ID":7033,"Name":"Shumen","Lat":43.2833,"Lon":26.9333,"CountryCode":null},{"ID":12730,"Name":"Silistra","Lat":44.1172,"Lon":27.2606,"CountryCode":null},{"ID":5408,"Name":"Sliven","Lat":42.6833,"Lon":26.3333,"CountryCode":null},{"ID":15603,"Name":"Smolyan","Lat":41.5833,"Lon":24.7,"CountryCode":null},{"ID":506,"Name":"Sofia","Lat":42.7,"Lon":23.33,"CountryCode":null},{"ID":46000,"Name":"Sopot","Lat":42.65,"Lon":24.75,"CountryCode":null},{"ID":31039,"Name":"Sozopol","Lat":42.4167,"Lon":27.7,"CountryCode":null},{"ID":45906,"Name":"Sredets","Lat":42.35,"Lon":27.2,"CountryCode":null},{"ID":37720,"Name":"Stamboliyski","Lat":42.1333,"Lon":24.5333,"CountryCode":null},{"ID":4452,"Name":"Stara Zagora","Lat":42.4256,"Lon":25.6344,"CountryCode":null},{"ID":26606,"Name":"Svilengrad","Lat":41.7667,"Lon":26.2,"CountryCode":null},{"ID":12486,"Name":"Svishtov","Lat":43.6167,"Lon":25.35,"CountryCode":null},{"ID":10697,"Name":"Targovishte","Lat":43.25,"Lon":26.5833,"CountryCode":null},{"ID":23381,"Name":"Teteven","Lat":42.9167,"Lon":24.2667,"CountryCode":null},{"ID":18814,"Name":"Troyan","Lat":42.8833,"Lon":24.7167,"CountryCode":null},{"ID":36198,"Name":"Tryavna","Lat":42.8669,"Lon":25.5,"CountryCode":null},{"ID":44521,"Name":"Tutrakan","Lat":44.05,"Lon":26.6167,"CountryCode":null},{"ID":2017,"Name":"Varna","Lat":43.2167,"Lon":27.9167,"CountryCode":null},{"ID":30784,"Name":"Veliki Preslav","Lat":43.1667,"Lon":26.817,"CountryCode":null},{"ID":7705,"Name":"Veliko Tarnovo","Lat":43.0778,"Lon":25.6167,"CountryCode":null},{"ID":21161,"Name":"Velingrad","Lat":42.0167,"Lon":24,"CountryCode":null},{"ID":12015,"Name":"Vidin","Lat":44,"Lon":22.8667,"CountryCode":null},{"ID":9537,"Name":"Vratsa","Lat":43.2,"Lon":23.55,"CountryCode":null},{"ID":8322,"Name":"Yambol","Lat":42.4833,"Lon":26.5,"CountryCode":null},{"ID":35918,"Name":"Zlatograd","Lat":41.3833,"Lon":25.1,"CountryCode":null}]