[{"ID":27673,"Name":"Abadiania","Lat":-16.1,"Lon":-48.8,"CountryCode":null},{"ID":21812,"Name":"Abaete","Lat":-19.1583,"Lon":-45.4522,"CountryCode":null},{"ID":4054,"Name":"Abaetetuba","Lat":-1.7178,"Lon":-48.8828,"CountryCode":null},{"ID":41197,"Name":"Abaiara","Lat":-7.35,"Lon":-39.05,"CountryCode":null},{"ID":27155,"Name":"Abare","Lat":-8.7167,"Lon":-39.1167,"CountryCode":null},{"ID":27485,"Name":"Abelardo Luz","Lat":-26.5647,"Lon":-52.3283,"CountryCode":null},{"ID":32455,"Name":"Abre Campo","Lat":-20.3008,"Lon":-42.4778,"CountryCode":null},{"ID":6238,"Name":"Abreu e Lima","Lat":-7.9117,"Lon":-34.9028,"CountryCode":null},{"ID":47093,"Name":"Abuna","Lat":-9.6954,"Lon":-65.3597,"CountryCode":null},{"ID":5791,"Name":"Acailandia","Lat":-4.9469,"Lon":-47.505,"CountryCode":null},{"ID":32683,"Name":"Acajutiba","Lat":-11.6667,"Lon":-38.0167,"CountryCode":null},{"ID":9991,"Name":"Acara","Lat":-1.9608,"Lon":-48.1969,"CountryCode":null},{"ID":28846,"Name":"Acarape","Lat":-4.2242,"Lon":-38.7083,"CountryCode":null},{"ID":8989,"Name":"Acarau","Lat":-2.8858,"Lon":-40.1186,"CountryCode":null},{"ID":39523,"Name":"Acari","Lat":-6.46,"Lon":-36.641,"CountryCode":null},{"ID":12331,"Name":"Acopiara","Lat":-6.1,"Lon":-39.45,"CountryCode":null},{"ID":10659,"Name":"Acu","Lat":-5.5769,"Lon":-36.9089,"CountryCode":null},{"ID":44805,"Name":"Acucena","Lat":-19.0667,"Lon":-42.5333,"CountryCode":null},{"ID":15320,"Name":"Adamantina","Lat":-21.6847,"Lon":-51.0733,"CountryCode":null},{"ID":31993,"Name":"Adustina","Lat":-10.5333,"Lon":-38.1167,"CountryCode":null},{"ID":13578,"Name":"Afogados da Ingazeira","Lat":-7.7508,"Lon":-37.6389,"CountryCode":null},{"ID":38895,"Name":"Afonso Bezerra","Lat":-5.5,"Lon":-36.5167,"CountryCode":null},{"ID":17325,"Name":"Afonso Claudio","Lat":-20.0739,"Lon":-41.1239,"CountryCode":null},{"ID":26017,"Name":"Afranio","Lat":-8.515,"Lon":-41.005,"CountryCode":null},{"ID":14373,"Name":"Afua","Lat":-0.1569,"Lon":-50.3869,"CountryCode":null},{"ID":21442,"Name":"Agrestina","Lat":-8.45,"Lon":-35.95,"CountryCode":null},{"ID":26667,"Name":"Agua Azul do Norte","Lat":-6.7908,"Lon":-50.4669,"CountryCode":null},{"ID":31445,"Name":"Agua Boa","Lat":-17.9958,"Lon":-42.3889,"CountryCode":null},{"ID":27252,"Name":"Agua Branca","Lat":-5.89,"Lon":-42.6378,"CountryCode":null},{"ID":25669,"Name":"Agua Branca","Lat":-9.2608,"Lon":-37.9361,"CountryCode":null},{"ID":43473,"Name":"Agua Branca","Lat":-7.5119,"Lon":-37.6408,"CountryCode":null},{"ID":28303,"Name":"Agua Clara","Lat":-20.4478,"Lon":-52.8778,"CountryCode":null},{"ID":31491,"Name":"Agua Fria","Lat":-11.8669,"Lon":-38.7669,"CountryCode":null},{"ID":19520,"Name":"Agua Preta","Lat":-8.7069,"Lon":-35.5308,"CountryCode":null},{"ID":15459,"Name":"Aguai","Lat":-22.0603,"Lon":-46.9736,"CountryCode":null},{"ID":13187,"Name":"Aguas Belas","Lat":-9.1167,"Lon":-37.1167,"CountryCode":null},{"ID":26963,"Name":"Aguas de Lindoia","Lat":-22.4767,"Lon":-46.6333,"CountryCode":null},{"ID":25402,"Name":"Aguas Formosas","Lat":-17.0819,"Lon":-40.9358,"CountryCode":null},{"ID":32237,"Name":"Aguas Vermelhas","Lat":-15.75,"Lon":-41.4667,"CountryCode":null},{"ID":29198,"Name":"Agudo","Lat":-29.6453,"Lon":-53.24,"CountryCode":null},{"ID":14513,"Name":"Agudos","Lat":-22.4739,"Lon":-48.9836,"CountryCode":null},{"ID":40600,"Name":"Agudos do Sul","Lat":-25.9833,"Lon":-49.3333,"CountryCode":null},{"ID":42944,"Name":"Aguia Branca","Lat":-18.9828,"Lon":-40.74,"CountryCode":null},{"ID":20420,"Name":"Aimores","Lat":-19.4958,"Lon":-41.0639,"CountryCode":null},{"ID":32175,"Name":"Aiuaba","Lat":-6.6333,"Lon":-40.1167,"CountryCode":null},{"ID":19787,"Name":"Alagoa Grande","Lat":-7.0889,"Lon":-35.635,"CountryCode":null},{"ID":23778,"Name":"Alagoa Nova","Lat":-7.0708,"Lon":-35.7578,"CountryCode":null},{"ID":31159,"Name":"Alagoinha","Lat":-12.3333,"Lon":-42.1167,"CountryCode":null},{"ID":32805,"Name":"Alagoinha","Lat":-6.95,"Lon":-35.545,"CountryCode":null},{"ID":33114,"Name":"Alagoinha","Lat":-8.4658,"Lon":-36.7758,"CountryCode":null},{"ID":4185,"Name":"Alagoinhas","Lat":-12.1358,"Lon":-38.4189,"CountryCode":null},{"ID":26249,"Name":"Alcantara","Lat":-2.4089,"Lon":-44.415,"CountryCode":null},{"ID":37553,"Name":"Alcantaras","Lat":-3.5889,"Lon":-40.5458,"CountryCode":null},{"ID":20861,"Name":"Alcobaca","Lat":-17.519,"Lon":-39.196,"CountryCode":null},{"ID":21794,"Name":"Aldeias Altas","Lat":-4.6278,"Lon":-43.4708,"CountryCode":null},{"ID":17187,"Name":"Alegre","Lat":-20.7639,"Lon":-41.5328,"CountryCode":null},{"ID":8126,"Name":"Alegrete","Lat":-29.7838,"Lon":-55.791,"CountryCode":null},{"ID":17207,"Name":"Alem Paraiba","Lat":-21.8878,"Lon":-42.7039,"CountryCode":null},{"ID":8472,"Name":"Alenquer","Lat":-1.9448,"Lon":-54.732,"CountryCode":null},{"ID":32936,"Name":"Alexandria","Lat":-6.4128,"Lon":-38.0158,"CountryCode":null},{"ID":19183,"Name":"Alexania","Lat":-16.0786,"Lon":-48.5008,"CountryCode":null},{"ID":7520,"Name":"Alfenas","Lat":-21.4333,"Lon":-45.95,"CountryCode":null},{"ID":32403,"Name":"Alfredo Chaves","Lat":-20.635,"Lon":-40.75,"CountryCode":null},{"ID":39855,"Name":"Alfredo Wagner","Lat":-27.7,"Lon":-49.3339,"CountryCode":null},{"ID":23085,"Name":"Alhandra","Lat":-7.4333,"Lon":-34.9,"CountryCode":null},{"ID":15072,"Name":"Alianca","Lat":-7.6028,"Lon":-35.2308,"CountryCode":null},{"ID":15674,"Name":"Almeirim","Lat":-1.5228,"Lon":-52.5819,"CountryCode":null},{"ID":13539,"Name":"Almenara","Lat":-16.1839,"Lon":-40.6939,"CountryCode":null},{"ID":5201,"Name":"Almirante Tamandare","Lat":-25.325,"Lon":-49.31,"CountryCode":null},{"ID":24745,"Name":"Alpinopolis","Lat":-20.8639,"Lon":-46.3878,"CountryCode":null},{"ID":9812,"Name":"Alta Floresta","Lat":-9.8861,"Lon":-56.0872,"CountryCode":null},{"ID":23263,"Name":"Alta Floresta D'Oeste","Lat":-11.9681,"Lon":-61.9542,"CountryCode":null},{"ID":4969,"Name":"Altamira","Lat":-3.2028,"Lon":-52.2058,"CountryCode":null},{"ID":32470,"Name":"Alterosa","Lat":-21.25,"Lon":-46.1333,"CountryCode":null},{"ID":28960,"Name":"Altinopolis","Lat":-21.0231,"Lon":-47.3728,"CountryCode":null},{"ID":37292,"Name":"Alto Alegre dos Parecis","Lat":-12.1278,"Lon":-61.8508,"CountryCode":null},{"ID":25258,"Name":"Alto Araguaia","Lat":-17.3167,"Lon":-53.2,"CountryCode":null},{"ID":35106,"Name":"Alto do Rodrigues","Lat":-5.2833,"Lon":-36.7667,"CountryCode":null},{"ID":33968,"Name":"Alto Garcas","Lat":-16.9333,"Lon":-53.5333,"CountryCode":null},{"ID":31757,"Name":"Alto Longa","Lat":-5.25,"Lon":-42.2,"CountryCode":null},{"ID":40400,"Name":"Alto Paraiso de Goias","Lat":-14.1333,"Lon":-47.5167,"CountryCode":null},{"ID":32481,"Name":"Alto Parana","Lat":-23.0833,"Lon":-52.3667,"CountryCode":null},{"ID":38153,"Name":"Alto Parnaiba","Lat":-9.1108,"Lon":-45.93,"CountryCode":null},{"ID":42293,"Name":"Alto Piquiri","Lat":-24.0167,"Lon":-53.4667,"CountryCode":null},{"ID":38759,"Name":"Alto Rio Doce","Lat":-21.0333,"Lon":-43.4167,"CountryCode":null},{"ID":32064,"Name":"Alto Santo","Lat":-5.5208,"Lon":-38.2719,"CountryCode":null},{"ID":25957,"Name":"Altonia","Lat":-23.9333,"Lon":-53.9,"CountryCode":null},{"ID":11781,"Name":"Altos","Lat":-5.0389,"Lon":-42.4608,"CountryCode":null},{"ID":29474,"Name":"Alvaraes","Lat":-3.2208,"Lon":-64.8042,"CountryCode":null},{"ID":19049,"Name":"Alvares Machado","Lat":-22.0744,"Lon":-51.4733,"CountryCode":null},{"ID":30535,"Name":"Alvinopolis","Lat":-20.1069,"Lon":-43.0489,"CountryCode":null},{"ID":3489,"Name":"Alvorada","Lat":-29.9897,"Lon":-51.0833,"CountryCode":null},{"ID":45275,"Name":"Alvorada","Lat":-12.48,"Lon":-49.125,"CountryCode":null},{"ID":40293,"Name":"Alvorada do Sul","Lat":-22.7833,"Lon":-51.1833,"CountryCode":null},{"ID":33844,"Name":"Alvorada D'Oeste","Lat":-11.3414,"Lon":-62.2864,"CountryCode":null},{"ID":13880,"Name":"Amambai","Lat":-23.1039,"Lon":-55.2258,"CountryCode":null},{"ID":46391,"Name":"Amapa","Lat":2.0528,"Lon":-50.7928,"CountryCode":null},{"ID":26532,"Name":"Amaraji","Lat":-8.4,"Lon":-35.45,"CountryCode":null},{"ID":27665,"Name":"Amarante","Lat":-6.2408,"Lon":-42.855,"CountryCode":null},{"ID":14598,"Name":"Amarante do Maranhao","Lat":-5.6,"Lon":-46.75,"CountryCode":null},{"ID":14496,"Name":"Amargosa","Lat":-13.03,"Lon":-39.605,"CountryCode":null},{"ID":38948,"Name":"Amatura","Lat":-3.3639,"Lon":-68.1978,"CountryCode":null},{"ID":30427,"Name":"America Dourada","Lat":-11.455,"Lon":-41.4358,"CountryCode":null},{"ID":2780,"Name":"Americana","Lat":-22.7386,"Lon":-47.3311,"CountryCode":null},{"ID":14232,"Name":"Americo Brasiliense","Lat":-21.7361,"Lon":-48.1114,"CountryCode":null},{"ID":13009,"Name":"Amontada","Lat":-3.3833,"Lon":-39.8333,"CountryCode":null},{"ID":8097,"Name":"Amparo","Lat":-22.7031,"Lon":-46.765,"CountryCode":null},{"ID":25049,"Name":"Ampere","Lat":-25.915,"Lon":-53.4728,"CountryCode":null},{"ID":32639,"Name":"Anadia","Lat":-9.6844,"Lon":-36.3042,"CountryCode":null},{"ID":20214,"Name":"Anage","Lat":-14.6,"Lon":-41.1333,"CountryCode":null},{"ID":18627,"Name":"Anajas","Lat":-0.9869,"Lon":-49.94,"CountryCode":null},{"ID":19213,"Name":"Anajatuba","Lat":-3.2639,"Lon":-44.62,"CountryCode":null},{"ID":41581,"Name":"Anama","Lat":-3.58,"Lon":-61.4039,"CountryCode":null},{"ID":40298,"Name":"Ananas","Lat":-6.3658,"Lon":-48.0728,"CountryCode":null},{"ID":1539,"Name":"Ananindeua","Lat":-1.3658,"Lon":-48.3719,"CountryCode":null},{"ID":1799,"Name":"Anapolis","Lat":-16.3339,"Lon":-48.9519,"CountryCode":null},{"ID":32688,"Name":"Anapurus","Lat":-3.6719,"Lon":-43.1158,"CountryCode":null},{"ID":21191,"Name":"Anastacio","Lat":-20.4839,"Lon":-55.8069,"CountryCode":null},{"ID":17586,"Name":"Anchieta","Lat":-20.8056,"Lon":-40.6444,"CountryCode":null},{"ID":33913,"Name":"Andarai","Lat":-11.7125,"Lon":-40.6258,"CountryCode":null},{"ID":24825,"Name":"Andira","Lat":-23.0508,"Lon":-50.2289,"CountryCode":null},{"ID":30612,"Name":"Andorinha","Lat":-10.345,"Lon":-39.8328,"CountryCode":null},{"ID":13494,"Name":"Andradas","Lat":-22.0678,"Lon":-46.5689,"CountryCode":null},{"ID":9641,"Name":"Andradina","Lat":-20.8958,"Lon":-51.3789,"CountryCode":null},{"ID":44196,"Name":"Andre Fernandes","Lat":-15.9664,"Lon":-41.4978,"CountryCode":null},{"ID":36303,"Name":"Andrelandia","Lat":-21.74,"Lon":-44.3089,"CountryCode":null},{"ID":21156,"Name":"Angatuba","Lat":-23.4903,"Lon":-48.4128,"CountryCode":null},{"ID":40578,"Name":"Angelim","Lat":-8.8833,"Lon":-36.2833,"CountryCode":null},{"ID":32795,"Name":"Angical","Lat":-12.0069,"Lon":-44.6939,"CountryCode":null},{"ID":36938,"Name":"Angicos","Lat":-5.6658,"Lon":-36.6008,"CountryCode":null},{"ID":3852,"Name":"Angra dos Reis","Lat":-23.0067,"Lon":-44.3181,"CountryCode":null},{"ID":38363,"Name":"Anguera","Lat":-12.1496,"Lon":-39.2468,"CountryCode":null},{"ID":26205,"Name":"Anicuns","Lat":-16.4628,"Lon":-49.9606,"CountryCode":null},{"ID":43264,"Name":"Anisio de Abreu","Lat":-9.1889,"Lon":-43.0458,"CountryCode":null},{"ID":27709,"Name":"Anori","Lat":-3.7728,"Lon":-61.6442,"CountryCode":null},{"ID":31979,"Name":"Antas","Lat":-10.4,"Lon":-38.3328,"CountryCode":null},{"ID":26814,"Name":"Antenor Navarro","Lat":-6.7333,"Lon":-38.45,"CountryCode":null},{"ID":26659,"Name":"Antonina","Lat":-25.4289,"Lon":-48.7119,"CountryCode":null},{"ID":38058,"Name":"Antonio Cardoso","Lat":-12.435,"Lon":-39.12,"CountryCode":null},{"ID":38189,"Name":"Antonio Carlos","Lat":-21.3178,"Lon":-43.7469,"CountryCode":null},{"ID":37873,"Name":"Antonio Carlos","Lat":-27.5169,"Lon":-48.7678,"CountryCode":null},{"ID":43847,"Name":"Antonio Dias","Lat":-19.6528,"Lon":-42.8719,"CountryCode":null},{"ID":34147,"Name":"Antonio Prado","Lat":-28.8578,"Lon":-51.2828,"CountryCode":null},{"ID":14902,"Name":"Aparecida","Lat":-22.8472,"Lon":-45.23,"CountryCode":null},{"ID":18817,"Name":"Aparecida do Taboado","Lat":-20.0869,"Lon":-51.0939,"CountryCode":null},{"ID":38356,"Name":"Aperibe","Lat":-21.6208,"Lon":-42.1028,"CountryCode":null},{"ID":20361,"Name":"Apiai","Lat":-24.5097,"Lon":-48.8428,"CountryCode":null},{"ID":42037,"Name":"Apiuna","Lat":-27.0333,"Lon":-49.4167,"CountryCode":null},{"ID":14940,"Name":"Apodi","Lat":-5.6639,"Lon":-37.7989,"CountryCode":null},{"ID":29391,"Name":"Apora","Lat":-11.66,"Lon":-38.0808,"CountryCode":null},{"ID":4829,"Name":"Apucarana","Lat":-23.5508,"Lon":-51.4608,"CountryCode":null},{"ID":34313,"Name":"Apuiares","Lat":-3.9333,"Lon":-39.4,"CountryCode":null},{"ID":24519,"Name":"Aquidaba","Lat":-10.2808,"Lon":-37.0189,"CountryCode":null},{"ID":11658,"Name":"Aquidauana","Lat":-20.4708,"Lon":-55.7869,"CountryCode":null},{"ID":7401,"Name":"Aquiraz","Lat":-3.9,"Lon":-38.3831,"CountryCode":null},{"ID":28410,"Name":"Aracagi","Lat":-6.8528,"Lon":-35.3808,"CountryCode":null},{"ID":1124,"Name":"Aracaju","Lat":-10.9167,"Lon":-37.05,"CountryCode":null},{"ID":22150,"Name":"Aracariguama","Lat":-23.4386,"Lon":-47.0614,"CountryCode":null},{"ID":37109,"Name":"Aracas","Lat":-12.22,"Lon":-38.2028,"CountryCode":null},{"ID":7869,"Name":"Aracati","Lat":-4.5619,"Lon":-37.77,"CountryCode":null},{"ID":32433,"Name":"Aracatu","Lat":-14.4167,"Lon":-41.45,"CountryCode":null},{"ID":3307,"Name":"Aracatuba","Lat":-21.2089,"Lon":-50.4328,"CountryCode":null},{"ID":11653,"Name":"Araci","Lat":-11.3328,"Lon":-38.9669,"CountryCode":null},{"ID":20134,"Name":"Aracoiaba","Lat":-4.3708,"Lon":-38.8139,"CountryCode":null},{"ID":25407,"Name":"Aracoiaba","Lat":-7.7881,"Lon":-35.0897,"CountryCode":null},{"ID":16933,"Name":"Aracoiaba da Serra","Lat":-23.5053,"Lon":-47.6142,"CountryCode":null},{"ID":5970,"Name":"Aracruz","Lat":-19.82,"Lon":-40.2728,"CountryCode":null},{"ID":15668,"Name":"Aracuai","Lat":-16.85,"Lon":-42.07,"CountryCode":null},{"ID":26335,"Name":"Aragarcas","Lat":-15.9025,"Lon":-52.2419,"CountryCode":null},{"ID":36378,"Name":"Aragoiania","Lat":-16.9142,"Lon":-49.4525,"CountryCode":null},{"ID":3766,"Name":"Araguaina","Lat":-7.1908,"Lon":-48.2069,"CountryCode":null},{"ID":5285,"Name":"Araguari","Lat":-18.6489,"Lon":-48.1869,"CountryCode":null},{"ID":16658,"Name":"Araguatins","Lat":-5.6508,"Lon":-48.1239,"CountryCode":null},{"ID":11913,"Name":"Araioses","Lat":-2.89,"Lon":-41.9028,"CountryCode":null},{"ID":41981,"Name":"Aramari","Lat":-12.0667,"Lon":-38.5,"CountryCode":null},{"ID":2862,"Name":"Arapiraca","Lat":-9.7519,"Lon":-36.6608,"CountryCode":null},{"ID":5224,"Name":"Arapongas","Lat":-23.4189,"Lon":-51.4239,"CountryCode":null},{"ID":19994,"Name":"Arapoti","Lat":-24.1667,"Lon":-49.6667,"CountryCode":null},{"ID":31044,"Name":"Araputanga","Lat":-15.4708,"Lon":-58.3528,"CountryCode":null},{"ID":12259,"Name":"Araquari","Lat":-26.3833,"Lon":-48.7167,"CountryCode":null},{"ID":35673,"Name":"Arara","Lat":-6.8278,"Lon":-35.7578,"CountryCode":null},{"ID":8170,"Name":"Ararangua","Lat":-28.935,"Lon":-49.4858,"CountryCode":null},{"ID":2777,"Name":"Araraquara","Lat":-21.7939,"Lon":-48.1758,"CountryCode":null},{"ID":4791,"Name":"Araras","Lat":-22.3572,"Lon":-47.3844,"CountryCode":null},{"ID":38185,"Name":"Ararenda","Lat":-4.75,"Lon":-40.8333,"CountryCode":null},{"ID":17859,"Name":"Arari","Lat":-3.4539,"Lon":-44.78,"CountryCode":null},{"ID":46244,"Name":"Ararica","Lat":-29.616,"Lon":-50.928,"CountryCode":null},{"ID":24911,"Name":"Araripe","Lat":-7.2128,"Lon":-40.0458,"CountryCode":null},{"ID":7055,"Name":"Araripina","Lat":-7.55,"Lon":-40.5667,"CountryCode":null},{"ID":4849,"Name":"Araruama","Lat":-22.8728,"Lon":-42.3428,"CountryCode":null},{"ID":31512,"Name":"Araruna","Lat":-23.9319,"Lon":-52.4958,"CountryCode":null},{"ID":27713,"Name":"Araruna","Lat":-6.5578,"Lon":-35.7419,"CountryCode":null},{"ID":40720,"Name":"Arataca","Lat":-15.2628,"Lon":-39.4139,"CountryCode":null},{"ID":37872,"Name":"Aratuba","Lat":-4.4178,"Lon":-39.045,"CountryCode":null},{"ID":45725,"Name":"Aratuipe","Lat":-13.0833,"Lon":-39,"CountryCode":null},{"ID":41630,"Name":"Araua","Lat":-11.2619,"Lon":-37.62,"CountryCode":null},{"ID":4202,"Name":"Araucaria","Lat":-25.4167,"Lon":-49.25,"CountryCode":null},{"ID":43904,"Name":"Araujos","Lat":-19.9478,"Lon":-45.1658,"CountryCode":null},{"ID":5566,"Name":"Araxa","Lat":-19.5928,"Lon":-46.9408,"CountryCode":null},{"ID":43970,"Name":"Arceburgo","Lat":-21.3639,"Lon":-46.94,"CountryCode":null},{"ID":13225,"Name":"Arcos","Lat":-20.2914,"Lon":-45.5397,"CountryCode":null},{"ID":8540,"Name":"Arcoverde","Lat":-8.4189,"Lon":-37.0539,"CountryCode":null},{"ID":32519,"Name":"Areado","Lat":-21.3589,"Lon":-46.1458,"CountryCode":null},{"ID":36520,"Name":"Areal","Lat":-22.2308,"Lon":-43.1058,"CountryCode":null},{"ID":45941,"Name":"Arealva","Lat":-22.0286,"Lon":-48.9111,"CountryCode":null},{"ID":22338,"Name":"Areia","Lat":-6.9628,"Lon":-35.6919,"CountryCode":null},{"ID":21204,"Name":"Areia Branca","Lat":-4.9558,"Lon":-37.1369,"CountryCode":null},{"ID":26003,"Name":"Areia Branca","Lat":-10.7578,"Lon":-37.315,"CountryCode":null},{"ID":38031,"Name":"Areiopolis","Lat":-22.6681,"Lon":-48.665,"CountryCode":null},{"ID":42989,"Name":"Arenapolis","Lat":-14.4333,"Lon":-56.8167,"CountryCode":null},{"ID":33610,"Name":"Ares","Lat":-6.1833,"Lon":-35.15,"CountryCode":null},{"ID":27622,"Name":"Arinos","Lat":-15.9119,"Lon":-46.0964,"CountryCode":null},{"ID":19217,"Name":"Aripuana","Lat":-10.1767,"Lon":-59.4439,"CountryCode":null},{"ID":5586,"Name":"Ariquemes","Lat":-9.9161,"Lon":-63.0408,"CountryCode":null},{"ID":13655,"Name":"Armacao dos Buzios","Lat":-22.7469,"Lon":-41.8819,"CountryCode":null},{"ID":45169,"Name":"Armazem","Lat":-28.2619,"Lon":-49.0178,"CountryCode":null},{"ID":25983,"Name":"Aroeiras","Lat":-7.545,"Lon":-35.7078,"CountryCode":null},{"ID":17083,"Name":"Arraial do Cabo","Lat":-22.9658,"Lon":-42.0278,"CountryCode":null},{"ID":40437,"Name":"Arraias","Lat":-12.9308,"Lon":-46.9378,"CountryCode":null},{"ID":22880,"Name":"Arroio do Meio","Lat":-29.4008,"Lon":-51.945,"CountryCode":null},{"ID":35986,"Name":"Arroio do Tigre","Lat":-29.3328,"Lon":-53.0928,"CountryCode":null},{"ID":31326,"Name":"Arroio dos Ratos","Lat":-30.0769,"Lon":-51.7289,"CountryCode":null},{"ID":27270,"Name":"Arroio Grande","Lat":-32.2378,"Lon":-53.0869,"CountryCode":null},{"ID":11197,"Name":"Artur Nogueira","Lat":-22.5731,"Lon":-47.1725,"CountryCode":null},{"ID":7139,"Name":"Aruja","Lat":-23.3967,"Lon":-46.3211,"CountryCode":null},{"ID":40312,"Name":"Arvorezinha","Lat":-28.8833,"Lon":-52.1667,"CountryCode":null},{"ID":32677,"Name":"Assai","Lat":-23.3728,"Lon":-50.8408,"CountryCode":null},{"ID":23102,"Name":"Assare","Lat":-6.8667,"Lon":-39.8667,"CountryCode":null},{"ID":6063,"Name":"Assis","Lat":-22.6619,"Lon":-50.4119,"CountryCode":null},{"ID":32089,"Name":"Astolfo Dutra","Lat":-21.3167,"Lon":-42.8667,"CountryCode":null},{"ID":20184,"Name":"Astorga","Lat":-23.2328,"Lon":-51.6658,"CountryCode":null},{"ID":14467,"Name":"Atalaia","Lat":-9.5019,"Lon":-36.0228,"CountryCode":null},{"ID":30189,"Name":"Atalaia do Norte","Lat":-4.3719,"Lon":-70.1919,"CountryCode":null},{"ID":32783,"Name":"Ataleia","Lat":-18.0439,"Lon":-41.11,"CountryCode":null},{"ID":4605,"Name":"Atibaia","Lat":-23.1172,"Lon":-46.5506,"CountryCode":null},{"ID":27358,"Name":"Augustinopolis","Lat":-5.4658,"Lon":-47.8878,"CountryCode":null},{"ID":12435,"Name":"Augusto Correa","Lat":-1.0272,"Lon":-46.6446,"CountryCode":null},{"ID":37978,"Name":"Aurelino Leal","Lat":-14.3169,"Lon":-39.3269,"CountryCode":null},{"ID":32851,"Name":"Auriflama","Lat":-20.6856,"Lon":-50.5547,"CountryCode":null},{"ID":21491,"Name":"Aurora","Lat":-6.9428,"Lon":-38.9678,"CountryCode":null},{"ID":13567,"Name":"Autazes","Lat":-3.58,"Lon":-59.1308,"CountryCode":null},{"ID":32561,"Name":"Avanhandava","Lat":-21.4608,"Lon":-49.9497,"CountryCode":null},{"ID":6638,"Name":"Avare","Lat":-23.0989,"Lon":-48.9258,"CountryCode":null},{"ID":26437,"Name":"Aveiro","Lat":-3.6167,"Lon":-55.3167,"CountryCode":null},{"ID":38829,"Name":"Avelino Lopes","Lat":-10.1369,"Lon":-43.9489,"CountryCode":null},{"ID":36600,"Name":"Axixa","Lat":-2.8369,"Lon":-44.0528,"CountryCode":null},{"ID":40516,"Name":"Axixa do Tocantins","Lat":-5.6169,"Lon":-47.7689,"CountryCode":null},{"ID":5942,"Name":"Bacabal","Lat":-4.225,"Lon":-44.78,"CountryCode":null},{"ID":28844,"Name":"Bacuri","Lat":-1.7028,"Lon":-45.1339,"CountryCode":null},{"ID":19040,"Name":"Bady Bassitt","Lat":-20.9181,"Lon":-49.4453,"CountryCode":null},{"ID":26362,"Name":"Baependi","Lat":-21.95,"Lon":-44.8833,"CountryCode":null},{"ID":5279,"Name":"Bage","Lat":-31.3308,"Lon":-54.1069,"CountryCode":null},{"ID":15508,"Name":"Bagre","Lat":-1.9,"Lon":-50.1639,"CountryCode":null},{"ID":43828,"Name":"Baia da Traicao","Lat":-6.7,"Lon":-34.9333,"CountryCode":null},{"ID":45206,"Name":"Baia Formosa","Lat":-6.3689,"Lon":-35.0078,"CountryCode":null},{"ID":32987,"Name":"Baianopolis","Lat":-12.3058,"Lon":-44.535,"CountryCode":null},{"ID":10955,"Name":"Baiao","Lat":-2.7908,"Lon":-49.6719,"CountryCode":null},{"ID":26510,"Name":"Baixa Grande","Lat":-11.96,"Lon":-40.1678,"CountryCode":null},{"ID":18056,"Name":"Baixo Guandu","Lat":-19.5189,"Lon":-41.0158,"CountryCode":null},{"ID":4550,"Name":"Balneario de Camboriu","Lat":-26.9953,"Lon":-48.6356,"CountryCode":null},{"ID":29323,"Name":"Balneario do Rincao","Lat":-28.8344,"Lon":-49.2361,"CountryCode":null},{"ID":33344,"Name":"Balsa Nova","Lat":-25.6,"Lon":-49.6167,"CountryCode":null},{"ID":42688,"Name":"Balsamo","Lat":-20.7339,"Lon":-49.58,"CountryCode":null},{"ID":5740,"Name":"Balsas","Lat":-7.5272,"Lon":-46.0442,"CountryCode":null},{"ID":21600,"Name":"Bambui","Lat":-20.0058,"Lon":-45.9769,"CountryCode":null},{"ID":27708,"Name":"Banabuiu","Lat":-5.2833,"Lon":-38.8667,"CountryCode":null},{"ID":41556,"Name":"Bananal","Lat":-22.6839,"Lon":-44.3236,"CountryCode":null},{"ID":21904,"Name":"Bananeiras","Lat":-6.75,"Lon":-35.6328,"CountryCode":null},{"ID":16955,"Name":"Bandeirantes","Lat":-23.11,"Lon":-50.3678,"CountryCode":null},{"ID":17181,"Name":"Barao de Cocais","Lat":-19.9458,"Lon":-43.4869,"CountryCode":null},{"ID":25710,"Name":"Barao do Grajau","Lat":-6.75,"Lon":-43.0167,"CountryCode":null},{"ID":19269,"Name":"Barauna","Lat":-6.6428,"Lon":-36.2539,"CountryCode":null},{"ID":4986,"Name":"Barbacena","Lat":-21.2167,"Lon":-43.7667,"CountryCode":null},{"ID":9441,"Name":"Barbalha","Lat":-7.305,"Lon":-39.3019,"CountryCode":null},{"ID":39004,"Name":"Barbosa Ferraz","Lat":-24.0667,"Lon":-52.05,"CountryCode":null},{"ID":4957,"Name":"Barcarena Nova","Lat":-1.5058,"Lon":-48.6258,"CountryCode":null},{"ID":25863,"Name":"Barcelos","Lat":-0.975,"Lon":-62.9239,"CountryCode":null},{"ID":15137,"Name":"Bariri","Lat":-22.0744,"Lon":-48.7403,"CountryCode":null},{"ID":11045,"Name":"Barra","Lat":-11.0889,"Lon":-43.1419,"CountryCode":null},{"ID":14846,"Name":"Barra Bonita","Lat":-22.4947,"Lon":-48.5581,"CountryCode":null},{"ID":19810,"Name":"Barra da Estiva","Lat":-13.6258,"Lon":-41.3269,"CountryCode":null},{"ID":34283,"Name":"Barra de Santa Rosa","Lat":-6.7167,"Lon":-36.0667,"CountryCode":null},{"ID":28748,"Name":"Barra de Santo Antonio","Lat":-9.405,"Lon":-35.5069,"CountryCode":null},{"ID":13465,"Name":"Barra de Sao Francisco","Lat":-18.755,"Lon":-40.8908,"CountryCode":null},{"ID":15241,"Name":"Barra do Bugres","Lat":-15.0728,"Lon":-57.1808,"CountryCode":null},{"ID":14789,"Name":"Barra do Choca","Lat":-14.8808,"Lon":-40.5789,"CountryCode":null},{"ID":6817,"Name":"Barra do Corda","Lat":-5.5,"Lon":-45.25,"CountryCode":null},{"ID":8491,"Name":"Barra do Garcas","Lat":-15.89,"Lon":-52.2567,"CountryCode":null},{"ID":32605,"Name":"Barra do Mendes","Lat":-11.81,"Lon":-42.0589,"CountryCode":null},{"ID":6544,"Name":"Barra do Pirai","Lat":-22.47,"Lon":-43.8258,"CountryCode":null},{"ID":35649,"Name":"Barra do Ribeiro","Lat":-30.3,"Lon":-51.3,"CountryCode":null},{"ID":30858,"Name":"Barra do Sul","Lat":-26.4572,"Lon":-48.6114,"CountryCode":null},{"ID":13202,"Name":"Barra dos Coqueiros","Lat":-10.9089,"Lon":-37.0389,"CountryCode":null},{"ID":3794,"Name":"Barra Mansa","Lat":-22.5439,"Lon":-44.1708,"CountryCode":null},{"ID":12223,"Name":"Barra Velha","Lat":-26.6156,"Lon":-48.6847,"CountryCode":null},{"ID":42194,"Name":"Barracao","Lat":-26.2539,"Lon":-53.6328,"CountryCode":null},{"ID":11679,"Name":"Barras","Lat":-4.2469,"Lon":-42.2958,"CountryCode":null},{"ID":22501,"Name":"Barreira","Lat":-4.2869,"Lon":-38.6428,"CountryCode":null},{"ID":4025,"Name":"Barreiras","Lat":-12.1483,"Lon":-44.9925,"CountryCode":null},{"ID":17047,"Name":"Barreirinha","Lat":-2.7928,"Lon":-57.07,"CountryCode":null},{"ID":8886,"Name":"Barreirinhas","Lat":-2.75,"Lon":-42.8333,"CountryCode":null},{"ID":12847,"Name":"Barreiros","Lat":-8.8178,"Lon":-35.1858,"CountryCode":null},{"ID":5092,"Name":"Barretos","Lat":-20.5569,"Lon":-48.5678,"CountryCode":null},{"ID":16973,"Name":"Barrinha","Lat":-21.1946,"Lon":-48.1644,"CountryCode":null},{"ID":25263,"Name":"Barro","Lat":-7.1769,"Lon":-38.7819,"CountryCode":null},{"ID":33251,"Name":"Barro Alto","Lat":-11.7608,"Lon":-41.9147,"CountryCode":null},{"ID":37460,"Name":"Barro Alto","Lat":-14.9683,"Lon":-48.92,"CountryCode":null},{"ID":30333,"Name":"Barrocas","Lat":-11.5289,"Lon":-39.0778,"CountryCode":null},{"ID":31523,"Name":"Barroquinha","Lat":-3.0189,"Lon":-41.1369,"CountryCode":null},{"ID":43589,"Name":"Barros Cassal","Lat":-29.1,"Lon":-52.5833,"CountryCode":null},{"ID":24569,"Name":"Barroso","Lat":-21.1869,"Lon":-43.9758,"CountryCode":null},{"ID":2204,"Name":"Barueri","Lat":-23.5111,"Lon":-46.8764,"CountryCode":null},{"ID":23252,"Name":"Bastos","Lat":-21.9219,"Lon":-50.7319,"CountryCode":null},{"ID":21992,"Name":"Bataguacu","Lat":-21.7139,"Lon":-52.4219,"CountryCode":null},{"ID":37603,"Name":"Bataipora","Lat":-22.295,"Lon":-53.2708,"CountryCode":null},{"ID":19630,"Name":"Batalha","Lat":-4.0239,"Lon":-42.0778,"CountryCode":null},{"ID":28637,"Name":"Batalha","Lat":-9.6778,"Lon":-37.1247,"CountryCode":null},{"ID":9208,"Name":"Batatais","Lat":-20.8911,"Lon":-47.585,"CountryCode":null},{"ID":15280,"Name":"Baturite","Lat":-4.3289,"Lon":-38.885,"CountryCode":null},{"ID":1915,"Name":"Bauru","Lat":-22.315,"Lon":-49.0608,"CountryCode":null},{"ID":7221,"Name":"Bayeux","Lat":-7.1333,"Lon":-34.9333,"CountryCode":null},{"ID":7638,"Name":"Bebedouro","Lat":-20.9494,"Lon":-48.4792,"CountryCode":null},{"ID":10684,"Name":"Beberibe","Lat":-4.1833,"Lon":-38.1333,"CountryCode":null},{"ID":16308,"Name":"Bela Cruz","Lat":-3.0508,"Lon":-40.1678,"CountryCode":null},{"ID":23169,"Name":"Bela Vista","Lat":-22.1089,"Lon":-56.5208,"CountryCode":null},{"ID":15614,"Name":"Bela Vista de Goias","Lat":-16.9667,"Lon":-48.95,"CountryCode":null},{"ID":40786,"Name":"Bela Vista de Minas","Lat":-19.83,"Lon":-43.0908,"CountryCode":null},{"ID":30967,"Name":"Bela Vista do Paraiso","Lat":-23,"Lon":-51.2,"CountryCode":null},{"ID":28702,"Name":"Belem","Lat":-6.7347,"Lon":-35.5169,"CountryCode":null},{"ID":587,"Name":"Belem","Lat":-1.4558,"Lon":-48.5039,"CountryCode":null},{"ID":40142,"Name":"Belem de Maria","Lat":-8.6167,"Lon":-35.85,"CountryCode":null},{"ID":26426,"Name":"Belem de Sao Francisco","Lat":-8.7578,"Lon":-38.9639,"CountryCode":null},{"ID":24529,"Name":"Belmonte","Lat":-15.8631,"Lon":-38.8828,"CountryCode":null},{"ID":26317,"Name":"Belo Campo","Lat":-15.0378,"Lon":-41.26,"CountryCode":null},{"ID":117,"Name":"Belo Horizonte","Lat":-19.9167,"Lon":-43.9333,"CountryCode":null},{"ID":7465,"Name":"Belo Jardim","Lat":-8.3358,"Lon":-36.4239,"CountryCode":null},{"ID":21316,"Name":"Belo Oriente","Lat":-19.22,"Lon":-42.4839,"CountryCode":null},{"ID":45890,"Name":"Belo Vale","Lat":-20.4078,"Lon":-44.0239,"CountryCode":null},{"ID":26654,"Name":"Belterra","Lat":-2.6358,"Lon":-54.9369,"CountryCode":null},{"ID":41853,"Name":"Beneditinos","Lat":-5.45,"Lon":-42.3667,"CountryCode":null},{"ID":39737,"Name":"Benedito Novo","Lat":-26.8,"Lon":-49.4167,"CountryCode":null},{"ID":9139,"Name":"Benevides","Lat":-1.3667,"Lon":-48.25,"CountryCode":null},{"ID":14427,"Name":"Benjamin Constant","Lat":-4.3828,"Lon":-70.0308,"CountryCode":null},{"ID":5064,"Name":"Bento Goncalves","Lat":-29.1708,"Lon":-51.5189,"CountryCode":null},{"ID":25094,"Name":"Bequimao","Lat":-2.4333,"Lon":-44.7833,"CountryCode":null},{"ID":42002,"Name":"Berilo","Lat":-16.9519,"Lon":-42.4658,"CountryCode":null},{"ID":38036,"Name":"Bernardino de Campos","Lat":-23.0131,"Lon":-49.4742,"CountryCode":null},{"ID":9059,"Name":"Bertioga","Lat":-23.8547,"Lon":-46.1389,"CountryCode":null},{"ID":23967,"Name":"Beruri","Lat":-3.8983,"Lon":-61.3731,"CountryCode":null},{"ID":37850,"Name":"Betania","Lat":-8.2758,"Lon":-38.0339,"CountryCode":null},{"ID":1751,"Name":"Betim","Lat":-19.9678,"Lon":-44.1978,"CountryCode":null},{"ID":9376,"Name":"Bezerros","Lat":-8.2353,"Lon":-35.7528,"CountryCode":null},{"ID":31399,"Name":"Bicas","Lat":-21.725,"Lon":-43.0589,"CountryCode":null},{"ID":8464,"Name":"Biguacu","Lat":-27.5,"Lon":-48.6667,"CountryCode":null},{"ID":5229,"Name":"Birigui","Lat":-21.2886,"Lon":-50.34,"CountryCode":null},{"ID":16251,"Name":"Biritiba-Mirim","Lat":-23.5728,"Lon":-46.0389,"CountryCode":null},{"ID":30416,"Name":"Biritinga","Lat":-11.6228,"Lon":-38.8075,"CountryCode":null},{"ID":29900,"Name":"Bituruna","Lat":-26.1667,"Lon":-51.5667,"CountryCode":null},{"ID":1942,"Name":"Blumenau","Lat":-26.9333,"Lon":-49.05,"CountryCode":null},{"ID":13586,"Name":"Boa Esperanca","Lat":-21.09,"Lon":-45.5658,"CountryCode":null},{"ID":31995,"Name":"Boa Esperanca","Lat":-18.54,"Lon":-40.2958,"CountryCode":null},{"ID":30599,"Name":"Boa Esperanca do Sul","Lat":-21.9925,"Lon":-48.3908,"CountryCode":null},{"ID":32857,"Name":"Boa Nova","Lat":-14.3628,"Lon":-40.2078,"CountryCode":null},{"ID":11175,"Name":"Boa Viagem","Lat":-5.1278,"Lon":-39.7319,"CountryCode":null},{"ID":1741,"Name":"Boa Vista","Lat":2.8194,"Lon":-60.6714,"CountryCode":null},{"ID":28131,"Name":"Boa Vista do Tupim","Lat":-12.66,"Lon":-40.6089,"CountryCode":null},{"ID":23537,"Name":"Boca da Mata","Lat":-9.6408,"Lon":-36.22,"CountryCode":null},{"ID":15184,"Name":"Boca do Acre","Lat":-8.7519,"Lon":-67.3978,"CountryCode":null},{"ID":36556,"Name":"Bocaina","Lat":-22.1361,"Lon":-48.5181,"CountryCode":null},{"ID":11657,"Name":"Bocaiuva","Lat":-17.1078,"Lon":-43.815,"CountryCode":null},{"ID":33550,"Name":"Bocaiuva do Sul","Lat":-25.1833,"Lon":-49.1333,"CountryCode":null},{"ID":15595,"Name":"Bodoco","Lat":-7.7778,"Lon":-39.9408,"CountryCode":null},{"ID":38798,"Name":"Bofete","Lat":-23.1022,"Lon":-48.2578,"CountryCode":null},{"ID":9307,"Name":"Boituva","Lat":-23.2833,"Lon":-47.6722,"CountryCode":null},{"ID":12510,"Name":"Bom Conselho","Lat":-9.17,"Lon":-36.68,"CountryCode":null},{"ID":14432,"Name":"Bom Jardim","Lat":-7.7958,"Lon":-35.5869,"CountryCode":null},{"ID":18582,"Name":"Bom Jardim","Lat":-22.1519,"Lon":-42.4189,"CountryCode":null},{"ID":18216,"Name":"Bom Jesus","Lat":-9.0739,"Lon":-44.3589,"CountryCode":null},{"ID":18308,"Name":"Bom Jesus","Lat":-4.42,"Lon":-46.765,"CountryCode":null},{"ID":21299,"Name":"Bom Jesus","Lat":-18.22,"Lon":-49.7275,"CountryCode":null},{"ID":37924,"Name":"Bom Jesus","Lat":-28.6678,"Lon":-50.4169,"CountryCode":null},{"ID":8888,"Name":"Bom Jesus da Lapa","Lat":-13.255,"Lon":-43.4178,"CountryCode":null},{"ID":42288,"Name":"Bom Jesus da Serra","Lat":-14.3833,"Lon":-40.5167,"CountryCode":null},{"ID":31425,"Name":"Bom Jesus do Galho","Lat":-19.8289,"Lon":-42.3158,"CountryCode":null},{"ID":15297,"Name":"Bom Jesus do Itabapoana","Lat":-21.1339,"Lon":-41.68,"CountryCode":null},{"ID":19842,"Name":"Bom Jesus dos Perdoes","Lat":-23.135,"Lon":-46.4653,"CountryCode":null},{"ID":35672,"Name":"Bom Lugar","Lat":-4.22,"Lon":-45.0389,"CountryCode":null},{"ID":33815,"Name":"Bom Principio","Lat":-29.4833,"Lon":-51.35,"CountryCode":null},{"ID":34773,"Name":"Bom Repouso","Lat":-22.4667,"Lon":-46.15,"CountryCode":null},{"ID":35509,"Name":"Bom Retiro do Sul","Lat":-29.6167,"Lon":-51.9333,"CountryCode":null},{"ID":27767,"Name":"Bom Sucesso","Lat":-21.0328,"Lon":-44.7578,"CountryCode":null},{"ID":20472,"Name":"Bombinhas","Lat":-27.1378,"Lon":-48.5169,"CountryCode":null},{"ID":40409,"Name":"Bonfinopolis","Lat":-16.6172,"Lon":-48.96,"CountryCode":null},{"ID":32970,"Name":"Boninal","Lat":-12.7,"Lon":-41.8333,"CountryCode":null},{"ID":29500,"Name":"Bonito","Lat":-11.9658,"Lon":-41.2669,"CountryCode":null},{"ID":21531,"Name":"Bonito","Lat":-21.1333,"Lon":-56.4833,"CountryCode":null},{"ID":14481,"Name":"Bonito","Lat":-8.47,"Lon":-35.7289,"CountryCode":null},{"ID":34827,"Name":"Bonito","Lat":-1.3628,"Lon":-47.3069,"CountryCode":null},{"ID":40548,"Name":"Bonito de Santa Fe","Lat":-7.3167,"Lon":-38.5167,"CountryCode":null},{"ID":27220,"Name":"Boqueirao","Lat":-7.4819,"Lon":-36.135,"CountryCode":null},{"ID":20797,"Name":"Boquim","Lat":-11.1469,"Lon":-37.6208,"CountryCode":null},{"ID":23259,"Name":"Boquira","Lat":-12.8167,"Lon":-42.7667,"CountryCode":null},{"ID":16190,"Name":"Borba","Lat":-4.3878,"Lon":-59.5939,"CountryCode":null},{"ID":31950,"Name":"Borborema","Lat":-21.62,"Lon":-49.0739,"CountryCode":null},{"ID":27468,"Name":"Borda da Mata","Lat":-22.2739,"Lon":-46.165,"CountryCode":null},{"ID":30976,"Name":"Botelhos","Lat":-21.6328,"Lon":-46.395,"CountryCode":null},{"ID":4544,"Name":"Botucatu","Lat":-22.8858,"Lon":-48.445,"CountryCode":null},{"ID":38375,"Name":"Botupora","Lat":-13.3819,"Lon":-42.5228,"CountryCode":null},{"ID":15905,"Name":"Braco do Norte","Lat":-28.275,"Lon":-49.1658,"CountryCode":null},{"ID":4876,"Name":"Braganca","Lat":-1.0628,"Lon":-46.7728,"CountryCode":null},{"ID":3993,"Name":"Braganca Paulista","Lat":-22.9531,"Lon":-46.5422,"CountryCode":null},{"ID":42668,"Name":"Branquinha","Lat":-9.2458,"Lon":-36.015,"CountryCode":null},{"ID":20745,"Name":"Brasil Novo","Lat":-3.2619,"Lon":-52.6678,"CountryCode":null},{"ID":30594,"Name":"Brasilandia","Lat":-17.0117,"Lon":-46.0031,"CountryCode":null},{"ID":19825,"Name":"Brasileia","Lat":-11,"Lon":-68.7333,"CountryCode":null},{"ID":283,"Name":"Brasilia","Lat":-15.7939,"Lon":-47.8828,"CountryCode":null},{"ID":16602,"Name":"Brasilia de Minas","Lat":-16.2078,"Lon":-44.4289,"CountryCode":null},{"ID":27941,"Name":"Brasnorte","Lat":-12.155,"Lon":-57.9789,"CountryCode":null},{"ID":31912,"Name":"Brazopolis","Lat":-22.4739,"Lon":-45.6078,"CountryCode":null},{"ID":44305,"Name":"Brejao","Lat":-9.03,"Lon":-36.5689,"CountryCode":null},{"ID":36330,"Name":"Brejetuba","Lat":-20.1458,"Lon":-41.29,"CountryCode":null},{"ID":35691,"Name":"Brejinho","Lat":-6.1908,"Lon":-35.3569,"CountryCode":null},{"ID":15747,"Name":"Brejo","Lat":-3.6839,"Lon":-42.75,"CountryCode":null},{"ID":11539,"Name":"Brejo da Madre de Deus","Lat":-8.15,"Lon":-36.3667,"CountryCode":null},{"ID":32992,"Name":"Brejo do Cruz","Lat":-6.3489,"Lon":-37.4978,"CountryCode":null},{"ID":11046,"Name":"Brejo Santo","Lat":-7.4833,"Lon":-39,"CountryCode":null},{"ID":34215,"Name":"Brejoes","Lat":-13.1039,"Lon":-39.7958,"CountryCode":null},{"ID":44206,"Name":"Brejolandia","Lat":-12.4828,"Lon":-43.9658,"CountryCode":null},{"ID":5955,"Name":"Breves","Lat":-1.6819,"Lon":-50.48,"CountryCode":null},{"ID":20367,"Name":"Brodosqui","Lat":-20.9908,"Lon":-47.6589,"CountryCode":null},{"ID":21345,"Name":"Brotas","Lat":-22.2847,"Lon":-48.1272,"CountryCode":null},{"ID":36657,"Name":"Brotas de Macaubas","Lat":-12,"Lon":-42.6333,"CountryCode":null},{"ID":14005,"Name":"Brumadinho","Lat":-20.1428,"Lon":-44.2,"CountryCode":null},{"ID":8359,"Name":"Brumado","Lat":-14.2036,"Lon":-41.6653,"CountryCode":null},{"ID":4585,"Name":"Brusque","Lat":-27.0949,"Lon":-48.9148,"CountryCode":null},{"ID":38717,"Name":"Bueno Brandao","Lat":-22.45,"Lon":-46.35,"CountryCode":null},{"ID":44063,"Name":"Buenopolis","Lat":-17.8742,"Lon":-44.1767,"CountryCode":null},{"ID":34462,"Name":"Buenos Aires","Lat":-7.7258,"Lon":-35.3269,"CountryCode":null},{"ID":31014,"Name":"Buerarema","Lat":-14.95,"Lon":-39.3167,"CountryCode":null},{"ID":10870,"Name":"Buique","Lat":-8.6167,"Lon":-37.15,"CountryCode":null},{"ID":34264,"Name":"Bujari","Lat":-9.8308,"Lon":-67.9519,"CountryCode":null},{"ID":17879,"Name":"Bujaru","Lat":-1.5167,"Lon":-48.0167,"CountryCode":null},{"ID":28485,"Name":"Buritama","Lat":-21.0667,"Lon":-50.1475,"CountryCode":null},{"ID":17746,"Name":"Buriti","Lat":-3.9419,"Lon":-42.925,"CountryCode":null},{"ID":39815,"Name":"Buriti Alegre","Lat":-18.1381,"Lon":-49.0417,"CountryCode":null},{"ID":22459,"Name":"Buriti Bravo","Lat":-5.8333,"Lon":-43.8333,"CountryCode":null},{"ID":40369,"Name":"Buriti do Tocantins","Lat":-5.3158,"Lon":-48.2289,"CountryCode":null},{"ID":25023,"Name":"Buriti dos Lopes","Lat":-3.1667,"Lon":-41.8667,"CountryCode":null},{"ID":25084,"Name":"Buritirama","Lat":-10.7078,"Lon":-43.6308,"CountryCode":null},{"ID":34261,"Name":"Buritirama","Lat":-5.5928,"Lon":-47.0178,"CountryCode":null},{"ID":21240,"Name":"Buritis","Lat":-15.6178,"Lon":-46.4228,"CountryCode":null},{"ID":21336,"Name":"Buritizeiro","Lat":-17.3508,"Lon":-44.9639,"CountryCode":null},{"ID":25587,"Name":"Butia","Lat":-30.12,"Lon":-51.9619,"CountryCode":null},{"ID":33214,"Name":"Caapiranga","Lat":-3.3275,"Lon":-61.2089,"CountryCode":null},{"ID":23531,"Name":"Caapora","Lat":-7.5167,"Lon":-34.9,"CountryCode":null},{"ID":28512,"Name":"Cabaceiras do Paraguacu","Lat":-12.55,"Lon":-39.1833,"CountryCode":null},{"ID":8781,"Name":"Cabedelo","Lat":-6.9808,"Lon":-34.8339,"CountryCode":null},{"ID":3005,"Name":"Cabo Frio","Lat":-22.8789,"Lon":-42.0189,"CountryCode":null},{"ID":37459,"Name":"Cabo Verde","Lat":-21.4719,"Lon":-46.3958,"CountryCode":null},{"ID":11170,"Name":"Cabreuva","Lat":-23.3075,"Lon":-47.1331,"CountryCode":null},{"ID":17406,"Name":"Cabrobo","Lat":-8.5142,"Lon":-38.2767,"CountryCode":null},{"ID":7487,"Name":"Cacador","Lat":-26.775,"Lon":-51.015,"CountryCode":null},{"ID":6641,"Name":"Cacapava","Lat":-23.1008,"Lon":-45.7069,"CountryCode":null},{"ID":16405,"Name":"Cacapava do Sul","Lat":-30.5122,"Lon":-53.4908,"CountryCode":null},{"ID":38035,"Name":"Cacequi","Lat":-29.8833,"Lon":-54.8167,"CountryCode":null},{"ID":6748,"Name":"Caceres","Lat":-16.0711,"Lon":-57.6789,"CountryCode":null},{"ID":17964,"Name":"Cachoeira","Lat":-12.5844,"Lon":-38.9558,"CountryCode":null},{"ID":37200,"Name":"Cachoeira Alta","Lat":-18.7558,"Lon":-50.9322,"CountryCode":null},{"ID":36388,"Name":"Cachoeira de Minas","Lat":-22.355,"Lon":-45.7789,"CountryCode":null},{"ID":21279,"Name":"Cachoeira do Arari","Lat":-1.0108,"Lon":-48.9628,"CountryCode":null},{"ID":7413,"Name":"Cachoeira do Sul","Lat":-30.0392,"Lon":-52.8939,"CountryCode":null},{"ID":44059,"Name":"Cachoeira dos Indios","Lat":-6.9269,"Lon":-38.6739,"CountryCode":null},{"ID":16482,"Name":"Cachoeira Paulista","Lat":-22.665,"Lon":-45.0094,"CountryCode":null},{"ID":10070,"Name":"Cachoeiras de Macacu","Lat":-22.4628,"Lon":-42.6528,"CountryCode":null},{"ID":4635,"Name":"Cachoeirinha","Lat":-29.9508,"Lon":-51.0939,"CountryCode":null},{"ID":24803,"Name":"Cachoeirinha","Lat":-8.4858,"Lon":-36.2328,"CountryCode":null},{"ID":3511,"Name":"Cachoeiro de Itapemirim","Lat":-20.8489,"Lon":-41.1128,"CountryCode":null},{"ID":27728,"Name":"Cacimba de Dentro","Lat":-6.6419,"Lon":-35.79,"CountryCode":null},{"ID":39869,"Name":"Cacimbinhas","Lat":-9.4,"Lon":-36.99,"CountryCode":null},{"ID":6924,"Name":"Cacoal","Lat":-11.4386,"Lon":-61.4472,"CountryCode":null},{"ID":25719,"Name":"Caconde","Lat":-21.5289,"Lon":-46.6439,"CountryCode":null},{"ID":32714,"Name":"Cacu","Lat":-18.5631,"Lon":-51.1247,"CountryCode":null},{"ID":22456,"Name":"Cacule","Lat":-14.5028,"Lon":-42.2219,"CountryCode":null},{"ID":40124,"Name":"Caem","Lat":-11.1,"Lon":-40.4333,"CountryCode":null},{"ID":37755,"Name":"Caetano","Lat":-14.3378,"Lon":-40.91,"CountryCode":null},{"ID":37398,"Name":"Caetanopolis","Lat":-19.295,"Lon":-44.4189,"CountryCode":null},{"ID":12288,"Name":"Caete","Lat":-19.88,"Lon":-43.67,"CountryCode":null},{"ID":18196,"Name":"Caetes","Lat":-8.7728,"Lon":-36.6228,"CountryCode":null},{"ID":10885,"Name":"Caetite","Lat":-14.0689,"Lon":-42.475,"CountryCode":null},{"ID":27382,"Name":"Cafarnaum","Lat":-11.7,"Lon":-41.4667,"CountryCode":null},{"ID":27344,"Name":"Cafelandia","Lat":-21.8025,"Lon":-49.61,"CountryCode":null},{"ID":25700,"Name":"Cafelandia","Lat":-24.6178,"Lon":-53.32,"CountryCode":null},{"ID":28563,"Name":"Caiaponia","Lat":-16.9519,"Lon":-51.8061,"CountryCode":null},{"ID":9452,"Name":"Caico","Lat":-6.4578,"Lon":-37.0978,"CountryCode":null},{"ID":5988,"Name":"Caieiras","Lat":-23.3644,"Lon":-46.7408,"CountryCode":null},{"ID":27036,"Name":"Cairu","Lat":-13.4869,"Lon":-39.0439,"CountryCode":null},{"ID":8184,"Name":"Cajamar","Lat":-23.3561,"Lon":-46.8769,"CountryCode":null},{"ID":40927,"Name":"Cajapio","Lat":-2.9667,"Lon":-44.8,"CountryCode":null},{"ID":28688,"Name":"Cajari","Lat":-3.3208,"Lon":-45.0108,"CountryCode":null},{"ID":18365,"Name":"Cajati","Lat":-24.7361,"Lon":-48.1228,"CountryCode":null},{"ID":9173,"Name":"Cajazeiras","Lat":-6.89,"Lon":-38.5619,"CountryCode":null},{"ID":44118,"Name":"Cajobi","Lat":-20.88,"Lon":-48.8089,"CountryCode":null},{"ID":29215,"Name":"Cajueiro","Lat":-9.3967,"Lon":-36.1536,"CountryCode":null},{"ID":19565,"Name":"Cajuru","Lat":-21.2753,"Lon":-47.3042,"CountryCode":null},{"ID":38199,"Name":"Calcado","Lat":-8.7419,"Lon":-36.3339,"CountryCode":null},{"ID":39485,"Name":"Calcoene","Lat":2.4978,"Lon":-50.9489,"CountryCode":null},{"ID":31961,"Name":"Caldas","Lat":-21.9239,"Lon":-46.3858,"CountryCode":null},{"ID":6228,"Name":"Caldas Novas","Lat":-17.745,"Lon":-48.625,"CountryCode":null},{"ID":33914,"Name":"Caldeirao Grande","Lat":-11.02,"Lon":-40.3028,"CountryCode":null},{"ID":45612,"Name":"California","Lat":-23.65,"Lon":-51.355,"CountryCode":null},{"ID":22374,"Name":"Camacan","Lat":-15.4189,"Lon":-39.4958,"CountryCode":null},{"ID":2311,"Name":"Camacari","Lat":-12.6978,"Lon":-38.3239,"CountryCode":null},{"ID":17342,"Name":"Camamu","Lat":-13.95,"Lon":-39.1167,"CountryCode":null},{"ID":19759,"Name":"Camanducaia","Lat":-22.755,"Lon":-46.145,"CountryCode":null},{"ID":33044,"Name":"Camapua","Lat":-19.5308,"Lon":-54.0439,"CountryCode":null},{"ID":9303,"Name":"Camaqua","Lat":-30.85,"Lon":-51.8167,"CountryCode":null},{"ID":4119,"Name":"Camarajibe","Lat":-8.0219,"Lon":-34.9808,"CountryCode":null},{"ID":21848,"Name":"Cambara","Lat":-23.0458,"Lon":-50.0739,"CountryCode":null},{"ID":5765,"Name":"Cambe","Lat":-23.2758,"Lon":-51.2778,"CountryCode":null},{"ID":43111,"Name":"Cambira","Lat":-23.6,"Lon":-51.5667,"CountryCode":null},{"ID":5974,"Name":"Camboriu","Lat":-27.025,"Lon":-48.6539,"CountryCode":null},{"ID":31299,"Name":"Cambuci","Lat":-21.575,"Lon":-41.9108,"CountryCode":null},{"ID":17827,"Name":"Cambui","Lat":-22.6119,"Lon":-46.0578,"CountryCode":null},{"ID":35461,"Name":"Cambuquira","Lat":-21.8519,"Lon":-45.2958,"CountryCode":null},{"ID":4690,"Name":"Cameta","Lat":-2.2439,"Lon":-49.4958,"CountryCode":null},{"ID":9091,"Name":"Camocim","Lat":-2.9019,"Lon":-40.8408,"CountryCode":null},{"ID":27445,"Name":"Camocim de Sao Felix","Lat":-8.35,"Lon":-35.7667,"CountryCode":null},{"ID":29386,"Name":"Campanha","Lat":-21.8389,"Lon":-45.3914,"CountryCode":null},{"ID":23988,"Name":"Campestre","Lat":-21.7108,"Lon":-46.2458,"CountryCode":null},{"ID":29661,"Name":"Campina da Lagoa","Lat":-24.55,"Lon":-52.7167,"CountryCode":null},{"ID":1714,"Name":"Campina Grande","Lat":-7.2306,"Lon":-35.8811,"CountryCode":null},{"ID":14054,"Name":"Campina Grande do Sul","Lat":-25.3058,"Lon":-49.055,"CountryCode":null},{"ID":26735,"Name":"Campina Verde","Lat":-19.5333,"Lon":-49.4833,"CountryCode":null},{"ID":627,"Name":"Campinas","Lat":-22.9058,"Lon":-47.0608,"CountryCode":null},{"ID":35051,"Name":"Campinorte","Lat":-14.315,"Lon":-49.15,"CountryCode":null},{"ID":35067,"Name":"Campo Alegre","Lat":-26.1928,"Lon":-49.2658,"CountryCode":null},{"ID":16568,"Name":"Campo Alegre","Lat":-9.7819,"Lon":-36.3508,"CountryCode":null},{"ID":17230,"Name":"Campo Alegre de Lourdes","Lat":-9.5158,"Lon":-43.0108,"CountryCode":null},{"ID":10840,"Name":"Campo Belo","Lat":-20.8969,"Lon":-45.2769,"CountryCode":null},{"ID":9225,"Name":"Campo Bom","Lat":-29.6789,"Lon":-51.0528,"CountryCode":null},{"ID":28291,"Name":"Campo do Brito","Lat":-10.7328,"Lon":-37.4928,"CountryCode":null},{"ID":37524,"Name":"Campo do Meio","Lat":-21.1069,"Lon":-45.83,"CountryCode":null},{"ID":42604,"Name":"Campo Ere","Lat":-26.3833,"Lon":-53.05,"CountryCode":null},{"ID":8237,"Name":"Campo Formoso","Lat":-10.5089,"Lon":-40.3208,"CountryCode":null},{"ID":857,"Name":"Campo Grande","Lat":-20.4839,"Lon":-54.615,"CountryCode":null},{"ID":4633,"Name":"Campo Largo","Lat":-25.4589,"Lon":-49.5278,"CountryCode":null},{"ID":7350,"Name":"Campo Limpo","Lat":-23.2064,"Lon":-46.7844,"CountryCode":null},{"ID":17638,"Name":"Campo Magro","Lat":-25.3689,"Lon":-49.4508,"CountryCode":null},{"ID":11890,"Name":"Campo Maior","Lat":-4.8333,"Lon":-42.1736,"CountryCode":null},{"ID":6186,"Name":"Campo Mourao","Lat":-24.0458,"Lon":-52.3828,"CountryCode":null},{"ID":12111,"Name":"Campo Novo do Parecis","Lat":-13.675,"Lon":-57.8919,"CountryCode":null},{"ID":40647,"Name":"Campo Redondo","Lat":-6.2428,"Lon":-36.1828,"CountryCode":null},{"ID":1446,"Name":"Campos","Lat":-21.7539,"Lon":-41.3239,"CountryCode":null},{"ID":31978,"Name":"Campos Altos","Lat":-19.6958,"Lon":-46.1708,"CountryCode":null},{"ID":26638,"Name":"Campos Belos","Lat":-13.0369,"Lon":-46.7719,"CountryCode":null},{"ID":11093,"Name":"Campos do Jordao","Lat":-22.7389,"Lon":-45.5908,"CountryCode":null},{"ID":19756,"Name":"Campos Gerais","Lat":-21.235,"Lon":-45.7589,"CountryCode":null},{"ID":45803,"Name":"Campos Lindos","Lat":-7.9939,"Lon":-46.8678,"CountryCode":null},{"ID":14656,"Name":"Campos Novos","Lat":-27.4019,"Lon":-51.225,"CountryCode":null},{"ID":20423,"Name":"Campos Sales","Lat":-7.0739,"Lon":-40.3758,"CountryCode":null},{"ID":35524,"Name":"Cananeia","Lat":-25.0147,"Lon":-47.9267,"CountryCode":null},{"ID":29864,"Name":"Canapi","Lat":-9.1269,"Lon":-37.605,"CountryCode":null},{"ID":40622,"Name":"Canapolis","Lat":-13.07,"Lon":-44.2019,"CountryCode":null},{"ID":39490,"Name":"Canapolis","Lat":-18.725,"Lon":-49.2039,"CountryCode":null},{"ID":21118,"Name":"Canarana","Lat":-11.685,"Lon":-41.7689,"CountryCode":null},{"ID":19945,"Name":"Canarana I","Lat":-13.5544,"Lon":-52.2722,"CountryCode":null},{"ID":17120,"Name":"Canavieiras","Lat":-15.675,"Lon":-38.9469,"CountryCode":null},{"ID":8128,"Name":"Candeias","Lat":-12.6678,"Lon":-38.5508,"CountryCode":null},{"ID":32293,"Name":"Candeias","Lat":-20.7669,"Lon":-45.2758,"CountryCode":null},{"ID":18153,"Name":"Candelaria","Lat":-29.6689,"Lon":-52.7889,"CountryCode":null},{"ID":34026,"Name":"Candiba","Lat":-14.4,"Lon":-42.8667,"CountryCode":null},{"ID":31004,"Name":"Candido de Abreu","Lat":-24.5833,"Lon":-51.3333,"CountryCode":null},{"ID":24378,"Name":"Candido Mendes","Lat":-1.4469,"Lon":-45.7169,"CountryCode":null},{"ID":16915,"Name":"Candido Mota","Lat":-22.7464,"Lon":-50.3869,"CountryCode":null},{"ID":20337,"Name":"Candido Sales","Lat":-15.505,"Lon":-41.2389,"CountryCode":null},{"ID":39232,"Name":"Candiota","Lat":-31.6,"Lon":-53.7333,"CountryCode":null},{"ID":30761,"Name":"Candoi","Lat":-25.7167,"Lon":-52.1833,"CountryCode":null},{"ID":12198,"Name":"Canela","Lat":-29.3617,"Lon":-50.8156,"CountryCode":null},{"ID":34438,"Name":"Canelinha","Lat":-27.2833,"Lon":-48.7833,"CountryCode":null},{"ID":17759,"Name":"Canguaretama","Lat":-6.3833,"Lon":-35.1333,"CountryCode":null},{"ID":11336,"Name":"Cangucu","Lat":-31.4,"Lon":-52.6833,"CountryCode":null},{"ID":21007,"Name":"Canhotinho","Lat":-8.8819,"Lon":-36.1908,"CountryCode":null},{"ID":7952,"Name":"Caninde","Lat":-4.3586,"Lon":-39.314,"CountryCode":null},{"ID":19301,"Name":"Caninde de Sao Francisco","Lat":-9.6419,"Lon":-37.7878,"CountryCode":null},{"ID":2024,"Name":"Canoas","Lat":-29.92,"Lon":-51.18,"CountryCode":null},{"ID":10382,"Name":"Canoinhas","Lat":-26.1769,"Lon":-50.39,"CountryCode":null},{"ID":14497,"Name":"Cansancao","Lat":-10.6708,"Lon":-39.4978,"CountryCode":null},{"ID":24864,"Name":"Cantagalo","Lat":-21.9808,"Lon":-42.3678,"CountryCode":null},{"ID":38658,"Name":"Cantagalo","Lat":-25.3739,"Lon":-52.1258,"CountryCode":null},{"ID":21030,"Name":"Cantanhede","Lat":-3.65,"Lon":-44.4,"CountryCode":null},{"ID":25281,"Name":"Canto do Buriti","Lat":-8.1167,"Lon":-42.9667,"CountryCode":null},{"ID":29109,"Name":"Canudos","Lat":-9.964,"Lon":-39.164,"CountryCode":null},{"ID":28138,"Name":"Canutama","Lat":-6.5339,"Lon":-64.3828,"CountryCode":null},{"ID":24209,"Name":"Capanema","Lat":-25.6719,"Lon":-53.8089,"CountryCode":null},{"ID":8347,"Name":"Capanema","Lat":-1.1958,"Lon":-47.1808,"CountryCode":null},{"ID":11844,"Name":"Capao Bonito","Lat":-24.0058,"Lon":-48.3494,"CountryCode":null},{"ID":9133,"Name":"Capao da Canoa","Lat":-29.7667,"Lon":-50.0167,"CountryCode":null},{"ID":19506,"Name":"Capao do Leao","Lat":-31.7628,"Lon":-52.4839,"CountryCode":null},{"ID":30579,"Name":"Capela","Lat":-9.4075,"Lon":-36.0736,"CountryCode":null},{"ID":16784,"Name":"Capela","Lat":-10.5028,"Lon":-37.0528,"CountryCode":null},{"ID":38030,"Name":"Capela de Santana","Lat":-29.7,"Lon":-51.3333,"CountryCode":null},{"ID":23731,"Name":"Capela do Alto","Lat":-23.4706,"Lon":-47.7347,"CountryCode":null},{"ID":39134,"Name":"Capela do Alto Alegre","Lat":-11.6667,"Lon":-39.85,"CountryCode":null},{"ID":13796,"Name":"Capelinha","Lat":-17.6908,"Lon":-42.5158,"CountryCode":null},{"ID":17266,"Name":"Capim","Lat":-1.675,"Lon":-47.775,"CountryCode":null},{"ID":39366,"Name":"Capim Branco","Lat":-19.5489,"Lon":-44.1169,"CountryCode":null},{"ID":16121,"Name":"Capim Grosso","Lat":-11.3808,"Lon":-40.0128,"CountryCode":null},{"ID":31240,"Name":"Capinopolis","Lat":-18.6667,"Lon":-49.5667,"CountryCode":null},{"ID":21774,"Name":"Capinzal","Lat":-27.3439,"Lon":-51.6119,"CountryCode":null},{"ID":27641,"Name":"Capistrano","Lat":-4.4667,"Lon":-38.9167,"CountryCode":null},{"ID":38179,"Name":"Capitao de Campos","Lat":-4.4569,"Lon":-41.9439,"CountryCode":null},{"ID":32130,"Name":"Capitao Eneas","Lat":-16.3178,"Lon":-43.7092,"CountryCode":null},{"ID":10468,"Name":"Capitao Poco","Lat":-1.75,"Lon":-47.0833,"CountryCode":null},{"ID":40136,"Name":"Capitolio","Lat":-20.615,"Lon":-46.05,"CountryCode":null},{"ID":10677,"Name":"Capivari","Lat":-22.995,"Lon":-47.5078,"CountryCode":null},{"ID":26388,"Name":"Capoeiras","Lat":-8.735,"Lon":-36.6269,"CountryCode":null},{"ID":44836,"Name":"Caputira","Lat":-20.1667,"Lon":-42.2667,"CountryCode":null},{"ID":23751,"Name":"Caracarai","Lat":1.8119,"Lon":-61.1384,"CountryCode":null},{"ID":40328,"Name":"Caracol","Lat":-9.2789,"Lon":-43.33,"CountryCode":null},{"ID":4673,"Name":"Caraguatatuba","Lat":-23.62,"Lon":-45.4128,"CountryCode":null},{"ID":25124,"Name":"Carai","Lat":-17.1889,"Lon":-41.695,"CountryCode":null},{"ID":41658,"Name":"Caraibas","Lat":-14.6,"Lon":-41.335,"CountryCode":null},{"ID":21797,"Name":"Carambei","Lat":-24.9333,"Lon":-50.0833,"CountryCode":null},{"ID":21415,"Name":"Carandai","Lat":-20.9544,"Lon":-43.7914,"CountryCode":null},{"ID":16969,"Name":"Carangola","Lat":-20.7328,"Lon":-42.0289,"CountryCode":null},{"ID":32586,"Name":"Carapebus","Lat":-22.1869,"Lon":-41.6608,"CountryCode":null},{"ID":1842,"Name":"Carapicuiba","Lat":-23.5192,"Lon":-46.8358,"CountryCode":null},{"ID":17262,"Name":"Carapo","Lat":-22.6339,"Lon":-54.8219,"CountryCode":null},{"ID":6894,"Name":"Caratinga","Lat":-19.7833,"Lon":-42.1333,"CountryCode":null},{"ID":18239,"Name":"Carauari","Lat":-4.8828,"Lon":-66.8958,"CountryCode":null},{"ID":25097,"Name":"Caraubas","Lat":-5.7928,"Lon":-37.5569,"CountryCode":null},{"ID":24099,"Name":"Caravelas","Lat":-17.732,"Lon":-39.266,"CountryCode":null},{"ID":9293,"Name":"Carazinho","Lat":-28.2839,"Lon":-52.7858,"CountryCode":null},{"ID":46296,"Name":"Carbonita","Lat":-17.5269,"Lon":-43.0158,"CountryCode":null},{"ID":37610,"Name":"Cardoso","Lat":-20.0819,"Lon":-49.9139,"CountryCode":null},{"ID":34187,"Name":"Cardoso Moreira","Lat":-21.4878,"Lon":-41.6158,"CountryCode":null},{"ID":17175,"Name":"Careiro","Lat":-3.7678,"Lon":-60.3689,"CountryCode":null},{"ID":17147,"Name":"Careiro da Varzea","Lat":-3.2208,"Lon":-59.8258,"CountryCode":null},{"ID":2016,"Name":"Cariacica","Lat":-20.2639,"Lon":-40.42,"CountryCode":null},{"ID":28737,"Name":"Caridade","Lat":-4.2319,"Lon":-39.1928,"CountryCode":null},{"ID":18176,"Name":"Carinhanha","Lat":-14.305,"Lon":-43.765,"CountryCode":null},{"ID":24760,"Name":"Carira","Lat":-10.3608,"Lon":-37.7008,"CountryCode":null},{"ID":27164,"Name":"Carire","Lat":-3.9508,"Lon":-40.4728,"CountryCode":null},{"ID":19613,"Name":"Caririacu","Lat":-7.0333,"Lon":-39.2833,"CountryCode":null},{"ID":27927,"Name":"Carius","Lat":-6.5333,"Lon":-39.5,"CountryCode":null},{"ID":28083,"Name":"Carlopolis","Lat":-23.4167,"Lon":-49.6833,"CountryCode":null},{"ID":17347,"Name":"Carlos Barbosa","Lat":-29.3,"Lon":-51.5,"CountryCode":null},{"ID":26079,"Name":"Carlos Chagas","Lat":-17.7056,"Lon":-40.7631,"CountryCode":null},{"ID":27705,"Name":"Carmo","Lat":-21.9339,"Lon":-42.6089,"CountryCode":null},{"ID":37131,"Name":"Carmo da Cachoeira","Lat":-21.4608,"Lon":-45.2239,"CountryCode":null},{"ID":38388,"Name":"Carmo da Mata","Lat":-20.55,"Lon":-44.8833,"CountryCode":null},{"ID":32679,"Name":"Carmo de Minas","Lat":-22.1219,"Lon":-45.1289,"CountryCode":null},{"ID":21656,"Name":"Carmo do Cajuru","Lat":-20.1839,"Lon":-44.7708,"CountryCode":null},{"ID":18095,"Name":"Carmo do Paranaiba","Lat":-19.0008,"Lon":-48.3158,"CountryCode":null},{"ID":23752,"Name":"Carmo do Rio Claro","Lat":-20.9731,"Lon":-46.1189,"CountryCode":null},{"ID":40735,"Name":"Carmo do Rio Verde","Lat":-15.3569,"Lon":-49.7058,"CountryCode":null},{"ID":32572,"Name":"Carmopolis","Lat":-10.6478,"Lon":-36.9889,"CountryCode":null},{"ID":26908,"Name":"Carmopolis de Minas","Lat":-20.55,"Lon":-44.6333,"CountryCode":null},{"ID":26045,"Name":"Carnaiba","Lat":-7.805,"Lon":-37.7939,"CountryCode":null},{"ID":42328,"Name":"Carnaubais","Lat":-5.35,"Lon":-36.8333,"CountryCode":null},{"ID":27695,"Name":"Carnaubal","Lat":-4.1669,"Lon":-40.9428,"CountryCode":null},{"ID":35620,"Name":"Carnaubeira da Penha","Lat":-8.3219,"Lon":-38.7439,"CountryCode":null},{"ID":43209,"Name":"Carneirinho","Lat":-19.6978,"Lon":-50.6878,"CountryCode":null},{"ID":44615,"Name":"Carneiros","Lat":-9.4828,"Lon":-37.3769,"CountryCode":null},{"ID":7112,"Name":"Carpina","Lat":-7.8508,"Lon":-35.2547,"CountryCode":null},{"ID":1878,"Name":"Caruaru","Lat":-8.2828,"Lon":-35.9758,"CountryCode":null},{"ID":21092,"Name":"Carutapera","Lat":-1.195,"Lon":-46.02,"CountryCode":null},{"ID":18598,"Name":"Casa Branca","Lat":-21.7739,"Lon":-47.0858,"CountryCode":null},{"ID":8148,"Name":"Casa Nova","Lat":-9.1619,"Lon":-40.9708,"CountryCode":null},{"ID":43095,"Name":"Casca","Lat":-28.5667,"Lon":-51.9833,"CountryCode":null},{"ID":8101,"Name":"Cascavel","Lat":-4.1308,"Lon":-38.2358,"CountryCode":null},{"ID":2022,"Name":"Cascavel","Lat":-24.9556,"Lon":-53.4553,"CountryCode":null},{"ID":12051,"Name":"Casimiro de Abreu","Lat":-22.4808,"Lon":-42.2039,"CountryCode":null},{"ID":34173,"Name":"Casinhas","Lat":-7.7408,"Lon":-35.7208,"CountryCode":null},{"ID":27762,"Name":"Cassia","Lat":-20.5828,"Lon":-46.9219,"CountryCode":null},{"ID":23728,"Name":"Cassilandia","Lat":-19.1128,"Lon":-51.7339,"CountryCode":null},{"ID":3419,"Name":"Castanhal","Lat":-1.2969,"Lon":-47.9219,"CountryCode":null},{"ID":15491,"Name":"Castelo","Lat":-20.6039,"Lon":-41.185,"CountryCode":null},{"ID":24975,"Name":"Castelo do Piaui","Lat":-5.3333,"Lon":-41.55,"CountryCode":null},{"ID":24835,"Name":"Castilho","Lat":-20.8722,"Lon":-51.4875,"CountryCode":null},{"ID":8183,"Name":"Castro","Lat":-24.7908,"Lon":-50.0119,"CountryCode":null},{"ID":20750,"Name":"Castro Alves","Lat":-12.7658,"Lon":-39.4278,"CountryCode":null},{"ID":7832,"Name":"Cataguases","Lat":-21.4,"Lon":-42.6833,"CountryCode":null},{"ID":5446,"Name":"Catalao","Lat":-18.17,"Lon":-47.9419,"CountryCode":null},{"ID":5380,"Name":"Catanduva","Lat":-21.1378,"Lon":-48.9728,"CountryCode":null},{"ID":39938,"Name":"Catanduvas","Lat":-25.2028,"Lon":-53.1569,"CountryCode":null},{"ID":39608,"Name":"Catanduvas","Lat":-27.0708,"Lon":-51.6619,"CountryCode":null},{"ID":40574,"Name":"Catarina","Lat":-6.1308,"Lon":-39.8778,"CountryCode":null},{"ID":16544,"Name":"Catende","Lat":-8.6669,"Lon":-35.7169,"CountryCode":null},{"ID":17236,"Name":"Catole do Rocha","Lat":-6.35,"Lon":-37.75,"CountryCode":null},{"ID":10394,"Name":"Catu","Lat":-12.3497,"Lon":-38.3831,"CountryCode":null},{"ID":45736,"Name":"Catuipe","Lat":-28.25,"Lon":-54.0119,"CountryCode":null},{"ID":39945,"Name":"Catunda","Lat":-4.5333,"Lon":-40.2,"CountryCode":null},{"ID":45149,"Name":"Caturama","Lat":-13.3167,"Lon":-42.3,"CountryCode":null},{"ID":1972,"Name":"Caucaia","Lat":-3.7167,"Lon":-38.65,"CountryCode":null},{"ID":42707,"Name":"Cavalcante","Lat":-13.7944,"Lon":-47.4556,"CountryCode":null},{"ID":23637,"Name":"Caxambu","Lat":-21.9833,"Lon":-44.9167,"CountryCode":null},{"ID":4078,"Name":"Caxias","Lat":-4.8589,"Lon":-43.3558,"CountryCode":null},{"ID":1581,"Name":"Caxias do Sul","Lat":-29.1667,"Lon":-51.1833,"CountryCode":null},{"ID":7506,"Name":"Ceara-Mirim","Lat":-5.6333,"Lon":-35.4333,"CountryCode":null},{"ID":40671,"Name":"Cedral","Lat":-2,"Lon":-44.5358,"CountryCode":null},{"ID":34837,"Name":"Cedral","Lat":-20.9044,"Lon":-49.2686,"CountryCode":null},{"ID":39747,"Name":"Cedro","Lat":-7.7219,"Lon":-39.2389,"CountryCode":null},{"ID":22525,"Name":"Cedro","Lat":-6.6069,"Lon":-39.0619,"CountryCode":null},{"ID":38913,"Name":"Centenario do Sul","Lat":-22.8,"Lon":-51.6167,"CountryCode":null},{"ID":28780,"Name":"Central","Lat":-11.1358,"Lon":-42.1128,"CountryCode":null},{"ID":40673,"Name":"Centralina","Lat":-18.5839,"Lon":-49.1989,"CountryCode":null},{"ID":29442,"Name":"Cerejeiras","Lat":-13.1889,"Lon":-60.8122,"CountryCode":null},{"ID":22799,"Name":"Ceres","Lat":-15.3033,"Lon":-49.6053,"CountryCode":null},{"ID":25559,"Name":"Cerqueira Cesar","Lat":-23.0356,"Lon":-49.1661,"CountryCode":null},{"ID":11313,"Name":"Cerquilho Velho","Lat":-23.165,"Lon":-47.7436,"CountryCode":null},{"ID":29060,"Name":"Cerro Azul","Lat":-24.8239,"Lon":-49.2608,"CountryCode":null},{"ID":38478,"Name":"Cerro Cora","Lat":-6.0458,"Lon":-36.3458,"CountryCode":null},{"ID":43967,"Name":"Cerro Grande","Lat":-30.59,"Lon":-51.7389,"CountryCode":null},{"ID":32831,"Name":"Cerro Largo","Lat":-28.1489,"Lon":-54.7378,"CountryCode":null},{"ID":26349,"Name":"Cesario Lange","Lat":-23.2267,"Lon":-47.9531,"CountryCode":null},{"ID":38213,"Name":"Ceu Azul","Lat":-25.1469,"Lon":-53.8489,"CountryCode":null},{"ID":34146,"Name":"Cha da Alegria","Lat":-8.0008,"Lon":-35.2133,"CountryCode":null},{"ID":24140,"Name":"Cha Grande","Lat":-8.2333,"Lon":-35.45,"CountryCode":null},{"ID":25706,"Name":"Chapada dos Guimaraes","Lat":-15.4608,"Lon":-55.75,"CountryCode":null},{"ID":7315,"Name":"Chapadinha","Lat":-3.7419,"Lon":-43.36,"CountryCode":null},{"ID":2979,"Name":"Chapeco","Lat":-27.0958,"Lon":-52.6178,"CountryCode":null},{"ID":28648,"Name":"Charqueada","Lat":-22.5097,"Lon":-47.7781,"CountryCode":null},{"ID":15356,"Name":"Charqueadas","Lat":-29.9667,"Lon":-51.6333,"CountryCode":null},{"ID":35161,"Name":"Chaval","Lat":-3.0333,"Lon":-41.25,"CountryCode":null},{"ID":23931,"Name":"Chaves","Lat":-0.16,"Lon":-49.9878,"CountryCode":null},{"ID":23620,"Name":"Chopinzinho","Lat":-25.85,"Lon":-52.5,"CountryCode":null},{"ID":35860,"Name":"Choro","Lat":-4.8433,"Lon":-39.1411,"CountryCode":null},{"ID":24380,"Name":"Chorozinho","Lat":-4.3,"Lon":-38.4833,"CountryCode":null},{"ID":39568,"Name":"Chorrocho","Lat":-8.9833,"Lon":-39.1,"CountryCode":null},{"ID":43510,"Name":"Chupinguaia","Lat":-12.5522,"Lon":-60.8997,"CountryCode":null},{"ID":7463,"Name":"Cianorte","Lat":-23.6167,"Lon":-52.6167,"CountryCode":null},{"ID":17119,"Name":"Cicero Dantas","Lat":-10.6,"Lon":-38.3833,"CountryCode":null},{"ID":37327,"Name":"Cidade Gaucha","Lat":-23.3667,"Lon":-53.0167,"CountryCode":null},{"ID":34342,"Name":"Cidelandia","Lat":-5.1739,"Lon":-47.7819,"CountryCode":null},{"ID":28486,"Name":"Cidreira","Lat":-30.1608,"Lon":-50.2339,"CountryCode":null},{"ID":27671,"Name":"Cipo","Lat":-11.1,"Lon":-38.5169,"CountryCode":null},{"ID":17459,"Name":"Claudio","Lat":-20.4428,"Lon":-44.7658,"CountryCode":null},{"ID":30520,"Name":"Clevelandia","Lat":-26.3958,"Lon":-52.4708,"CountryCode":null},{"ID":28520,"Name":"Coaraci","Lat":-14.6333,"Lon":-39.5333,"CountryCode":null},{"ID":8339,"Name":"Coari","Lat":-4.085,"Lon":-63.1408,"CountryCode":null},{"ID":18512,"Name":"Cocal","Lat":-3.4708,"Lon":-41.555,"CountryCode":null},{"ID":25509,"Name":"Cocos","Lat":-14.1839,"Lon":-44.5339,"CountryCode":null},{"ID":21596,"Name":"Codajas","Lat":-3.8369,"Lon":-62.0569,"CountryCode":null},{"ID":5449,"Name":"Codo","Lat":-4.455,"Lon":-43.8858,"CountryCode":null},{"ID":11344,"Name":"Coelho Neto","Lat":-4.2569,"Lon":-43.0128,"CountryCode":null},{"ID":39413,"Name":"Coite do Noia","Lat":-9.6319,"Lon":-36.5789,"CountryCode":null},{"ID":34360,"Name":"Colares","Lat":-0.9369,"Lon":-48.2819,"CountryCode":null},{"ID":5557,"Name":"Colatina","Lat":-19.5389,"Lon":-40.6308,"CountryCode":null},{"ID":16898,"Name":"Colider","Lat":-10.8128,"Lon":-55.455,"CountryCode":null},{"ID":26175,"Name":"Colina","Lat":-20.7136,"Lon":-48.5411,"CountryCode":null},{"ID":13562,"Name":"Colinas","Lat":-6.0258,"Lon":-44.2489,"CountryCode":null},{"ID":15699,"Name":"Colinas do Tocantins","Lat":-8.0589,"Lon":-48.475,"CountryCode":null},{"ID":44812,"Name":"Colmeia","Lat":-8.7289,"Lon":-48.765,"CountryCode":null},{"ID":2884,"Name":"Colombo","Lat":-25.2919,"Lon":-49.2239,"CountryCode":null},{"ID":29542,"Name":"Colonia Leopoldina","Lat":-8.9089,"Lon":-35.725,"CountryCode":null},{"ID":22120,"Name":"Colorado","Lat":-22.8378,"Lon":-51.9728,"CountryCode":null},{"ID":29730,"Name":"Colorado do Oeste","Lat":-13.1167,"Lon":-60.5417,"CountryCode":null},{"ID":45510,"Name":"Comendador Levy Gasparian","Lat":-22.0289,"Lon":-43.205,"CountryCode":null},{"ID":26491,"Name":"Comodoro","Lat":-13.65,"Lon":-59.7833,"CountryCode":null},{"ID":25832,"Name":"Conceicao","Lat":-7.5619,"Lon":-38.5089,"CountryCode":null},{"ID":40160,"Name":"Conceicao da Aparecida","Lat":-21.1,"Lon":-46.2,"CountryCode":null},{"ID":18389,"Name":"Conceicao da Barra","Lat":-18.5928,"Lon":-39.7319,"CountryCode":null},{"ID":23897,"Name":"Conceicao da Feira","Lat":-12.5058,"Lon":-38.9989,"CountryCode":null},{"ID":18424,"Name":"Conceicao das Alagoas","Lat":-19.915,"Lon":-48.3878,"CountryCode":null},{"ID":15239,"Name":"Conceicao de Jacuipe","Lat":-12.3269,"Lon":-38.765,"CountryCode":null},{"ID":23602,"Name":"Conceicao de Macabu","Lat":-22.085,"Lon":-41.8678,"CountryCode":null},{"ID":27742,"Name":"Conceicao do Almeida","Lat":-12.6178,"Lon":-39.9558,"CountryCode":null},{"ID":12423,"Name":"Conceicao do Araguaia","Lat":-7.5539,"Lon":-49.7128,"CountryCode":null},{"ID":36829,"Name":"Conceicao do Castelo","Lat":-20.3678,"Lon":-41.2439,"CountryCode":null},{"ID":8635,"Name":"Conceicao do Coite","Lat":-11.55,"Lon":-39.2667,"CountryCode":null},{"ID":21884,"Name":"Conceicao do Mato Dentro","Lat":-19.0369,"Lon":-43.425,"CountryCode":null},{"ID":34996,"Name":"Conceicao do Rio Verde","Lat":-21.8833,"Lon":-45.0833,"CountryCode":null},{"ID":38793,"Name":"Conceicao dos Ouros","Lat":-22.4167,"Lon":-45.7833,"CountryCode":null},{"ID":18580,"Name":"Conchal","Lat":-22.55,"Lon":-47.2833,"CountryCode":null},{"ID":30301,"Name":"Conchas","Lat":-23.0153,"Lon":-48.0106,"CountryCode":null},{"ID":7290,"Name":"Concordia","Lat":-27.2339,"Lon":-52.0278,"CountryCode":null},{"ID":20826,"Name":"Condado","Lat":-7.5858,"Lon":-35.1058,"CountryCode":null},{"ID":21537,"Name":"Conde","Lat":-11.8139,"Lon":-37.6108,"CountryCode":null},{"ID":27878,"Name":"Condeuba","Lat":-14.8833,"Lon":-41.9833,"CountryCode":null},{"ID":15335,"Name":"Confresa","Lat":-10.6439,"Lon":-51.5689,"CountryCode":null},{"ID":38221,"Name":"Congonhal","Lat":-22.1528,"Lon":-46.0389,"CountryCode":null},{"ID":10726,"Name":"Congonhas","Lat":-20.5,"Lon":-43.8578,"CountryCode":null},{"ID":4778,"Name":"Conselheiro Lafaiete","Lat":-20.66,"Lon":-43.7858,"CountryCode":null},{"ID":23873,"Name":"Conselheiro Pena","Lat":-19.1667,"Lon":-41.4667,"CountryCode":null},{"ID":40121,"Name":"Constantina","Lat":-27.7333,"Lon":-52.9833,"CountryCode":null},{"ID":1205,"Name":"Contagem","Lat":-19.9319,"Lon":-44.0539,"CountryCode":null},{"ID":25539,"Name":"Contenda","Lat":-25.6758,"Lon":-49.535,"CountryCode":null},{"ID":44467,"Name":"Coqueiral","Lat":-21.1861,"Lon":-45.4439,"CountryCode":null},{"ID":20250,"Name":"Coracao de Jesus","Lat":-16.685,"Lon":-44.365,"CountryCode":null},{"ID":22431,"Name":"Coracao de Maria","Lat":-12.2328,"Lon":-38.75,"CountryCode":null},{"ID":27375,"Name":"Corbelia","Lat":-24.8,"Lon":-53.3,"CountryCode":null},{"ID":23908,"Name":"Cordeiro","Lat":-22.0289,"Lon":-42.3608,"CountryCode":null},{"ID":20874,"Name":"Cordeiropolis","Lat":-22.4819,"Lon":-47.4569,"CountryCode":null},{"ID":23755,"Name":"Coreau","Lat":-3.5328,"Lon":-40.6569,"CountryCode":null},{"ID":31203,"Name":"Coremas","Lat":-7.0167,"Lon":-37.9667,"CountryCode":null},{"ID":32342,"Name":"Coribe","Lat":-13.8333,"Lon":-44.4667,"CountryCode":null},{"ID":21611,"Name":"Corinto","Lat":-18.3808,"Lon":-44.4558,"CountryCode":null},{"ID":12253,"Name":"Cornelio Procopio","Lat":-23.1333,"Lon":-50.65,"CountryCode":null},{"ID":38785,"Name":"Coroaci","Lat":-18.6219,"Lon":-42.2858,"CountryCode":null},{"ID":9676,"Name":"Coroata","Lat":-4.13,"Lon":-44.1239,"CountryCode":null},{"ID":18159,"Name":"Coromandel","Lat":-18.4667,"Lon":-47.2167,"CountryCode":null},{"ID":5890,"Name":"Coronel Fabriciano","Lat":-19.5189,"Lon":-42.6289,"CountryCode":null},{"ID":40112,"Name":"Coronel Freitas","Lat":-26.9333,"Lon":-52.7833,"CountryCode":null},{"ID":21759,"Name":"Coronel Vivida","Lat":-25.9667,"Lon":-52.5667,"CountryCode":null},{"ID":29648,"Name":"Correia Pinto","Lat":-27.5833,"Lon":-50.4,"CountryCode":null},{"ID":19032,"Name":"Corrente","Lat":-10.4428,"Lon":-45.1619,"CountryCode":null},{"ID":27795,"Name":"Correntes","Lat":-9.1289,"Lon":-36.33,"CountryCode":null},{"ID":16425,"Name":"Correntina","Lat":-13.3333,"Lon":-44.65,"CountryCode":null},{"ID":40705,"Name":"Cortes","Lat":-8.4667,"Lon":-35.55,"CountryCode":null},{"ID":6350,"Name":"Corumba","Lat":-19.0089,"Lon":-57.6528,"CountryCode":null},{"ID":39617,"Name":"Corumba de Goias","Lat":-15.9242,"Lon":-48.8086,"CountryCode":null},{"ID":44019,"Name":"Corumbaiba","Lat":-18.1472,"Lon":-48.5503,"CountryCode":null},{"ID":30577,"Name":"Corupa","Lat":-26.4333,"Lon":-49.2333,"CountryCode":null},{"ID":10005,"Name":"Coruripe","Lat":-10.1258,"Lon":-36.1758,"CountryCode":null},{"ID":8746,"Name":"Cosmopolis","Lat":-22.6458,"Lon":-47.1961,"CountryCode":null},{"ID":34820,"Name":"Costa Marques","Lat":-12.445,"Lon":-64.2272,"CountryCode":null},{"ID":33945,"Name":"Cotegipe","Lat":-12.0278,"Lon":-44.2578,"CountryCode":null},{"ID":2484,"Name":"Cotia","Lat":-23.6042,"Lon":-46.9194,"CountryCode":null},{"ID":16029,"Name":"Coxim","Lat":-18.5069,"Lon":-54.76,"CountryCode":null},{"ID":20235,"Name":"Craibas","Lat":-9.6178,"Lon":-36.7678,"CountryCode":null},{"ID":7750,"Name":"Crateus","Lat":-5.177,"Lon":-40.668,"CountryCode":null},{"ID":2480,"Name":"Crato","Lat":-7.4639,"Lon":-63.04,"CountryCode":null},{"ID":4738,"Name":"Crato","Lat":-7.2339,"Lon":-39.4089,"CountryCode":null},{"ID":15753,"Name":"Cravinhos","Lat":-21.3403,"Lon":-47.7294,"CountryCode":null},{"ID":3138,"Name":"Criciuma","Lat":-28.6775,"Lon":-49.3697,"CountryCode":null},{"ID":24961,"Name":"Crisopolis","Lat":-11.5167,"Lon":-38.1667,"CountryCode":null},{"ID":34326,"Name":"Crissiumal","Lat":-27.5,"Lon":-54.1167,"CountryCode":null},{"ID":35706,"Name":"Cristais","Lat":-20.8758,"Lon":-45.5189,"CountryCode":null},{"ID":9296,"Name":"Cristalina","Lat":-16.7689,"Lon":-47.6156,"CountryCode":null},{"ID":26713,"Name":"Cristinapolis","Lat":-11.4758,"Lon":-37.755,"CountryCode":null},{"ID":39786,"Name":"Cristino Castro","Lat":-8.8167,"Lon":-44.2167,"CountryCode":null},{"ID":32337,"Name":"Cristopolis","Lat":-12.2339,"Lon":-44.4208,"CountryCode":null},{"ID":27863,"Name":"Crixas","Lat":-14.5333,"Lon":-49.9667,"CountryCode":null},{"ID":27363,"Name":"Croata","Lat":-4.4,"Lon":-40.9108,"CountryCode":null},{"ID":17778,"Name":"Cruz","Lat":-2.9178,"Lon":-40.1719,"CountryCode":null},{"ID":9763,"Name":"Cruz Alta","Lat":-28.6386,"Lon":-53.6064,"CountryCode":null},{"ID":9539,"Name":"Cruz das Almas","Lat":-12.67,"Lon":-39.1019,"CountryCode":null},{"ID":27386,"Name":"Cruz do Espirito Santo","Lat":-7.1333,"Lon":-35.1,"CountryCode":null},{"ID":29330,"Name":"Cruz Machado","Lat":-26.0167,"Lon":-51.35,"CountryCode":null},{"ID":7234,"Name":"Cruzeiro","Lat":-22.5772,"Lon":-44.9583,"CountryCode":null},{"ID":21393,"Name":"Cruzeiro do Oeste","Lat":-23.7667,"Lon":-53.0667,"CountryCode":null},{"ID":6597,"Name":"Cruzeiro do Sul","Lat":-7.6308,"Lon":-72.67,"CountryCode":null},{"ID":37003,"Name":"Cruzeiro do Sul","Lat":-29.5128,"Lon":-51.985,"CountryCode":null},{"ID":30120,"Name":"Cruzilia","Lat":-21.8333,"Lon":-44.8,"CountryCode":null},{"ID":4777,"Name":"Cubatao","Lat":-23.8953,"Lon":-46.4256,"CountryCode":null},{"ID":1154,"Name":"Cuiaba","Lat":-15.5958,"Lon":-56.0969,"CountryCode":null},{"ID":24970,"Name":"Cuite","Lat":-6.485,"Lon":-36.1569,"CountryCode":null},{"ID":30930,"Name":"Cujubim","Lat":-9.3628,"Lon":-62.5853,"CountryCode":null},{"ID":29399,"Name":"Cumaru","Lat":-8.0058,"Lon":-35.6969,"CountryCode":null},{"ID":22737,"Name":"Cunha","Lat":-23.0739,"Lon":-44.96,"CountryCode":null},{"ID":38609,"Name":"Cunha Pora","Lat":-26.9,"Lon":-53.15,"CountryCode":null},{"ID":21623,"Name":"Cupira","Lat":-8.6169,"Lon":-35.95,"CountryCode":null},{"ID":15723,"Name":"Curaca","Lat":-8.9919,"Lon":-39.9078,"CountryCode":null},{"ID":37746,"Name":"Curimata","Lat":-10.0358,"Lon":-44.3058,"CountryCode":null},{"ID":454,"Name":"Curitiba","Lat":-25.4297,"Lon":-49.2711,"CountryCode":null},{"ID":13648,"Name":"Curitibanos","Lat":-27.3,"Lon":-50.575,"CountryCode":null},{"ID":32930,"Name":"Curiuva","Lat":-24.0333,"Lon":-50.45,"CountryCode":null},{"ID":13258,"Name":"Currais Novos","Lat":-6.25,"Lon":-36.5167,"CountryCode":null},{"ID":15848,"Name":"Curralinho","Lat":-1.8139,"Lon":-49.795,"CountryCode":null},{"ID":32119,"Name":"Curua","Lat":-1.8878,"Lon":-55.1169,"CountryCode":null},{"ID":13546,"Name":"Curuca","Lat":-0.7339,"Lon":-47.855,"CountryCode":null},{"ID":16815,"Name":"Cururupu","Lat":-1.8333,"Lon":-44.8667,"CountryCode":null},{"ID":7367,"Name":"Curvelo","Lat":-18.7558,"Lon":-44.4308,"CountryCode":null},{"ID":14409,"Name":"Custodia","Lat":-8.0875,"Lon":-37.6431,"CountryCode":null},{"ID":38951,"Name":"Dario Meira","Lat":-14.4358,"Lon":-39.9078,"CountryCode":null},{"ID":10842,"Name":"Delmiro Gouveia","Lat":-9.3858,"Lon":-37.9958,"CountryCode":null},{"ID":39819,"Name":"Delta","Lat":-19.9769,"Lon":-47.7708,"CountryCode":null},{"ID":29485,"Name":"Demerval Lobao","Lat":-5.3667,"Lon":-42.6833,"CountryCode":null},{"ID":16735,"Name":"Descalvado","Lat":-21.9039,"Lon":-47.6028,"CountryCode":null},{"ID":1818,"Name":"Diadema","Lat":-23.6861,"Lon":-46.6106,"CountryCode":null},{"ID":11716,"Name":"Diamantina","Lat":-18.2489,"Lon":-43.6,"CountryCode":null},{"ID":22894,"Name":"Diamantino","Lat":-14.4089,"Lon":-56.4458,"CountryCode":null},{"ID":27057,"Name":"Dianopolis","Lat":-11.6258,"Lon":-46.8203,"CountryCode":null},{"ID":8221,"Name":"Dias d'Avila","Lat":-12.6128,"Lon":-38.2969,"CountryCode":null},{"ID":30616,"Name":"Dionisio Cerqueira","Lat":-26.25,"Lon":-53.6333,"CountryCode":null},{"ID":38216,"Name":"Divinolandia","Lat":-21.6614,"Lon":-46.7392,"CountryCode":null},{"ID":2895,"Name":"Divinopolis","Lat":-20.1389,"Lon":-44.8839,"CountryCode":null},{"ID":40654,"Name":"Divisopolis","Lat":-15.7333,"Lon":-41,"CountryCode":null},{"ID":46010,"Name":"Dobrada","Lat":-21.5167,"Lon":-48.3939,"CountryCode":null},{"ID":19488,"Name":"Dois Corregos","Lat":-22.3661,"Lon":-48.3803,"CountryCode":null},{"ID":17214,"Name":"Dois Irmaos","Lat":-29.58,"Lon":-51.085,"CountryCode":null},{"ID":38258,"Name":"Dois Riachos","Lat":-9.3928,"Lon":-37.1008,"CountryCode":null},{"ID":12354,"Name":"Dois Vizinhos","Lat":-26.0833,"Lon":-53.05,"CountryCode":null},{"ID":36389,"Name":"Dom Basilio","Lat":-13.7333,"Lon":-41.7667,"CountryCode":null},{"ID":33969,"Name":"Dom Feliciano","Lat":-30.7,"Lon":-52.1167,"CountryCode":null},{"ID":14639,"Name":"Dom Pedrito","Lat":-30.967,"Lon":-54.667,"CountryCode":null},{"ID":21969,"Name":"Dom Pedro","Lat":-4.4833,"Lon":-44.45,"CountryCode":null},{"ID":16693,"Name":"Domingos Martins","Lat":-20.3628,"Lon":-40.6589,"CountryCode":null},{"ID":40029,"Name":"Dona Ines","Lat":-6.6167,"Lon":-35.6333,"CountryCode":null},{"ID":41280,"Name":"Dores de Campos","Lat":-21.1,"Lon":-44.0333,"CountryCode":null},{"ID":34813,"Name":"Dores do Indaia","Lat":-19.4628,"Lon":-45.6019,"CountryCode":null},{"ID":27716,"Name":"Dormentes","Lat":-8.4469,"Lon":-40.7708,"CountryCode":null},{"ID":2763,"Name":"Dourados","Lat":-22.2208,"Lon":-54.8058,"CountryCode":null},{"ID":11858,"Name":"Dracena","Lat":-21.4828,"Lon":-51.5328,"CountryCode":null},{"ID":34941,"Name":"Duartina","Lat":-22.4144,"Lon":-49.4039,"CountryCode":null},{"ID":38529,"Name":"Duas Barras","Lat":-22.0508,"Lon":-42.5219,"CountryCode":null},{"ID":41241,"Name":"Dumont","Lat":-21.2364,"Lon":-47.9733,"CountryCode":null},{"ID":40627,"Name":"Duque Bacelar","Lat":-4.15,"Lon":-42.95,"CountryCode":null},{"ID":22177,"Name":"Ecoporanga","Lat":-18.3728,"Lon":-40.8308,"CountryCode":null},{"ID":36700,"Name":"Edeia","Lat":-17.3375,"Lon":-49.9286,"CountryCode":null},{"ID":16149,"Name":"Eirunepe","Lat":-6.66,"Lon":-69.8739,"CountryCode":null},{"ID":30156,"Name":"Eldorado","Lat":-24.52,"Lon":-48.1081,"CountryCode":null},{"ID":37496,"Name":"Eldorado","Lat":-23.7869,"Lon":-54.2839,"CountryCode":null},{"ID":33004,"Name":"Elesbao Veloso","Lat":-6.2167,"Lon":-42.1333,"CountryCode":null},{"ID":27844,"Name":"Elias Fausto","Lat":-23.0428,"Lon":-47.3739,"CountryCode":null},{"ID":19604,"Name":"Eloi Mendes","Lat":-21.6103,"Lon":-45.5689,"CountryCode":null},{"ID":8731,"Name":"Embu-Guacu","Lat":-23.8319,"Lon":-46.8117,"CountryCode":null},{"ID":22065,"Name":"Encantado","Lat":-29.2358,"Lon":-51.87,"CountryCode":null},{"ID":28640,"Name":"Encruzilhada","Lat":-15.5308,"Lon":-40.9089,"CountryCode":null},{"ID":21408,"Name":"Encruzilhada do Sul","Lat":-30.5333,"Lon":-52.5167,"CountryCode":null},{"ID":35188,"Name":"Engenheiro Beltrao","Lat":-23.7972,"Lon":-52.2692,"CountryCode":null},{"ID":32971,"Name":"Engenheiro Caldas","Lat":-19.2189,"Lon":-42.0458,"CountryCode":null},{"ID":26085,"Name":"Engenheiro Coelho","Lat":-22.4883,"Lon":-47.215,"CountryCode":null},{"ID":35613,"Name":"Engenheiro Paulo de Frontin","Lat":-22.55,"Lon":-43.6778,"CountryCode":null},{"ID":44038,"Name":"Entre Ijuis","Lat":-28.36,"Lon":-54.2678,"CountryCode":null},{"ID":14262,"Name":"Entre Rios","Lat":-11.9419,"Lon":-38.0839,"CountryCode":null},{"ID":31106,"Name":"Entre Rios de Minas","Lat":-20.6708,"Lon":-44.0658,"CountryCode":null},{"ID":5838,"Name":"Erechim","Lat":-27.6339,"Lon":-52.2739,"CountryCode":null},{"ID":23075,"Name":"Erval d'Oeste","Lat":-27.1939,"Lon":-51.495,"CountryCode":null},{"ID":24405,"Name":"Ervalia","Lat":-20.9067,"Lon":-42.6569,"CountryCode":null},{"ID":9636,"Name":"Escada","Lat":-8.3592,"Lon":-35.2236,"CountryCode":null},{"ID":8113,"Name":"Esmeraldas","Lat":-19.7628,"Lon":-44.3139,"CountryCode":null},{"ID":21199,"Name":"Espera Feliz","Lat":-20.65,"Lon":-41.9069,"CountryCode":null},{"ID":16972,"Name":"Esperanca","Lat":-7.0228,"Lon":-35.5975,"CountryCode":null},{"ID":13366,"Name":"Esperantina","Lat":-3.9019,"Lon":-42.2339,"CountryCode":null},{"ID":17894,"Name":"Espigao D'Oeste","Lat":-11.5247,"Lon":-61.0128,"CountryCode":null},{"ID":17024,"Name":"Espinosa","Lat":-14.9081,"Lon":-42.8103,"CountryCode":null},{"ID":16393,"Name":"Esplanada","Lat":-11.7958,"Lon":-37.945,"CountryCode":null},{"ID":30382,"Name":"Espumoso","Lat":-28.7333,"Lon":-52.85,"CountryCode":null},{"ID":8950,"Name":"Estancia","Lat":-11.2678,"Lon":-37.4378,"CountryCode":null},{"ID":11128,"Name":"Estancia Velha","Lat":-29.65,"Lon":-51.1833,"CountryCode":null},{"ID":7776,"Name":"Esteio","Lat":-29.8608,"Lon":-51.1789,"CountryCode":null},{"ID":37230,"Name":"Estiva","Lat":-22.4628,"Lon":-46.0169,"CountryCode":null},{"ID":37699,"Name":"Estiva Gerbi","Lat":-22.2708,"Lon":-46.945,"CountryCode":null},{"ID":16096,"Name":"Estreito","Lat":-6.5608,"Lon":-47.4508,"CountryCode":null},{"ID":16525,"Name":"Estrela","Lat":-29.5019,"Lon":-51.9658,"CountryCode":null},{"ID":30041,"Name":"Estrela de Alagoas","Lat":-9.39,"Lon":-36.76,"CountryCode":null},{"ID":43233,"Name":"Estrela d'Oeste","Lat":-20.2878,"Lon":-50.4008,"CountryCode":null},{"ID":9415,"Name":"Euclides da Cunha","Lat":-10.5078,"Lon":-39.0139,"CountryCode":null},{"ID":38983,"Name":"Eugenopolis","Lat":-21.0989,"Lon":-42.1869,"CountryCode":null},{"ID":5475,"Name":"Euriapolis","Lat":-16.3778,"Lon":-39.58,"CountryCode":null},{"ID":12067,"Name":"Eusebio","Lat":-3.89,"Lon":-38.4508,"CountryCode":null},{"ID":10623,"Name":"Extrema","Lat":-22.855,"Lon":-46.3178,"CountryCode":null},{"ID":9396,"Name":"Extremoz","Lat":-5.7,"Lon":-35.3,"CountryCode":null},{"ID":16695,"Name":"Exu","Lat":-7.5119,"Lon":-39.7239,"CountryCode":null},{"ID":38318,"Name":"Fagundes","Lat":-7.355,"Lon":-35.775,"CountryCode":null},{"ID":26519,"Name":"Farias Brito","Lat":-6.9272,"Lon":-39.5728,"CountryCode":null},{"ID":45554,"Name":"Faro","Lat":-2.1708,"Lon":-56.745,"CountryCode":null},{"ID":8426,"Name":"Farroupilha","Lat":-29.2333,"Lon":-51.35,"CountryCode":null},{"ID":29162,"Name":"Fartura","Lat":-23.3883,"Lon":-49.51,"CountryCode":null},{"ID":26888,"Name":"Fatima","Lat":-10.6,"Lon":-38.2169,"CountryCode":null},{"ID":28717,"Name":"Faxinal","Lat":-24.0008,"Lon":-51.32,"CountryCode":null},{"ID":37947,"Name":"Faxinal dos Guedes","Lat":-26.8833,"Lon":-52.2333,"CountryCode":null},{"ID":43823,"Name":"Fazendinha","Lat":-0.0441,"Lon":-51.1171,"CountryCode":null},{"ID":15194,"Name":"Feijo","Lat":-8.1639,"Lon":-70.3539,"CountryCode":null},{"ID":1217,"Name":"Feira de Santana","Lat":-12.25,"Lon":-38.95,"CountryCode":null},{"ID":22285,"Name":"Feira Grande","Lat":-9.9,"Lon":-36.6778,"CountryCode":null},{"ID":32366,"Name":"Felixlandia","Lat":-18.758,"Lon":-44.899,"CountryCode":null},{"ID":32730,"Name":"Feliz","Lat":-29.4508,"Lon":-51.3058,"CountryCode":null},{"ID":8255,"Name":"Fernandopolis","Lat":-20.2839,"Lon":-50.2458,"CountryCode":null},{"ID":3528,"Name":"Ferraz de Vasconcelos","Lat":-23.5411,"Lon":-46.3689,"CountryCode":null},{"ID":30588,"Name":"Ferreiros","Lat":-7.4478,"Lon":-35.2439,"CountryCode":null},{"ID":42702,"Name":"Ferros","Lat":-19.2319,"Lon":-43.0228,"CountryCode":null},{"ID":39942,"Name":"Fervedouro","Lat":-20.7258,"Lon":-42.2789,"CountryCode":null},{"ID":26887,"Name":"Filadelfia","Lat":-10.7408,"Lon":-40.1328,"CountryCode":null},{"ID":40009,"Name":"Firminopolis","Lat":-16.5822,"Lon":-50.3017,"CountryCode":null},{"ID":42618,"Name":"Flexeiras","Lat":-9.2728,"Lon":-35.715,"CountryCode":null},{"ID":40709,"Name":"Florania","Lat":-6.1333,"Lon":-36.8167,"CountryCode":null},{"ID":22692,"Name":"Flores","Lat":-7.8658,"Lon":-37.975,"CountryCode":null},{"ID":17123,"Name":"Flores da Cunha","Lat":-29.0306,"Lon":-51.1833,"CountryCode":null},{"ID":32764,"Name":"Flores de Goias","Lat":-14.4606,"Lon":-47.0317,"CountryCode":null},{"ID":17469,"Name":"Floresta","Lat":-8.601,"Lon":-38.568,"CountryCode":null},{"ID":39904,"Name":"Floresta","Lat":-23.5989,"Lon":-52.0808,"CountryCode":null},{"ID":38296,"Name":"Floresta Azul","Lat":-14.85,"Lon":-39.6833,"CountryCode":null},{"ID":37365,"Name":"Florestopolis","Lat":-22.8667,"Lon":-51.4,"CountryCode":null},{"ID":9585,"Name":"Floriano","Lat":-6.7669,"Lon":-43.0228,"CountryCode":null},{"ID":1379,"Name":"Florianopolis","Lat":-27.6122,"Lon":-48.4853,"CountryCode":null},{"ID":19925,"Name":"Fonte Boa","Lat":-2.5139,"Lon":-66.0917,"CountryCode":null},{"ID":42831,"Name":"Fontoura Xavier","Lat":-28.9833,"Lon":-52.35,"CountryCode":null},{"ID":8636,"Name":"Formiga","Lat":-20.4615,"Lon":-45.4323,"CountryCode":null},{"ID":5385,"Name":"Formosa","Lat":-15.5369,"Lon":-47.3339,"CountryCode":null},{"ID":19902,"Name":"Formosa do Rio Preto","Lat":-11.0478,"Lon":-45.1928,"CountryCode":null},{"ID":25806,"Name":"Formoso do Araguaia","Lat":-11.8025,"Lon":-49.5283,"CountryCode":null},{"ID":21146,"Name":"Forquilha","Lat":-3.7978,"Lon":-40.2608,"CountryCode":null},{"ID":16864,"Name":"Forquilhinha","Lat":-28.7642,"Lon":-49.4722,"CountryCode":null},{"ID":172,"Name":"Fortaleza","Lat":-3.7275,"Lon":-38.5275,"CountryCode":null},{"ID":34793,"Name":"Fortaleza dos Nogueiras","Lat":-6.9,"Lon":-46.15,"CountryCode":null},{"ID":27595,"Name":"Fortim","Lat":-4.45,"Lon":-37.7833,"CountryCode":null},{"ID":28001,"Name":"Fortuna","Lat":-5.7328,"Lon":-44.1578,"CountryCode":null},{"ID":2408,"Name":"Foz do Iguacu","Lat":-25.54,"Lon":-54.5875,"CountryCode":null},{"ID":16021,"Name":"Fraiburgo","Lat":-27.0258,"Lon":-50.9208,"CountryCode":null},{"ID":1990,"Name":"Franca","Lat":-20.5389,"Lon":-47.4008,"CountryCode":null},{"ID":6330,"Name":"Francisco Beltrao","Lat":-26.0833,"Lon":-53.05,"CountryCode":null},{"ID":3832,"Name":"Francisco Morato","Lat":-23.2817,"Lon":-46.7425,"CountryCode":null},{"ID":21660,"Name":"Francisco Sa","Lat":-16.4789,"Lon":-43.4947,"CountryCode":null},{"ID":4373,"Name":"Franco da Rocha","Lat":-23.3286,"Lon":-46.7244,"CountryCode":null},{"ID":29797,"Name":"Frecheirinha","Lat":-3.7667,"Lon":-40.8,"CountryCode":null},{"ID":16370,"Name":"Frederico Westphalen","Lat":-27.3667,"Lon":-53.4,"CountryCode":null},{"ID":32946,"Name":"Frei Miguelinho","Lat":-7.95,"Lon":-35.95,"CountryCode":null},{"ID":29867,"Name":"Frei Paulo","Lat":-10.5489,"Lon":-37.5339,"CountryCode":null},{"ID":40528,"Name":"Fronteiras","Lat":-7.0833,"Lon":-40.6167,"CountryCode":null},{"ID":9819,"Name":"Frutal","Lat":-20.0167,"Lon":-48.9333,"CountryCode":null},{"ID":26733,"Name":"Fundao","Lat":-19.9328,"Lon":-40.4069,"CountryCode":null},{"ID":26522,"Name":"Gameleira","Lat":-8.5833,"Lon":-35.3833,"CountryCode":null},{"ID":16531,"Name":"Gandu","Lat":-13.7439,"Lon":-39.4869,"CountryCode":null},{"ID":4457,"Name":"Garanhuns","Lat":-8.8903,"Lon":-36.4928,"CountryCode":null},{"ID":36998,"Name":"Gararu","Lat":-9.9678,"Lon":-37.0828,"CountryCode":null},{"ID":12446,"Name":"Garca","Lat":-22.2153,"Lon":-49.6511,"CountryCode":null},{"ID":15650,"Name":"Garibaldi","Lat":-29.2889,"Lon":-51.5642,"CountryCode":null},{"ID":17599,"Name":"Garopaba","Lat":-28.0233,"Lon":-48.6222,"CountryCode":null},{"ID":26149,"Name":"Garuva","Lat":-26.0269,"Lon":-48.855,"CountryCode":null},{"ID":8106,"Name":"Gaspar","Lat":-26.9333,"Lon":-48.9667,"CountryCode":null},{"ID":38278,"Name":"General Carneiro","Lat":-26.4278,"Lon":-51.3158,"CountryCode":null},{"ID":40352,"Name":"General Salgado","Lat":-20.6478,"Lon":-50.3608,"CountryCode":null},{"ID":38784,"Name":"Gentio do Ouro","Lat":-11.4167,"Lon":-42.5,"CountryCode":null},{"ID":37712,"Name":"Getulina","Lat":-21.7986,"Lon":-49.9286,"CountryCode":null},{"ID":28466,"Name":"Getulio Vargas","Lat":-27.89,"Lon":-52.2278,"CountryCode":null},{"ID":38754,"Name":"Gilbues","Lat":-9.8333,"Lon":-45.35,"CountryCode":null},{"ID":14936,"Name":"Girau do Ponciano","Lat":-9.8839,"Lon":-36.8289,"CountryCode":null},{"ID":29227,"Name":"Girua","Lat":-28.0278,"Lon":-54.35,"CountryCode":null},{"ID":29914,"Name":"Gloria","Lat":-9.3389,"Lon":-38.2569,"CountryCode":null},{"ID":17917,"Name":"Gloria do Goita","Lat":-8.0019,"Lon":-35.2928,"CountryCode":null},{"ID":7417,"Name":"Goiana","Lat":-7.5608,"Lon":-35.0028,"CountryCode":null},{"ID":32386,"Name":"Goianapolis","Lat":-16.505,"Lon":-49.0214,"CountryCode":null},{"ID":8271,"Name":"Goianesia","Lat":-15.3239,"Lon":-49.1189,"CountryCode":null},{"ID":544,"Name":"Goiania","Lat":-16.6667,"Lon":-49.25,"CountryCode":null},{"ID":19349,"Name":"Goianinha","Lat":-6.2669,"Lon":-35.21,"CountryCode":null},{"ID":8173,"Name":"Goianira","Lat":-16.5067,"Lon":-49.4239,"CountryCode":null},{"ID":21215,"Name":"Goias","Lat":-15.9339,"Lon":-50.14,"CountryCode":null},{"ID":35228,"Name":"Goiatins","Lat":-7.7,"Lon":-47.1833,"CountryCode":null},{"ID":15109,"Name":"Goiatuba","Lat":-18.0111,"Lon":-49.3569,"CountryCode":null},{"ID":18396,"Name":"Goio-Ere","Lat":-24.185,"Lon":-53.0278,"CountryCode":null},{"ID":37638,"Name":"Gouvea","Lat":-18.4539,"Lon":-43.7408,"CountryCode":null},{"ID":40616,"Name":"Governador Archer","Lat":-4.9333,"Lon":-44.3833,"CountryCode":null},{"ID":28072,"Name":"Governador Celso Ramos","Lat":-27.315,"Lon":-48.5589,"CountryCode":null},{"ID":36281,"Name":"Governador Dix-Sept Rosado","Lat":-5.4667,"Lon":-37.5167,"CountryCode":null},{"ID":38824,"Name":"Governador Lindenberg","Lat":-19.2519,"Lon":-40.4608,"CountryCode":null},{"ID":2615,"Name":"Governador Valadares","Lat":-18.85,"Lon":-41.9333,"CountryCode":null},{"ID":32665,"Name":"Graca","Lat":-4.0458,"Lon":-40.7528,"CountryCode":null},{"ID":8384,"Name":"Grajau","Lat":-5.8189,"Lon":-46.1389,"CountryCode":null},{"ID":13622,"Name":"Gramado","Lat":-29.4,"Lon":-50.8667,"CountryCode":null},{"ID":10645,"Name":"Granja","Lat":-3.12,"Lon":-40.8258,"CountryCode":null},{"ID":32496,"Name":"Grao Mogol","Lat":-16.5667,"Lon":-42.9,"CountryCode":null},{"ID":6952,"Name":"Gravata","Lat":-8.1997,"Lon":-35.5667,"CountryCode":null},{"ID":2553,"Name":"Gravatai","Lat":-29.9333,"Lon":-50.9833,"CountryCode":null},{"ID":35223,"Name":"Gravatal","Lat":-28.3333,"Lon":-49.0333,"CountryCode":null},{"ID":38718,"Name":"Groairas","Lat":-3.8833,"Lon":-40.3833,"CountryCode":null},{"ID":41702,"Name":"Grossos","Lat":-4.98,"Lon":-37.155,"CountryCode":null},{"ID":20854,"Name":"Guabiruba","Lat":-27.0858,"Lon":-48.9811,"CountryCode":null},{"ID":18725,"Name":"Guacui","Lat":-20.7758,"Lon":-41.6789,"CountryCode":null},{"ID":40491,"Name":"Guadalupe","Lat":-6.7869,"Lon":-43.5689,"CountryCode":null},{"ID":6543,"Name":"Guaiba","Lat":-30.1183,"Lon":-51.3214,"CountryCode":null},{"ID":36934,"Name":"Guaicara","Lat":-21.6219,"Lon":-49.7986,"CountryCode":null},{"ID":13899,"Name":"Guaira","Lat":-20.3183,"Lon":-48.3106,"CountryCode":null},{"ID":16575,"Name":"Guaira","Lat":-24.08,"Lon":-54.2558,"CountryCode":null},{"ID":13860,"Name":"Guajara-Mirim","Lat":-10.7828,"Lon":-65.3394,"CountryCode":null},{"ID":30211,"Name":"Guamare","Lat":-5.1,"Lon":-36.3167,"CountryCode":null},{"ID":6863,"Name":"Guanambi","Lat":-14.2228,"Lon":-42.7808,"CountryCode":null},{"ID":16502,"Name":"Guanhaes","Lat":-18.7833,"Lon":-42.95,"CountryCode":null},{"ID":32718,"Name":"Guape","Lat":-20.7833,"Lon":-45.9167,"CountryCode":null},{"ID":23088,"Name":"Guapiacu","Lat":-20.795,"Lon":-49.2203,"CountryCode":null},{"ID":26905,"Name":"Guapiara","Lat":-24.185,"Lon":-48.5328,"CountryCode":null},{"ID":10949,"Name":"Guapimirim","Lat":-22.5369,"Lon":-42.8153,"CountryCode":null},{"ID":25129,"Name":"Guapo","Lat":-16.8297,"Lon":-49.5353,"CountryCode":null},{"ID":23789,"Name":"Guara","Lat":-20.4283,"Lon":-47.8242,"CountryCode":null},{"ID":9977,"Name":"Guarabira","Lat":-6.855,"Lon":-35.49,"CountryCode":null},{"ID":39048,"Name":"Guaraci","Lat":-20.4986,"Lon":-48.9447,"CountryCode":null},{"ID":39002,"Name":"Guaraciaba","Lat":-26.5989,"Lon":-53.5178,"CountryCode":null},{"ID":13043,"Name":"Guaraciaba do Norte","Lat":-4.1667,"Lon":-40.7667,"CountryCode":null},{"ID":20709,"Name":"Guarai","Lat":-8.8167,"Lon":-48.3833,"CountryCode":null},{"ID":11926,"Name":"Guaramirim","Lat":-26.45,"Lon":-49,"CountryCode":null},{"ID":25512,"Name":"Guaranesia","Lat":-21.2989,"Lon":-46.8028,"CountryCode":null},{"ID":32786,"Name":"Guaraniacu","Lat":-25.1,"Lon":-52.8667,"CountryCode":null},{"ID":5011,"Name":"Guarapari","Lat":-20.65,"Lon":-40.5,"CountryCode":null},{"ID":3563,"Name":"Guarapuava","Lat":-25.3833,"Lon":-51.45,"CountryCode":null},{"ID":16459,"Name":"Guararapes","Lat":-21.2608,"Lon":-50.6428,"CountryCode":null},{"ID":18441,"Name":"Guararema","Lat":-23.415,"Lon":-46.035,"CountryCode":null},{"ID":23983,"Name":"Guaratinga","Lat":-16.5667,"Lon":-39.5667,"CountryCode":null},{"ID":5225,"Name":"Guaratingueta","Lat":-22.8167,"Lon":-45.2278,"CountryCode":null},{"ID":13038,"Name":"Guaratuba","Lat":-25.9,"Lon":-48.5667,"CountryCode":null},{"ID":25801,"Name":"Guarei","Lat":-23.3728,"Lon":-48.1842,"CountryCode":null},{"ID":13503,"Name":"Guariba","Lat":-21.36,"Lon":-48.2283,"CountryCode":null},{"ID":2233,"Name":"Guaruja","Lat":-23.9936,"Lon":-46.2564,"CountryCode":null},{"ID":579,"Name":"Guarulhos","Lat":-23.4628,"Lon":-46.5328,"CountryCode":null},{"ID":21109,"Name":"Guatuba","Lat":-4.0333,"Lon":-38.6333,"CountryCode":null},{"ID":11075,"Name":"Guaxupe","Lat":-21.305,"Lon":-46.7128,"CountryCode":null},{"ID":40734,"Name":"Gudofredo Viana","Lat":-1.4028,"Lon":-45.78,"CountryCode":null},{"ID":42008,"Name":"Guia Lopes da Laguna","Lat":-21.4578,"Lon":-56.1139,"CountryCode":null},{"ID":40431,"Name":"Guimaraes","Lat":-2.1328,"Lon":-44.6008,"CountryCode":null},{"ID":38577,"Name":"Guiratinga","Lat":-16.3489,"Lon":-53.7578,"CountryCode":null},{"ID":32106,"Name":"Gurinhem","Lat":-7.1333,"Lon":-35.45,"CountryCode":null},{"ID":16719,"Name":"Gurupa","Lat":-1.405,"Lon":-51.64,"CountryCode":null},{"ID":7053,"Name":"Gurupi","Lat":-11.73,"Lon":-49.0689,"CountryCode":null},{"ID":35472,"Name":"Heliopolis","Lat":-10.6828,"Lon":-38.2858,"CountryCode":null},{"ID":43643,"Name":"Herculandia","Lat":-22.0036,"Lon":-50.3853,"CountryCode":null},{"ID":26932,"Name":"Hidrolandia","Lat":-4.4078,"Lon":-40.4378,"CountryCode":null},{"ID":18781,"Name":"Hidrolandia","Lat":-16.9658,"Lon":-49.2303,"CountryCode":null},{"ID":25841,"Name":"Horizontina","Lat":-27.6258,"Lon":-54.3078,"CountryCode":null},{"ID":3083,"Name":"Hortolandia","Lat":-22.8583,"Lon":-47.22,"CountryCode":null},{"ID":9979,"Name":"Humaita","Lat":-7.5061,"Lon":-63.0208,"CountryCode":null},{"ID":18137,"Name":"Humberto de Campos","Lat":-2.6,"Lon":-43.4667,"CountryCode":null},{"ID":36442,"Name":"Iacanga","Lat":-21.89,"Lon":-49.0247,"CountryCode":null},{"ID":39553,"Name":"Iaciara","Lat":-14.1106,"Lon":-46.6267,"CountryCode":null},{"ID":20811,"Name":"Iacu","Lat":-12.7669,"Lon":-40.2119,"CountryCode":null},{"ID":36035,"Name":"Iapu","Lat":-19.4333,"Lon":-42.2167,"CountryCode":null},{"ID":27743,"Name":"Iati","Lat":-9.05,"Lon":-36.85,"CountryCode":null},{"ID":18194,"Name":"Ibaiti","Lat":-23.8333,"Lon":-50.1667,"CountryCode":null},{"ID":36246,"Name":"Ibaretama","Lat":-4.8667,"Lon":-38.8833,"CountryCode":null},{"ID":16532,"Name":"Ibate","Lat":-21.955,"Lon":-47.9969,"CountryCode":null},{"ID":32796,"Name":"Ibateguara","Lat":-8.9728,"Lon":-35.9389,"CountryCode":null},{"ID":22511,"Name":"Ibatiba","Lat":-20.2364,"Lon":-41.5092,"CountryCode":null},{"ID":22631,"Name":"Ibia","Lat":-19.4778,"Lon":-46.5389,"CountryCode":null},{"ID":20457,"Name":"Ibiapina","Lat":-3.9228,"Lon":-40.8889,"CountryCode":null},{"ID":39988,"Name":"Ibiassuce","Lat":-14.2833,"Lon":-42.2833,"CountryCode":null},{"ID":23127,"Name":"Ibicarai","Lat":-14.85,"Lon":-39.6,"CountryCode":null},{"ID":23905,"Name":"Ibicoara","Lat":-13.4,"Lon":-41.3,"CountryCode":null},{"ID":32439,"Name":"Ibicui","Lat":-14.85,"Lon":-39.9833,"CountryCode":null},{"ID":36979,"Name":"Ibicuitinga","Lat":-4.9833,"Lon":-38.65,"CountryCode":null},{"ID":19436,"Name":"Ibimirim","Lat":-8.5333,"Lon":-37.7,"CountryCode":null},{"ID":28461,"Name":"Ibipeba","Lat":-11.6333,"Lon":-42.0333,"CountryCode":null},{"ID":18978,"Name":"Ibipetuba","Lat":-11,"Lon":-44.5333,"CountryCode":null},{"ID":32553,"Name":"Ibipitanga","Lat":-12.9,"Lon":-42.5,"CountryCode":null},{"ID":10359,"Name":"Ibipora","Lat":-23.2833,"Lon":-51.05,"CountryCode":null},{"ID":36808,"Name":"Ibira","Lat":-21.0803,"Lon":-49.2392,"CountryCode":null},{"ID":38622,"Name":"Ibiraci","Lat":-20.4619,"Lon":-47.1219,"CountryCode":null},{"ID":34901,"Name":"Ibiracu","Lat":-19.8319,"Lon":-40.37,"CountryCode":null},{"ID":24841,"Name":"Ibirama","Lat":-27.0667,"Lon":-49.5167,"CountryCode":null},{"ID":20280,"Name":"Ibirapitanga","Lat":-14.1625,"Lon":-39.3725,"CountryCode":null},{"ID":44962,"Name":"Ibirapua","Lat":-17.65,"Lon":-40.1167,"CountryCode":null},{"ID":25910,"Name":"Ibirataia","Lat":-14.0667,"Lon":-39.6333,"CountryCode":null},{"ID":3779,"Name":"Ibirite","Lat":-20.0219,"Lon":-44.0589,"CountryCode":null},{"ID":23197,"Name":"Ibiruba","Lat":-28.6333,"Lon":-53.1,"CountryCode":null},{"ID":31266,"Name":"Ibitiara","Lat":-12.6519,"Lon":-42.2178,"CountryCode":null},{"ID":9516,"Name":"Ibitinga","Lat":-21.7578,"Lon":-48.8289,"CountryCode":null},{"ID":28010,"Name":"Ibitita","Lat":-11.5667,"Lon":-41.9667,"CountryCode":null},{"ID":7746,"Name":"Ibiuna","Lat":-23.6564,"Lon":-47.2225,"CountryCode":null},{"ID":19623,"Name":"Ibotirama","Lat":-12.185,"Lon":-43.2208,"CountryCode":null},{"ID":23329,"Name":"Icapui","Lat":-4.7128,"Lon":-37.355,"CountryCode":null},{"ID":10012,"Name":"Icara","Lat":-28.7133,"Lon":-49.3,"CountryCode":null},{"ID":44649,"Name":"Icaraima","Lat":-23.3833,"Lon":-53.6833,"CountryCode":null},{"ID":20690,"Name":"Icatu","Lat":-2.7758,"Lon":-44.0658,"CountryCode":null},{"ID":9258,"Name":"Ico","Lat":-6.4008,"Lon":-38.8619,"CountryCode":null},{"ID":35029,"Name":"Iconha","Lat":-20.7928,"Lon":-40.8108,"CountryCode":null},{"ID":36972,"Name":"Ielmo Marinho","Lat":-5.8167,"Lon":-35.55,"CountryCode":null},{"ID":20096,"Name":"Igaci","Lat":-9.5369,"Lon":-36.6336,"CountryCode":null},{"ID":29911,"Name":"Igapora","Lat":-13.7667,"Lon":-42.7167,"CountryCode":null},{"ID":20919,"Name":"Igaracu do Tiete","Lat":-22.5092,"Lon":-48.5578,"CountryCode":null},{"ID":17724,"Name":"Igarapava","Lat":-20.0383,"Lon":-47.7469,"CountryCode":null},{"ID":12125,"Name":"Igarape","Lat":-20.07,"Lon":-44.3019,"CountryCode":null},{"ID":40609,"Name":"Igarape Grande","Lat":-4.585,"Lon":-44.8528,"CountryCode":null},{"ID":15051,"Name":"Igarape-Acu","Lat":-1.1269,"Lon":-47.6178,"CountryCode":null},{"ID":8985,"Name":"Igarape-Miri","Lat":-1.9833,"Lon":-48.9667,"CountryCode":null},{"ID":5410,"Name":"Igarassu","Lat":-7.8342,"Lon":-34.9064,"CountryCode":null},{"ID":43430,"Name":"Igarata","Lat":-23.2044,"Lon":-46.1561,"CountryCode":null},{"ID":38920,"Name":"Igaratinga","Lat":-19.9333,"Lon":-44.7,"CountryCode":null},{"ID":33778,"Name":"Igrapiuna","Lat":-13.8167,"Lon":-39.15,"CountryCode":null},{"ID":23386,"Name":"Igreja Nova","Lat":-10.1253,"Lon":-36.6619,"CountryCode":null},{"ID":16294,"Name":"Igrejinha","Lat":-29.5739,"Lon":-50.79,"CountryCode":null},{"ID":18685,"Name":"Iguaba Grande","Lat":-22.8389,"Lon":-42.2289,"CountryCode":null},{"ID":913,"Name":"Iguacu","Lat":-22.74,"Lon":-43.47,"CountryCode":null},{"ID":23395,"Name":"Iguai","Lat":-14.75,"Lon":-40.0667,"CountryCode":null},{"ID":17079,"Name":"Iguape","Lat":-24.7081,"Lon":-47.5553,"CountryCode":null},{"ID":38223,"Name":"Iguaraci","Lat":-7.8333,"Lon":-37.5333,"CountryCode":null},{"ID":32680,"Name":"Iguatemi","Lat":-23.68,"Lon":-54.5608,"CountryCode":null},{"ID":5973,"Name":"Iguatu","Lat":-6.3589,"Lon":-39.2989,"CountryCode":null},{"ID":7088,"Name":"Ijui","Lat":-28.3878,"Lon":-53.915,"CountryCode":null},{"ID":19597,"Name":"Ilha Solteira","Lat":-20.4272,"Lon":-51.3436,"CountryCode":null},{"ID":15423,"Name":"Ilhabela","Lat":-23.815,"Lon":-45.3706,"CountryCode":null},{"ID":3635,"Name":"Ilheus","Lat":-14.7889,"Lon":-39.0489,"CountryCode":null},{"ID":27891,"Name":"Ilhota","Lat":-26.9,"Lon":-48.8667,"CountryCode":null},{"ID":34598,"Name":"Ilicinia","Lat":-20.9333,"Lon":-45.8333,"CountryCode":null},{"ID":36464,"Name":"Imaculada","Lat":-7.3667,"Lon":-37.5,"CountryCode":null},{"ID":36394,"Name":"Imarui","Lat":-28.35,"Lon":-48.8167,"CountryCode":null},{"ID":31906,"Name":"Imbau","Lat":-24.445,"Lon":-50.7608,"CountryCode":null},{"ID":10784,"Name":"Imbituba","Lat":-28.2333,"Lon":-48.6667,"CountryCode":null},{"ID":17615,"Name":"Imbituva","Lat":-25.2,"Lon":-50.5833,"CountryCode":null},{"ID":2490,"Name":"Imperatriz","Lat":-5.5333,"Lon":-47.4833,"CountryCode":null},{"ID":42483,"Name":"Inacio Martins","Lat":-25.5708,"Lon":-51.0789,"CountryCode":null},{"ID":20103,"Name":"Inaja","Lat":-8.9031,"Lon":-37.8269,"CountryCode":null},{"ID":8213,"Name":"Indaial","Lat":-26.8978,"Lon":-49.2319,"CountryCode":null},{"ID":2621,"Name":"Indaiatuba","Lat":-23.0903,"Lon":-47.2181,"CountryCode":null},{"ID":21245,"Name":"Independencia","Lat":-5.3958,"Lon":-40.3089,"CountryCode":null},{"ID":28519,"Name":"Indiaroba","Lat":-11.5189,"Lon":-37.5119,"CountryCode":null},{"ID":26589,"Name":"Inga","Lat":-7.2678,"Lon":-35.6128,"CountryCode":null},{"ID":15895,"Name":"Inhambupe","Lat":-11.7833,"Lon":-38.35,"CountryCode":null},{"ID":40300,"Name":"Inhangapi","Lat":-1.4167,"Lon":-47.8833,"CountryCode":null},{"ID":26332,"Name":"Inhapi","Lat":-9.2189,"Lon":-37.7539,"CountryCode":null},{"ID":22301,"Name":"Inhapim","Lat":-19.55,"Lon":-42.1167,"CountryCode":null},{"ID":30183,"Name":"Inhuma","Lat":-6.6678,"Lon":-41.7078,"CountryCode":null},{"ID":10654,"Name":"Inhumas","Lat":-16.355,"Lon":-49.4931,"CountryCode":null},{"ID":27786,"Name":"Ipaba","Lat":-19.3833,"Lon":-42.4167,"CountryCode":null},{"ID":20139,"Name":"Ipameri","Lat":-17.7247,"Lon":-48.1597,"CountryCode":null},{"ID":25144,"Name":"Ipanema","Lat":-19.8008,"Lon":-41.7128,"CountryCode":null},{"ID":32099,"Name":"Ipanguacu","Lat":-5.5,"Lon":-36.85,"CountryCode":null},{"ID":37058,"Name":"Ipaporanga","Lat":-4.9,"Lon":-40.7667,"CountryCode":null},{"ID":2935,"Name":"Ipatinga","Lat":-19.5,"Lon":-42.5333,"CountryCode":null},{"ID":30521,"Name":"Ipaucu","Lat":-23.0569,"Lon":-49.6267,"CountryCode":null},{"ID":35932,"Name":"Ipaumirim","Lat":-6.7833,"Lon":-38.7167,"CountryCode":null},{"ID":32824,"Name":"Ipecaeta","Lat":-12.3,"Lon":-39.3078,"CountryCode":null},{"ID":16070,"Name":"Ipero","Lat":-23.3503,"Lon":-47.6886,"CountryCode":null},{"ID":13441,"Name":"Ipiau","Lat":-14.1369,"Lon":-39.7339,"CountryCode":null},{"ID":10083,"Name":"Ipira","Lat":-12.1583,"Lon":-39.7389,"CountryCode":null},{"ID":32080,"Name":"Ipiranga","Lat":-25.0239,"Lon":-50.5839,"CountryCode":null},{"ID":43220,"Name":"Ipiranga do Piaui","Lat":-6.8167,"Lon":-41.75,"CountryCode":null},{"ID":21023,"Name":"Ipixuna","Lat":-7.0508,"Lon":-71.695,"CountryCode":null},{"ID":6277,"Name":"Ipojuca","Lat":-8.4,"Lon":-35.0639,"CountryCode":null},{"ID":15089,"Name":"Ipora","Lat":-16.4411,"Lon":-51.1194,"CountryCode":null},{"ID":29626,"Name":"Ipora","Lat":-24.0028,"Lon":-53.7039,"CountryCode":null},{"ID":19384,"Name":"Ipu","Lat":-4.3257,"Lon":-40.7103,"CountryCode":null},{"ID":29857,"Name":"Ipua","Lat":-20.4381,"Lon":-48.0122,"CountryCode":null},{"ID":18098,"Name":"Ipubi","Lat":-7.65,"Lon":-40.1167,"CountryCode":null},{"ID":14704,"Name":"Ipueiras","Lat":-4.5431,"Lon":-40.7167,"CountryCode":null},{"ID":44111,"Name":"Ipuiuna","Lat":-22.1,"Lon":-46.1833,"CountryCode":null},{"ID":41671,"Name":"Ipupiara","Lat":-11.8167,"Lon":-42.6167,"CountryCode":null},{"ID":22876,"Name":"Iracemapolis","Lat":-22.5806,"Lon":-47.5186,"CountryCode":null},{"ID":33851,"Name":"Iraci","Lat":-8.8078,"Lon":-35.9519,"CountryCode":null},{"ID":39109,"Name":"Iramaia","Lat":-13.2858,"Lon":-40.9508,"CountryCode":null},{"ID":9470,"Name":"Iranduba","Lat":-3.285,"Lon":-60.1858,"CountryCode":null},{"ID":21362,"Name":"Iraquara","Lat":-12.2489,"Lon":-41.6189,"CountryCode":null},{"ID":17998,"Name":"Irara","Lat":-12.0458,"Lon":-38.7658,"CountryCode":null},{"ID":9727,"Name":"Irati","Lat":-25.4697,"Lon":-50.6547,"CountryCode":null},{"ID":21330,"Name":"Iraucuba","Lat":-3.75,"Lon":-39.7833,"CountryCode":null},{"ID":8019,"Name":"Irece","Lat":-11.3039,"Lon":-42.8558,"CountryCode":null},{"ID":39313,"Name":"Iretama","Lat":-24.2833,"Lon":-52.0333,"CountryCode":null},{"ID":40445,"Name":"Irineopolis","Lat":-26.2386,"Lon":-50.7997,"CountryCode":null},{"ID":17094,"Name":"Irituia","Lat":-1.7667,"Lon":-47.4333,"CountryCode":null},{"ID":36749,"Name":"Irupi","Lat":-20.345,"Lon":-41.6408,"CountryCode":null},{"ID":6358,"Name":"Itabaiana","Lat":-10.685,"Lon":-37.425,"CountryCode":null},{"ID":21864,"Name":"Itabaiana","Lat":-7.3289,"Lon":-35.3328,"CountryCode":null},{"ID":13449,"Name":"Itabaianinha","Lat":-11.2739,"Lon":-37.79,"CountryCode":null},{"ID":18545,"Name":"Itabela","Lat":-16.575,"Lon":-39.5528,"CountryCode":null},{"ID":26731,"Name":"Itabera","Lat":-23.8619,"Lon":-49.1372,"CountryCode":null},{"ID":8951,"Name":"Itaberaba","Lat":-12.5333,"Lon":-40.3,"CountryCode":null},{"ID":12393,"Name":"Itaberai","Lat":-16.0083,"Lon":-49.7961,"CountryCode":null},{"ID":5485,"Name":"Itabira","Lat":-19.6189,"Lon":-43.2269,"CountryCode":null},{"ID":40191,"Name":"Itabirinha de Mantena","Lat":-18.5658,"Lon":-41.2328,"CountryCode":null},{"ID":10651,"Name":"Itabirito","Lat":-20.253,"Lon":-43.801,"CountryCode":null},{"ID":2974,"Name":"Itaborai","Lat":-22.7439,"Lon":-42.8589,"CountryCode":null},{"ID":3502,"Name":"Itabuna","Lat":-14.7858,"Lon":-39.28,"CountryCode":null},{"ID":27696,"Name":"Itacarambi","Lat":-15.1017,"Lon":-44.1067,"CountryCode":null},