[{"ID":23513,"Name":"Bobonong","Lat":-21.9704,"Lon":28.4233,"CountryCode":null},{"ID":5958,"Name":"Francistown","Lat":-21.1736,"Lon":27.5125,"CountryCode":null},{"ID":30957,"Name":"Gabane","Lat":-24.6667,"Lon":25.7833,"CountryCode":null},{"ID":2845,"Name":"Gaborone","Lat":-24.6581,"Lon":25.9122,"CountryCode":null},{"ID":23341,"Name":"Ghanzi","Lat":-21.7,"Lon":21.65,"CountryCode":null},{"ID":25915,"Name":"Jwaneng","Lat":-24.6019,"Lon":24.7283,"CountryCode":null},{"ID":11659,"Name":"Kanye","Lat":-24.9833,"Lon":25.35,"CountryCode":null},{"ID":44517,"Name":"Kasane","Lat":-17.8167,"Lon":25.15,"CountryCode":null},{"ID":43522,"Name":"Kopong","Lat":-24.4686,"Lon":25.8922,"CountryCode":null},{"ID":47026,"Name":"Lehututu","Lat":-23.9169,"Lon":21.8264,"CountryCode":null},{"ID":23857,"Name":"Letlhakane","Lat":-21.4167,"Lon":25.5833,"CountryCode":null},{"ID":19265,"Name":"Lobatse","Lat":-25.2167,"Lon":25.6667,"CountryCode":null},{"ID":47157,"Name":"Lokwabe","Lat":-24.0961,"Lon":21.7781,"CountryCode":null},{"ID":13259,"Name":"Mahalapye","Lat":-23.1,"Lon":26.8,"CountryCode":null},{"ID":46605,"Name":"Masunga","Lat":-20.6667,"Lon":27.4167,"CountryCode":null},{"ID":10043,"Name":"Maun","Lat":-19.9833,"Lon":23.4167,"CountryCode":null},{"ID":44994,"Name":"Metsemotlhaba","Lat":-24.5531,"Lon":25.8039,"CountryCode":null},{"ID":35923,"Name":"Mmadinare","Lat":-21.8746,"Lon":27.7496,"CountryCode":null},{"ID":31241,"Name":"Mmopone","Lat":-24.5669,"Lon":25.8733,"CountryCode":null},{"ID":12374,"Name":"Mochudi","Lat":-24.4167,"Lon":26.15,"CountryCode":null},{"ID":9946,"Name":"Mogoditshane","Lat":-24.6333,"Lon":25.8667,"CountryCode":null},{"ID":8662,"Name":"Molepolole","Lat":-24.4067,"Lon":25.495,"CountryCode":null},{"ID":46912,"Name":"Mopipi","Lat":-21.2019,"Lon":24.8683,"CountryCode":null},{"ID":24915,"Name":"Mosopa","Lat":-24.7792,"Lon":25.4183,"CountryCode":null},{"ID":47294,"Name":"Muhembo","Lat":-18.2996,"Lon":21.8,"CountryCode":null},{"ID":46494,"Name":"Nata","Lat":-20.2106,"Lon":26.1806,"CountryCode":null},{"ID":47108,"Name":"Nokaneng","Lat":-19.6639,"Lon":22.1917,"CountryCode":null},{"ID":14888,"Name":"Palapye","Lat":-22.55,"Lon":27.1333,"CountryCode":null},{"ID":18767,"Name":"Ramotswa","Lat":-24.8667,"Lon":25.8167,"CountryCode":null},{"ID":11325,"Name":"Selibe Phikwe","Lat":-21.9758,"Lon":27.84,"CountryCode":null},{"ID":11774,"Name":"Serowe","Lat":-22.3833,"Lon":26.7167,"CountryCode":null},{"ID":44983,"Name":"Shoshong","Lat":-23.0333,"Lon":26.5167,"CountryCode":null},{"ID":46938,"Name":"Sowa Town","Lat":-20.5636,"Lon":26.2244,"CountryCode":null},{"ID":25125,"Name":"Thamaga","Lat":-24.7167,"Lon":25.5333,"CountryCode":null},{"ID":14989,"Name":"Tlokweng","Lat":-24.6667,"Lon":25.9667,"CountryCode":null},{"ID":47168,"Name":"Tsau","Lat":-20.165,"Lon":22.4544,"CountryCode":null},{"ID":44827,"Name":"Tshabong","Lat":-26.02,"Lon":22.4056,"CountryCode":null}]