[{"ID":14117,"Name":"Aketi","Lat":2.7333,"Lon":23.75,"CountryCode":null},{"ID":19632,"Name":"Aru","Lat":2.8617,"Lon":30.8333,"CountryCode":null},{"ID":47492,"Name":"Bafwasende","Lat":1.0103,"Lon":27.1617,"CountryCode":null},{"ID":9888,"Name":"Bakwa-Kalonji","Lat":-4.35,"Lon":20.72,"CountryCode":null},{"ID":4429,"Name":"Bandundu","Lat":-3.3167,"Lon":17.3667,"CountryCode":null},{"ID":5188,"Name":"Baraka","Lat":-4.1041,"Lon":29.094,"CountryCode":null},{"ID":21451,"Name":"Basankusu","Lat":1.2222,"Lon":19.8028,"CountryCode":null},{"ID":11675,"Name":"Basoko","Lat":1.2333,"Lon":23.6,"CountryCode":null},{"ID":2886,"Name":"Beni","Lat":0.5,"Lon":29.4667,"CountryCode":null},{"ID":9006,"Name":"Binga","Lat":2.4,"Lon":20.42,"CountryCode":null},{"ID":14912,"Name":"Boende","Lat":-0.281,"Lon":20.876,"CountryCode":null},{"ID":16899,"Name":"Bolobo","Lat":-2.1667,"Lon":16.2333,"CountryCode":null},{"ID":3954,"Name":"Boma","Lat":-5.85,"Lon":13.05,"CountryCode":null},{"ID":25068,"Name":"Bondo","Lat":3.8167,"Lon":23.6833,"CountryCode":null},{"ID":46727,"Name":"Bongandanga","Lat":1.51,"Lon":21.05,"CountryCode":null},{"ID":28708,"Name":"Bosobolo","Lat":4.1833,"Lon":19.9,"CountryCode":null},{"ID":12852,"Name":"Bukama","Lat":-9.2,"Lon":25.8333,"CountryCode":null},{"ID":680,"Name":"Bukavu","Lat":-2.5,"Lon":28.8667,"CountryCode":null},{"ID":47206,"Name":"Buluko","Lat":-0.757,"Lon":28.528,"CountryCode":null},{"ID":10026,"Name":"Bulungu","Lat":-4.55,"Lon":18.6,"CountryCode":null},{"ID":5964,"Name":"Bumba","Lat":2.1844,"Lon":22.4703,"CountryCode":null},{"ID":855,"Name":"Bunia","Lat":1.5667,"Lon":30.25,"CountryCode":null},{"ID":16384,"Name":"Businga","Lat":3.3397,"Lon":20.87,"CountryCode":null},{"ID":10329,"Name":"Buta","Lat":2.8,"Lon":24.7333,"CountryCode":null},{"ID":3059,"Name":"Butembo","Lat":0.15,"Lon":29.2833,"CountryCode":null},{"ID":20245,"Name":"Demba","Lat":-5.5,"Lon":22.2667,"CountryCode":null},{"ID":47339,"Name":"Dibaya","Lat":-6.5095,"Lon":22.87,"CountryCode":null},{"ID":14000,"Name":"Dibaya-Lubwe","Lat":-4.15,"Lon":19.8667,"CountryCode":null},{"ID":46398,"Name":"Dilolo","Lat":-10.4667,"Lon":22.4667,"CountryCode":null},{"ID":18605,"Name":"Djugu","Lat":1.9184,"Lon":30.5019,"CountryCode":null},{"ID":26772,"Name":"Doruma","Lat":4.7333,"Lon":27.7,"CountryCode":null},{"ID":20538,"Name":"Drodro","Lat":1.7667,"Lon":30.5333,"CountryCode":null},{"ID":10891,"Name":"Dungu","Lat":3.6167,"Lon":28.5667,"CountryCode":null},{"ID":15756,"Name":"Fungurume","Lat":-10.6167,"Lon":26.3,"CountryCode":null},{"ID":4361,"Name":"Gandajika","Lat":-6.75,"Lon":23.9667,"CountryCode":null},{"ID":3324,"Name":"Gbadolite","Lat":4.2833,"Lon":21.0167,"CountryCode":null},{"ID":4562,"Name":"Gemena","Lat":3.25,"Lon":19.7667,"CountryCode":null},{"ID":2697,"Name":"Goma","Lat":-1.6794,"Lon":29.2336,"CountryCode":null},{"ID":21350,"Name":"Gungu","Lat":-5.7333,"Lon":19.3167,"CountryCode":null},{"ID":10716,"Name":"Hyosha","Lat":0.6975,"Lon":29.5197,"CountryCode":null},{"ID":9462,"Name":"Idiofa","Lat":-4.9668,"Lon":19.591,"CountryCode":null},{"ID":47454,"Name":"Ikela","Lat":-1.1833,"Lon":23.2667,"CountryCode":null},{"ID":5768,"Name":"Ilebo","Lat":-4.3167,"Lon":20.6,"CountryCode":null},{"ID":12262,"Name":"Inongo","Lat":-1.95,"Lon":18.2667,"CountryCode":null},{"ID":3552,"Name":"Isiro","Lat":2.7833,"Lon":27.6167,"CountryCode":null},{"ID":17653,"Name":"Kabalo","Lat":-6.05,"Lon":26.9167,"CountryCode":null},{"ID":2756,"Name":"Kabinda","Lat":-6.13,"Lon":24.48,"CountryCode":null},{"ID":11262,"Name":"Kahemba","Lat":-7.2829,"Lon":19,"CountryCode":null},{"ID":4345,"Name":"Kalemie","Lat":-5.9128,"Lon":29.1906,"CountryCode":null},{"ID":11597,"Name":"Kalima","Lat":-2.5667,"Lon":26.6167,"CountryCode":null},{"ID":14739,"Name":"Kambove","Lat":-10.8764,"Lon":26.5969,"CountryCode":null},{"ID":4084,"Name":"Kamina","Lat":-8.7386,"Lon":24.9906,"CountryCode":null},{"ID":32332,"Name":"Kamituga","Lat":-3.06,"Lon":28.18,"CountryCode":null},{"ID":14616,"Name":"Kampene","Lat":-3.5968,"Lon":26.6658,"CountryCode":null},{"ID":422,"Name":"Kananga","Lat":-5.897,"Lon":22.4488,"CountryCode":null},{"ID":14814,"Name":"Kaniama","Lat":-7.5696,"Lon":24.17,"CountryCode":null},{"ID":17550,"Name":"Kanyobagonga","Lat":-0.702,"Lon":29.1726,"CountryCode":null},{"ID":36215,"Name":"Kasaji","Lat":-10.3662,"Lon":23.45,"CountryCode":null},{"ID":18661,"Name":"Kasangulu","Lat":-4.5911,"Lon":15.1703,"CountryCode":null},{"ID":9205,"Name":"Kasongo","Lat":-4.45,"Lon":26.65,"CountryCode":null},{"ID":21405,"Name":"Kasongo-Lunda","Lat":-6.4783,"Lon":16.8166,"CountryCode":null},{"ID":11828,"Name":"Kasumbalesa","Lat":-12.2564,"Lon":27.8028,"CountryCode":null},{"ID":525,"Name":"Katako-Kombe","Lat":-3.4,"Lon":24.42,"CountryCode":null},{"ID":13161,"Name":"Kenge","Lat":-4.8056,"Lon":17.0417,"CountryCode":null},{"ID":814,"Name":"Kibanseke Premiere","Lat":-4.4419,"Lon":15.395,"CountryCode":null},{"ID":1598,"Name":"Kikwit","Lat":-5.0386,"Lon":18.8181,"CountryCode":null},{"ID":39573,"Name":"Kimpese","Lat":-5.5631,"Lon":14.4458,"CountryCode":null},{"ID":3747,"Name":"Kindu","Lat":-2.95,"Lon":25.95,"CountryCode":null},{"ID":28,"Name":"Kinshasa","Lat":-4.3219,"Lon":15.3119,"CountryCode":null},{"ID":26013,"Name":"Kinzau-Vuete","Lat":-5.4967,"Lon":13.2893,"CountryCode":null},{"ID":4744,"Name":"Kipushi","Lat":-11.7625,"Lon":27.25,"CountryCode":null},{"ID":31304,"Name":"Kiri","Lat":-1.4955,"Lon":18.9277,"CountryCode":null},{"ID":739,"Name":"Kisangani","Lat":0.5167,"Lon":25.2,"CountryCode":null},{"ID":1849,"Name":"Kisenzi","Lat":-4.4094,"Lon":15.3425,"CountryCode":null},{"ID":1536,"Name":"Kolwezi","Lat":-10.7167,"Lon":25.4667,"CountryCode":null},{"ID":5868,"Name":"Kongolo","Lat":-5.4,"Lon":27,"CountryCode":null},{"ID":19153,"Name":"Libenge","Lat":3.6508,"Lon":18.6375,"CountryCode":null},{"ID":1497,"Name":"Likasi","Lat":-10.9833,"Lon":26.7333,"CountryCode":null},{"ID":6454,"Name":"Lingwala","Lat":-4.3203,"Lon":15.2983,"CountryCode":null},{"ID":7496,"Name":"Lisala","Lat":2.1486,"Lon":21.5136,"CountryCode":null},{"ID":8593,"Name":"Lodja","Lat":-3.5242,"Lon":23.5964,"CountryCode":null},{"ID":47271,"Name":"Luanza","Lat":-8.6996,"Lon":28.7,"CountryCode":null},{"ID":12782,"Name":"Lubao","Lat":-5.385,"Lon":25.745,"CountryCode":null},{"ID":452,"Name":"Lubumbashi","Lat":-11.6647,"Lon":27.4794,"CountryCode":null},{"ID":47180,"Name":"Lubutu","Lat":-0.7431,"Lon":26.5833,"CountryCode":null},{"ID":13630,"Name":"Luebo","Lat":-5.35,"Lon":21.4167,"CountryCode":null},{"ID":19279,"Name":"Lukula","Lat":-5.4,"Lon":12.9333,"CountryCode":null},{"ID":32568,"Name":"Luozi","Lat":-4.948,"Lon":14.133,"CountryCode":null},{"ID":13226,"Name":"Lusambo","Lat":-4.9729,"Lon":23.4368,"CountryCode":null},{"ID":47483,"Name":"Lusanga","Lat":-5.5808,"Lon":16.5143,"CountryCode":null},{"ID":7067,"Name":"Luvungi","Lat":-2.86,"Lon":29.03,"CountryCode":null},{"ID":14572,"Name":"Mangai","Lat":-4.0499,"Lon":19.5333,"CountryCode":null},{"ID":46948,"Name":"Mangbwalu","Lat":1.9352,"Lon":30.0462,"CountryCode":null},{"ID":12050,"Name":"Manono","Lat":-7.2947,"Lon":27.4545,"CountryCode":null},{"ID":16714,"Name":"Masi-Manimba","Lat":-4.779,"Lon":17.9077,"CountryCode":null},{"ID":2079,"Name":"Matadi","Lat":-5.8167,"Lon":13.4833,"CountryCode":null},{"ID":645,"Name":"Mbandaka","Lat":0.0478,"Lon":18.2558,"CountryCode":null},{"ID":6142,"Name":"Mbanza-Ngungu","Lat":-5.25,"Lon":14.8667,"CountryCode":null},{"ID":274,"Name":"Mbuji-Mayi","Lat":-6.15,"Lon":23.6,"CountryCode":null},{"ID":10469,"Name":"Mbulungu","Lat":-6.0667,"Lon":21.9,"CountryCode":null},{"ID":4151,"Name":"Moanda","Lat":-5.9342,"Lon":12.3494,"CountryCode":null},{"ID":41283,"Name":"Moba","Lat":-7.0398,"Lon":29.7661,"CountryCode":null},{"ID":10961,"Name":"Mulongo","Lat":-7.8333,"Lon":27,"CountryCode":null},{"ID":16185,"Name":"Mushie","Lat":-3.0167,"Lon":16.9167,"CountryCode":null},{"ID":11126,"Name":"Mweka","Lat":-4.85,"Lon":21.5667,"CountryCode":null},{"ID":3372,"Name":"Mwene-Ditu","Lat":-7,"Lon":23.45,"CountryCode":null},{"ID":47038,"Name":"Mwenga","Lat":-3.0382,"Lon":28.4325,"CountryCode":null},{"ID":1644,"Name":"Ndjili","Lat":-4.4089,"Lon":15.3775,"CountryCode":null},{"ID":4508,"Name":"Nsele","Lat":-4.3744,"Lon":15.4947,"CountryCode":null},{"ID":12900,"Name":"Nyunzu","Lat":-5.95,"Lon":28.0333,"CountryCode":null},{"ID":22377,"Name":"Oshwe","Lat":-3.4188,"Lon":19.4334,"CountryCode":null},{"ID":20712,"Name":"Pepa","Lat":-7.7106,"Lon":29.776,"CountryCode":null},{"ID":37794,"Name":"Poko","Lat":3.15,"Lon":26.8833,"CountryCode":null},{"ID":20713,"Name":"Pweto","Lat":-8.4667,"Lon":28.9,"CountryCode":null},{"ID":27768,"Name":"Sake","Lat":-1.5741,"Lon":29.0413,"CountryCode":null},{"ID":14033,"Name":"Tshela","Lat":-4.9667,"Lon":12.9333,"CountryCode":null},{"ID":1019,"Name":"Tshikapa","Lat":-6.4167,"Lon":20.8,"CountryCode":null},{"ID":7093,"Name":"Tshilenge","Lat":-6.25,"Lon":23.7667,"CountryCode":null},{"ID":1269,"Name":"Uvira","Lat":-3.4,"Lon":29.15,"CountryCode":null},{"ID":4349,"Name":"Wamba","Lat":2.1442,"Lon":27.9929,"CountryCode":null},{"ID":20872,"Name":"Watsa","Lat":3.0372,"Lon":29.5355,"CountryCode":null},{"ID":35675,"Name":"Yakoma","Lat":4.0982,"Lon":22.4432,"CountryCode":null},{"ID":15149,"Name":"Yangambi","Lat":0.7675,"Lon":24.4414,"CountryCode":null},{"ID":10584,"Name":"Zongo","Lat":4.3433,"Lon":18.5928,"CountryCode":null}]