[{"ID":44428,"Name":"Aadorf","Lat":47.5,"Lon":8.9,"CountryCode":null},{"ID":23253,"Name":"Aarau","Lat":47.4,"Lon":8.05,"CountryCode":null},{"ID":25963,"Name":"Adliswil","Lat":47.3167,"Lon":8.5333,"CountryCode":null},{"ID":40214,"Name":"Aesch","Lat":47.4667,"Lon":7.5833,"CountryCode":null},{"ID":35646,"Name":"Affoltern am Albis","Lat":47.2833,"Lon":8.45,"CountryCode":null},{"ID":40894,"Name":"Aigle","Lat":46.3167,"Lon":6.9667,"CountryCode":null},{"ID":23561,"Name":"Allschwil","Lat":47.55,"Lon":7.5333,"CountryCode":null},{"ID":43278,"Name":"Altdorf","Lat":46.8667,"Lon":8.6333,"CountryCode":null},{"ID":36738,"Name":"Altstatten","Lat":47.3833,"Lon":9.55,"CountryCode":null},{"ID":33125,"Name":"Amriswil","Lat":47.55,"Lon":9.3,"CountryCode":null},{"ID":46598,"Name":"Appenzell","Lat":47.3333,"Lon":9.4167,"CountryCode":null},{"ID":31426,"Name":"Arbon","Lat":47.5167,"Lon":9.4333,"CountryCode":null},{"ID":43894,"Name":"Arlesheim","Lat":47.4833,"Lon":7.6167,"CountryCode":null},{"ID":36188,"Name":"Arth","Lat":47.0633,"Lon":8.5218,"CountryCode":null},{"ID":20908,"Name":"Baar","Lat":47.2,"Lon":8.5167,"CountryCode":null},{"ID":25552,"Name":"Baden","Lat":47.4667,"Lon":8.3,"CountryCode":null},{"ID":3716,"Name":"Basel","Lat":47.5547,"Lon":7.5906,"CountryCode":null},{"ID":37022,"Name":"Bassersdorf","Lat":47.45,"Lon":8.6333,"CountryCode":null},{"ID":12614,"Name":"Bellinzona","Lat":46.1954,"Lon":9.0297,"CountryCode":null},{"ID":37215,"Name":"Belp","Lat":46.8833,"Lon":7.5,"CountryCode":null},{"ID":4679,"Name":"Bern","Lat":46.9481,"Lon":7.4475,"CountryCode":null},{"ID":40601,"Name":"Bernex","Lat":46.1667,"Lon":6.0667,"CountryCode":null},{"ID":46100,"Name":"Biberist","Lat":47.1833,"Lon":7.5667,"CountryCode":null},{"ID":10353,"Name":"Biel/Bienne","Lat":47.1333,"Lon":7.25,"CountryCode":null},{"ID":29714,"Name":"Binningen","Lat":47.5333,"Lon":7.5667,"CountryCode":null},{"ID":40396,"Name":"Birsfelden","Lat":47.5533,"Lon":7.6233,"CountryCode":null},{"ID":45943,"Name":"Bremgarten","Lat":47.35,"Lon":8.3333,"CountryCode":null},{"ID":33859,"Name":"Brig-Glis","Lat":46.3167,"Lon":7.9667,"CountryCode":null},{"ID":38115,"Name":"Brugg","Lat":47.4864,"Lon":8.2067,"CountryCode":null},{"ID":34850,"Name":"Buchs","Lat":47.1667,"Lon":9.4667,"CountryCode":null},{"ID":24605,"Name":"Bulach","Lat":47.5167,"Lon":8.5333,"CountryCode":null},{"ID":22288,"Name":"Bulle","Lat":46.6167,"Lon":7.05,"CountryCode":null},{"ID":28678,"Name":"Burgdorf","Lat":47.05,"Lon":7.6167,"CountryCode":null},{"ID":45530,"Name":"Bussy","Lat":46.55,"Lon":6.55,"CountryCode":null},{"ID":22530,"Name":"Carouge","Lat":46.1833,"Lon":6.1333,"CountryCode":null},{"ID":35667,"Name":"Chene-Bougeries","Lat":46.1833,"Lon":6.1833,"CountryCode":null},{"ID":15349,"Name":"Chur","Lat":46.85,"Lon":9.5333,"CountryCode":null},{"ID":45676,"Name":"Conthey","Lat":46.2167,"Lon":7.3,"CountryCode":null},{"ID":38840,"Name":"Davos","Lat":46.8,"Lon":9.8333,"CountryCode":null},{"ID":34710,"Name":"Delemont","Lat":47.3667,"Lon":7.35,"CountryCode":null},{"ID":19243,"Name":"Dietikon","Lat":47.4,"Lon":8.4,"CountryCode":null},{"ID":18632,"Name":"Dubendorf","Lat":47.4167,"Lon":8.6167,"CountryCode":null},{"ID":34384,"Name":"Ecublens","Lat":46.5333,"Lon":6.5667,"CountryCode":null},{"ID":45993,"Name":"Egg","Lat":47.3,"Lon":8.6903,"CountryCode":null},{"ID":45994,"Name":"Egg","Lat":47.3019,"Lon":8.6906,"CountryCode":null},{"ID":29877,"Name":"Einsiedeln","Lat":47.1167,"Lon":8.7333,"CountryCode":null},{"ID":43226,"Name":"Embrach","Lat":47.5104,"Lon":8.5938,"CountryCode":null},{"ID":17942,"Name":"Emmen","Lat":47.0833,"Lon":8.3,"CountryCode":null},{"ID":42644,"Name":"Epalinges","Lat":46.55,"Lon":6.6667,"CountryCode":null},{"ID":42674,"Name":"Eschenbach","Lat":47.2333,"Lon":8.9167,"CountryCode":null},{"ID":42335,"Name":"Estavayer-le-Lac","Lat":46.85,"Lon":6.8472,"CountryCode":null},{"ID":46072,"Name":"Fallanden","Lat":47.3667,"Lon":8.6333,"CountryCode":null},{"ID":39739,"Name":"Flawil","Lat":47.4167,"Lon":9.2,"CountryCode":null},{"ID":22546,"Name":"Frauenfeld","Lat":47.55,"Lon":8.9,"CountryCode":null},{"ID":28715,"Name":"Freienbach","Lat":47.2,"Lon":8.75,"CountryCode":null},{"ID":14181,"Name":"Fribourg","Lat":46.8,"Lon":7.15,"CountryCode":null},{"ID":45438,"Name":"Fully","Lat":46.1333,"Lon":7.1167,"CountryCode":null},{"ID":3240,"Name":"Geneva","Lat":46.2017,"Lon":6.1469,"CountryCode":null},{"ID":33867,"Name":"Gland","Lat":46.42,"Lon":6.27,"CountryCode":null},{"ID":46576,"Name":"Glarus","Lat":47.0333,"Lon":9.0667,"CountryCode":null},{"ID":43669,"Name":"Goldach","Lat":47.4833,"Lon":9.4667,"CountryCode":null},{"ID":41666,"Name":"Gossau","Lat":47.3167,"Lon":8.75,"CountryCode":null},{"ID":26566,"Name":"Gossau","Lat":47.4167,"Lon":9.25,"CountryCode":null},{"ID":27779,"Name":"Grenchen","Lat":47.1906,"Lon":7.3964,"CountryCode":null},{"ID":29629,"Name":"Herisau","Lat":47.3833,"Lon":9.2667,"CountryCode":null},{"ID":37979,"Name":"Hinwil","Lat":47.3,"Lon":8.85,"CountryCode":null},{"ID":41942,"Name":"Hochdorf","Lat":47.1667,"Lon":8.2833,"CountryCode":null},{"ID":45445,"Name":"Hombrechtikon","Lat":47.25,"Lon":8.7667,"CountryCode":null},{"ID":21769,"Name":"Horgen","Lat":47.2608,"Lon":8.5975,"CountryCode":null},{"ID":31920,"Name":"Horw","Lat":47.0167,"Lon":8.3167,"CountryCode":null},{"ID":45262,"Name":"Hunenberg","Lat":47.1833,"Lon":8.4333,"CountryCode":null},{"ID":44907,"Name":"Ingenbohl","Lat":46.9833,"Lon":8.6,"CountryCode":null},{"ID":45113,"Name":"Kilchberg","Lat":47.3167,"Lon":8.55,"CountryCode":null},{"ID":44328,"Name":"Kirchberg","Lat":47.4,"Lon":9.0333,"CountryCode":null},{"ID":25284,"Name":"Kloten","Lat":47.45,"Lon":8.5833,"CountryCode":null},{"ID":13117,"Name":"Koniz","Lat":46.9333,"Lon":7.4,"CountryCode":null},{"ID":23002,"Name":"Kreuzlingen","Lat":47.6333,"Lon":9.1667,"CountryCode":null},{"ID":19205,"Name":"Kriens","Lat":47.0333,"Lon":8.2833,"CountryCode":null},{"ID":31686,"Name":"Kusnacht","Lat":47.3167,"Lon":8.5833,"CountryCode":null},{"ID":33905,"Name":"Kussnacht","Lat":47.0667,"Lon":8.4333,"CountryCode":null},{"ID":13993,"Name":"La Chaux-de-Fonds","Lat":47.1013,"Lon":6.825,"CountryCode":null},{"ID":36519,"Name":"La Tour-de-Peilz","Lat":46.45,"Lon":6.8667,"CountryCode":null},{"ID":45457,"Name":"Lachen","Lat":47.1833,"Lon":8.85,"CountryCode":null},{"ID":16648,"Name":"Landecy","Lat":46.1834,"Lon":6.1166,"CountryCode":null},{"ID":45123,"Name":"Landquart","Lat":46.9688,"Lon":9.5503,"CountryCode":null},{"ID":29782,"Name":"Langenthal","Lat":47.2167,"Lon":7.7833,"CountryCode":null},{"ID":43379,"Name":"Langnau","Lat":46.95,"Lon":7.7833,"CountryCode":null},{"ID":4485,"Name":"Lausanne","Lat":46.5198,"Lon":6.6335,"CountryCode":null},{"ID":35770,"Name":"Le Grand-Saconnex","Lat":46.2333,"Lon":6.1167,"CountryCode":null},{"ID":39982,"Name":"Le Locle","Lat":47.0532,"Lon":6.7482,"CountryCode":null},{"ID":46252,"Name":"Le Mont-sur-Lausanne","Lat":46.5217,"Lon":6.6269,"CountryCode":null},{"ID":39604,"Name":"Lenzburg","Lat":47.3833,"Lon":8.1833,"CountryCode":null},{"ID":31678,"Name":"Liestal","Lat":47.4667,"Lon":7.7333,"CountryCode":null},{"ID":27676,"Name":"Littau","Lat":47.05,"Lon":8.2667,"CountryCode":null},{"ID":29228,"Name":"Locarno","Lat":46.1667,"Lon":8.8,"CountryCode":null},{"ID":7288,"Name":"Lucerne","Lat":47.05,"Lon":8.3,"CountryCode":null},{"ID":9183,"Name":"Lugano","Lat":46.005,"Lon":8.9525,"CountryCode":null},{"ID":40433,"Name":"Lutry","Lat":46.5,"Lon":6.6833,"CountryCode":null},{"ID":30230,"Name":"Lyss","Lat":47.0667,"Lon":7.3,"CountryCode":null},{"ID":37824,"Name":"Mannedorf","Lat":47.25,"Lon":8.6833,"CountryCode":null},{"ID":27686,"Name":"Martigny","Lat":46.1,"Lon":7.0667,"CountryCode":null},{"ID":35896,"Name":"Mattenhof","Lat":47.487,"Lon":8.747,"CountryCode":null},{"ID":40839,"Name":"Maur","Lat":47.35,"Lon":8.6667,"CountryCode":null},{"ID":32329,"Name":"Meilen","Lat":47.2667,"Lon":8.6333,"CountryCode":null},{"ID":43761,"Name":"Mels","Lat":47.05,"Lon":9.4167,"CountryCode":null},{"ID":30807,"Name":"Mendrisio","Lat":45.8667,"Lon":8.9833,"CountryCode":null},{"ID":21165,"Name":"Meyrin","Lat":46.2167,"Lon":6.0667,"CountryCode":null},{"ID":38337,"Name":"Mohlin","Lat":47.55,"Lon":7.85,"CountryCode":null},{"ID":27019,"Name":"Monthey","Lat":46.25,"Lon":6.95,"CountryCode":null},{"ID":19843,"Name":"Montreux","Lat":46.435,"Lon":6.9125,"CountryCode":null},{"ID":29680,"Name":"Morges","Lat":46.5167,"Lon":6.5,"CountryCode":null},{"ID":35900,"Name":"Munchenstein","Lat":47.5167,"Lon":7.6167,"CountryCode":null},{"ID":33963,"Name":"Muri","Lat":46.9333,"Lon":7.4833,"CountryCode":null},{"ID":26984,"Name":"Muttenz","Lat":47.5167,"Lon":7.65,"CountryCode":null},{"ID":41074,"Name":"Naters","Lat":46.3167,"Lon":7.9833,"CountryCode":null},{"ID":16023,"Name":"Neuchatel","Lat":47,"Lon":6.9333,"CountryCode":null},{"ID":45207,"Name":"Neuenhof","Lat":47.45,"Lon":8.3167,"CountryCode":null},{"ID":39769,"Name":"Neuhausen am Rheinfall","Lat":47.6833,"Lon":8.6167,"CountryCode":null},{"ID":43683,"Name":"Niederhasli","Lat":47.4833,"Lon":8.4833,"CountryCode":null},{"ID":24382,"Name":"Nyon","Lat":46.3833,"Lon":6.2333,"CountryCode":null},{"ID":45013,"Name":"Oberriet","Lat":47.3167,"Lon":9.5667,"CountryCode":null},{"ID":46105,"Name":"Obersiggenthal","Lat":47.4833,"Lon":8.3,"CountryCode":null},{"ID":38090,"Name":"Oberwil","Lat":47.5167,"Lon":7.55,"CountryCode":null},{"ID":23048,"Name":"Oberwingert","Lat":47.517,"Lon":8.769,"CountryCode":null},{"ID":32691,"Name":"Oftringen","Lat":47.3167,"Lon":7.9167,"CountryCode":null},{"ID":26366,"Name":"Olten","Lat":47.35,"Lon":7.9,"CountryCode":null},{"ID":25717,"Name":"Onex","Lat":46.1833,"Lon":6.1,"CountryCode":null},{"ID":24839,"Name":"Opfikon","Lat":47.4333,"Lon":8.5667,"CountryCode":null},{"ID":27044,"Name":"Ostermundigen","Lat":46.955,"Lon":7.4894,"CountryCode":null},{"ID":41643,"Name":"Payerne","Lat":46.8167,"Lon":6.9333,"CountryCode":null},{"ID":36293,"Name":"Pfaffikon","Lat":47.3667,"Lon":8.7833,"CountryCode":null},{"ID":39381,"Name":"Plan-les-Ouates","Lat":46.1667,"Lon":6.1167,"CountryCode":null},{"ID":28435,"Name":"Pratteln","Lat":47.5167,"Lon":7.7,"CountryCode":null},{"ID":35278,"Name":"Prilly","Lat":46.5333,"Lon":6.6,"CountryCode":null},{"ID":26417,"Name":"Pully","Lat":46.5167,"Lon":6.6667,"CountryCode":null},{"ID":19208,"Name":"Rapperswil-Jona","Lat":47.2167,"Lon":8.8167,"CountryCode":null},{"ID":26471,"Name":"Regensdorf","Lat":47.4333,"Lon":8.4667,"CountryCode":null},{"ID":25518,"Name":"Reinach","Lat":47.4833,"Lon":7.5833,"CountryCode":null},{"ID":23775,"Name":"Renens","Lat":46.5333,"Lon":6.5833,"CountryCode":null},{"ID":33135,"Name":"Rheinfelden","Lat":47.55,"Lon":7.8,"CountryCode":null},{"ID":33313,"Name":"Richterswil","Lat":47.2167,"Lon":8.7,"CountryCode":null},{"ID":23306,"Name":"Riehen","Lat":47.5833,"Lon":7.6333,"CountryCode":null},{"ID":38859,"Name":"Risch","Lat":47.1333,"Lon":8.4667,"CountryCode":null},{"ID":38007,"Name":"Romanshorn","Lat":47.5667,"Lon":9.3833,"CountryCode":null},{"ID":43161,"Name":"Rorschach","Lat":47.4667,"Lon":9.5,"CountryCode":null},{"ID":44153,"Name":"Rothrist","Lat":47.3,"Lon":7.8833,"CountryCode":null},{"ID":35755,"Name":"Ruti","Lat":47.2667,"Lon":8.85,"CountryCode":null},{"ID":7804,"Name":"Sankt Gallen","Lat":47.4242,"Lon":9.3708,"CountryCode":null},{"ID":40171,"Name":"Sarnen","Lat":46.8961,"Lon":8.2456,"CountryCode":null},{"ID":14778,"Name":"Schaffhausen","Lat":47.7,"Lon":8.6333,"CountryCode":null},{"ID":25964,"Name":"Schlieren","Lat":47.4,"Lon":8.45,"CountryCode":null},{"ID":43736,"Name":"Schubelbach","Lat":47.1667,"Lon":8.9333,"CountryCode":null},{"ID":30371,"Name":"Schwyz","Lat":47.0167,"Lon":8.65,"CountryCode":null},{"ID":28241,"Name":"Sierre","Lat":46.3,"Lon":7.5333,"CountryCode":null},{"ID":15510,"Name":"Sion","Lat":46.2311,"Lon":7.3594,"CountryCode":null},{"ID":28260,"Name":"Solothurn","Lat":47.2167,"Lon":7.5333,"CountryCode":null},{"ID":34460,"Name":"Spiez","Lat":46.6833,"Lon":7.6667,"CountryCode":null},{"ID":36605,"Name":"Spreitenbach","Lat":47.4167,"Lon":8.3667,"CountryCode":null},{"ID":31680,"Name":"Stafa","Lat":47.24,"Lon":8.73,"CountryCode":null},{"ID":46351,"Name":"Stans","Lat":46.95,"Lon":8.35,"CountryCode":null},{"ID":29678,"Name":"Steffisburg","Lat":46.7667,"Lon":7.6333,"CountryCode":null},{"ID":27171,"Name":"Stegen","Lat":47.476,"Lon":8.77,"CountryCode":null},{"ID":41234,"Name":"Steinhaus","Lat":47.2,"Lon":8.4833,"CountryCode":null},{"ID":39996,"Name":"Suhr","Lat":47.3667,"Lon":8.0833,"CountryCode":null},{"ID":41768,"Name":"Sursee","Lat":47.1667,"Lon":8.1167,"CountryCode":null},{"ID":26190,"Name":"Thalwil","Lat":47.2833,"Lon":8.5667,"CountryCode":null},{"ID":41876,"Name":"Therwil","Lat":47.5,"Lon":7.55,"CountryCode":null},{"ID":32112,"Name":"Thonex","Lat":46.1833,"Lon":6.1833,"CountryCode":null},{"ID":12629,"Name":"Thun","Lat":46.7667,"Lon":7.6333,"CountryCode":null},{"ID":45047,"Name":"Unterageri","Lat":47.1333,"Lon":8.5833,"CountryCode":null},{"ID":42176,"Name":"Urdorf","Lat":47.3833,"Lon":8.4333,"CountryCode":null},{"ID":14708,"Name":"Uster","Lat":47.35,"Lon":8.7167,"CountryCode":null},{"ID":34327,"Name":"Uzwil","Lat":47.4369,"Lon":9.1333,"CountryCode":null},{"ID":15485,"Name":"Vernier","Lat":46.2,"Lon":6.1,"CountryCode":null},{"ID":33288,"Name":"Versoix","Lat":46.2833,"Lon":6.1667,"CountryCode":null},{"ID":24810,"Name":"Vevey","Lat":46.4667,"Lon":6.85,"CountryCode":null},{"ID":36985,"Name":"Veyrier","Lat":46.1667,"Lon":6.1833,"CountryCode":null},{"ID":35909,"Name":"Villars-sur-Glane","Lat":46.7833,"Lon":7.1167,"CountryCode":null},{"ID":26080,"Name":"Volketswil","Lat":47.3833,"Lon":8.7,"CountryCode":null},{"ID":23080,"Name":"Wadenswil","Lat":47.2333,"Lon":8.6667,"CountryCode":null},{"ID":42198,"Name":"Wald","Lat":47.2833,"Lon":8.9167,"CountryCode":null},{"ID":28817,"Name":"Wallisellen","Lat":47.4167,"Lon":8.6,"CountryCode":null},{"ID":36809,"Name":"Waltikon","Lat":47.3667,"Lon":8.5833,"CountryCode":null},{"ID":45529,"Name":"Wattwil","Lat":47.3,"Lon":9.0833,"CountryCode":null},{"ID":37155,"Name":"Weinfelden","Lat":47.5667,"Lon":9.1,"CountryCode":null},{"ID":23855,"Name":"Wettingen","Lat":47.4667,"Lon":8.3333,"CountryCode":null},{"ID":20918,"Name":"Wetzikon","Lat":47.3167,"Lon":8.8,"CountryCode":null},{"ID":42624,"Name":"Widnau","Lat":47.4,"Lon":9.6333,"CountryCode":null},{"ID":21304,"Name":"Wil","Lat":47.4667,"Lon":9.05,"CountryCode":null},{"ID":5641,"Name":"Winterthur","Lat":47.4989,"Lon":8.7286,"CountryCode":null},{"ID":42411,"Name":"Wittenbach","Lat":47.4667,"Lon":9.3667,"CountryCode":null},{"ID":29144,"Name":"Wohlen","Lat":47.35,"Lon":8.2833,"CountryCode":null},{"ID":37672,"Name":"Worb","Lat":46.9333,"Lon":7.5667,"CountryCode":null},{"ID":30485,"Name":"Wulflingen","Lat":47.51,"Lon":8.683,"CountryCode":null},{"ID":17460,"Name":"Yverdon-les-Bains","Lat":46.7785,"Lon":6.6408,"CountryCode":null},{"ID":36887,"Name":"Zofingen","Lat":47.2833,"Lon":7.9333,"CountryCode":null},{"ID":33394,"Name":"Zollikon","Lat":47.3333,"Lon":8.5833,"CountryCode":null},{"ID":45024,"Name":"Zuchwil","Lat":47.2,"Lon":7.5667,"CountryCode":null},{"ID":17285,"Name":"Zug","Lat":47.1681,"Lon":8.5169,"CountryCode":null},{"ID":1630,"Name":"Zurich","Lat":47.3744,"Lon":8.5411,"CountryCode":null}]