[{"ID":3911,"Name":"Abengourou","Lat":6.7333,"Lon":-3.4833,"CountryCode":null},{"ID":131,"Name":"Abidjan","Lat":5.3167,"Lon":-4.0333,"CountryCode":null},{"ID":6093,"Name":"Aboisso","Lat":5.4667,"Lon":-3.2,"CountryCode":null},{"ID":4091,"Name":"Adzope","Lat":6.1667,"Lon":-3.9833,"CountryCode":null},{"ID":4666,"Name":"Agboville","Lat":5.9333,"Lon":-4.2167,"CountryCode":null},{"ID":30830,"Name":"Ahigbe Koffikro","Lat":5.4,"Lon":-3.3833,"CountryCode":null},{"ID":2224,"Name":"Attiecoube","Lat":5.3333,"Lon":-4.0333,"CountryCode":null},{"ID":47734,"Name":"Bangolo","Lat":7.0123,"Lon":-7.4864,"CountryCode":null},{"ID":28134,"Name":"Bedigoazon","Lat":6.5667,"Lon":-7.7833,"CountryCode":null},{"ID":8225,"Name":"Biankouma","Lat":7.7333,"Lon":-7.6167,"CountryCode":null},{"ID":3226,"Name":"Bingerville","Lat":5.35,"Lon":-3.9,"CountryCode":null},{"ID":18360,"Name":"Bin-Houye","Lat":6.7833,"Lon":-8.3167,"CountryCode":null},{"ID":4484,"Name":"Bondoukou","Lat":8.0333,"Lon":-2.8,"CountryCode":null},{"ID":7941,"Name":"Bongouanou","Lat":6.65,"Lon":-4.2,"CountryCode":null},{"ID":21670,"Name":"Bonoufla","Lat":7.1333,"Lon":-6.4833,"CountryCode":null},{"ID":8188,"Name":"Bouafle","Lat":6.9833,"Lon":-5.75,"CountryCode":null},{"ID":1139,"Name":"Bouake","Lat":7.6833,"Lon":-5.0167,"CountryCode":null},{"ID":6444,"Name":"Bouna","Lat":9.2667,"Lon":-3,"CountryCode":null},{"ID":6549,"Name":"Boundiali","Lat":9.5167,"Lon":-6.4833,"CountryCode":null},{"ID":29504,"Name":"Brofodoume","Lat":5.5167,"Lon":-3.9333,"CountryCode":null},{"ID":1079,"Name":"Cocody","Lat":5.35,"Lon":-3.9667,"CountryCode":null},{"ID":7551,"Name":"Dabakala","Lat":8.3667,"Lon":-4.4333,"CountryCode":null},{"ID":4573,"Name":"Dabou","Lat":5.3167,"Lon":-4.3833,"CountryCode":null},{"ID":1701,"Name":"Daloa","Lat":6.8833,"Lon":-6.45,"CountryCode":null},{"ID":6085,"Name":"Daoukro","Lat":7.05,"Lon":-3.9667,"CountryCode":null},{"ID":8365,"Name":"Dimbokro","Lat":6.65,"Lon":-4.7,"CountryCode":null},{"ID":3621,"Name":"Divo","Lat":5.8333,"Lon":-5.3667,"CountryCode":null},{"ID":30904,"Name":"Doukouya","Lat":6.4333,"Lon":-5.55,"CountryCode":null},{"ID":3021,"Name":"Duekoue","Lat":6.7333,"Lon":-7.35,"CountryCode":null},{"ID":4006,"Name":"Ferkessedougou","Lat":9.5833,"Lon":-5.2,"CountryCode":null},{"ID":2463,"Name":"Gagnoa","Lat":6.1333,"Lon":-5.9333,"CountryCode":null},{"ID":5016,"Name":"Grand-Bassam","Lat":5.2,"Lon":-3.7333,"CountryCode":null},{"ID":7648,"Name":"Grand-Lahou","Lat":5.1333,"Lon":-5.0167,"CountryCode":null},{"ID":9125,"Name":"Guiglo","Lat":6.55,"Lon":-7.4833,"CountryCode":null},{"ID":16508,"Name":"Jacqueville","Lat":5.2,"Lon":-4.4167,"CountryCode":null},{"ID":6674,"Name":"Katiola","Lat":8.1333,"Lon":-5.1,"CountryCode":null},{"ID":16058,"Name":"Kong","Lat":9.15,"Lon":-4.6167,"CountryCode":null},{"ID":2404,"Name":"Korhogo","Lat":9.4167,"Lon":-5.6167,"CountryCode":null},{"ID":1750,"Name":"Koumassi","Lat":5.3,"Lon":-3.95,"CountryCode":null},{"ID":25035,"Name":"Luenoufla","Lat":7.0667,"Lon":-6.25,"CountryCode":null},{"ID":26872,"Name":"Mabehiri","Lat":5.6833,"Lon":-6.4167,"CountryCode":null},{"ID":2782,"Name":"Man","Lat":7.4,"Lon":-7.55,"CountryCode":null},{"ID":7953,"Name":"Mankono","Lat":8.05,"Lon":-6.1833,"CountryCode":null},{"ID":3104,"Name":"Marcory","Lat":5.3,"Lon":-3.9833,"CountryCode":null},{"ID":32250,"Name":"Mignoure","Lat":7.4833,"Lon":-6.7833,"CountryCode":null},{"ID":31449,"Name":"Minignan","Lat":10,"Lon":-7.8333,"CountryCode":null},{"ID":18676,"Name":"Noe","Lat":5.2833,"Lon":-2.8,"CountryCode":null},{"ID":6973,"Name":"Odienne","Lat":9.5,"Lon":-7.5667,"CountryCode":null},{"ID":2590,"Name":"Oume","Lat":6.3833,"Lon":-5.4167,"CountryCode":null},{"ID":45057,"Name":"Papara","Lat":10.6167,"Lon":-6.25,"CountryCode":null},{"ID":27228,"Name":"Para","Lat":5.5167,"Lon":-7.3333,"CountryCode":null},{"ID":32140,"Name":"Pelezi","Lat":7.2833,"Lon":-6.8333,"CountryCode":null},{"ID":1210,"Name":"Port-Bouet","Lat":5.2667,"Lon":-3.9,"CountryCode":null},{"ID":16309,"Name":"Rubino","Lat":6.0667,"Lon":-4.3167,"CountryCode":null},{"ID":1829,"Name":"San-Pedro","Lat":4.75,"Lon":-6.6333,"CountryCode":null},{"ID":6851,"Name":"Sassandra","Lat":4.95,"Lon":-6.0833,"CountryCode":null},{"ID":8701,"Name":"Seguela","Lat":7.9667,"Lon":-6.6667,"CountryCode":null},{"ID":4603,"Name":"Sinfra","Lat":6.85,"Lon":-5.9167,"CountryCode":null},{"ID":22486,"Name":"Sipilou","Lat":7.8667,"Lon":-8.1,"CountryCode":null},{"ID":2492,"Name":"Soubre","Lat":5.7833,"Lon":-6.6,"CountryCode":null},{"ID":10383,"Name":"Touba","Lat":8.2833,"Lon":-7.6833,"CountryCode":null},{"ID":13973,"Name":"Toumodi","Lat":6.552,"Lon":-5.019,"CountryCode":null},{"ID":15716,"Name":"Toumoukro","Lat":10.3833,"Lon":-5.75,"CountryCode":null},{"ID":24564,"Name":"Yabayo","Lat":5.95,"Lon":-6.6,"CountryCode":null},{"ID":14555,"Name":"Yamoussoukro","Lat":6.8161,"Lon":-5.2742,"CountryCode":null},{"ID":498,"Name":"Yopougon","Lat":5.3167,"Lon":-4.0667,"CountryCode":null},{"ID":23825,"Name":"Zaliohouan","Lat":6.7833,"Lon":-6.2333,"CountryCode":null}]