[{"ID":26708,"Name":"Abangaritos","Lat":10.2492,"Lon":-85.0268,"CountryCode":null},{"ID":24419,"Name":"Aguas Zarcas","Lat":10.4223,"Lon":-84.3554,"CountryCode":null},{"ID":11600,"Name":"Alajuela","Lat":10.164,"Lon":-84.2645,"CountryCode":null},{"ID":36173,"Name":"Alajuelita","Lat":9.9035,"Lon":-84.0996,"CountryCode":null},{"ID":25138,"Name":"Bagaces","Lat":10.5157,"Lon":-85.2478,"CountryCode":null},{"ID":28540,"Name":"Batan","Lat":10.1041,"Lon":-83.3529,"CountryCode":null},{"ID":17866,"Name":"Buenos Aires","Lat":9.1985,"Lon":-83.2816,"CountryCode":null},{"ID":19688,"Name":"Canas","Lat":10.4457,"Lon":-85.0992,"CountryCode":null},{"ID":42860,"Name":"Canoas","Lat":8.5333,"Lon":-82.8333,"CountryCode":null},{"ID":15725,"Name":"Cariari","Lat":10.4349,"Lon":-83.6851,"CountryCode":null},{"ID":43810,"Name":"Carrillos","Lat":10.0369,"Lon":-84.274,"CountryCode":null},{"ID":22224,"Name":"Cartago","Lat":9.8667,"Lon":-83.9167,"CountryCode":null},{"ID":46387,"Name":"Ciudad Cortes","Lat":9.0221,"Lon":-83.5751,"CountryCode":null},{"ID":27456,"Name":"Colon","Lat":9.9096,"Lon":-84.262,"CountryCode":null},{"ID":32881,"Name":"Copalchi","Lat":9.8473,"Lon":-84.0834,"CountryCode":null},{"ID":14152,"Name":"Coto Brus","Lat":8.889,"Lon":-82.9092,"CountryCode":null},{"ID":18204,"Name":"Curridabat","Lat":9.916,"Lon":-84.0348,"CountryCode":null},{"ID":19753,"Name":"Desamparados","Lat":10.0315,"Lon":-84.1877,"CountryCode":null},{"ID":15864,"Name":"Desamparados","Lat":9.8967,"Lon":-84.0706,"CountryCode":null},{"ID":42249,"Name":"Dulce Nombre de Jesus","Lat":10.0838,"Lon":-83.981,"CountryCode":null},{"ID":36185,"Name":"Escazu","Lat":9.916,"Lon":-84.1459,"CountryCode":null},{"ID":18284,"Name":"Esparza","Lat":9.9959,"Lon":-84.6467,"CountryCode":null},{"ID":30414,"Name":"Florencia","Lat":10.3665,"Lon":-84.4814,"CountryCode":null},{"ID":30106,"Name":"Fortuna","Lat":10.4483,"Lon":-84.6421,"CountryCode":null},{"ID":37715,"Name":"Golfito","Lat":8.6526,"Lon":-83.1733,"CountryCode":null},{"ID":30934,"Name":"Grecia","Lat":10.0693,"Lon":-84.3136,"CountryCode":null},{"ID":24471,"Name":"Guacima","Lat":9.9613,"Lon":-84.2588,"CountryCode":null},{"ID":13273,"Name":"Guacimo","Lat":10.2025,"Lon":-83.6223,"CountryCode":null},{"ID":24019,"Name":"Guadalupe","Lat":9.9494,"Lon":-84.0512,"CountryCode":null},{"ID":14816,"Name":"Guapiles","Lat":10.207,"Lon":-83.8581,"CountryCode":null},{"ID":25708,"Name":"Heredia","Lat":9.9985,"Lon":-84.1169,"CountryCode":null},{"ID":21006,"Name":"Horquetas","Lat":10.3195,"Lon":-83.9647,"CountryCode":null},{"ID":36820,"Name":"Jaco","Lat":9.62,"Lon":-84.6044,"CountryCode":null},{"ID":39791,"Name":"Jimenez","Lat":10.1797,"Lon":-83.7382,"CountryCode":null},{"ID":43920,"Name":"La Cruz","Lat":11.0845,"Lon":-85.6436,"CountryCode":null},{"ID":16749,"Name":"La Uruca","Lat":9.9575,"Lon":-84.1327,"CountryCode":null},{"ID":39735,"Name":"La Virgen","Lat":10.4312,"Lon":-84.0772,"CountryCode":null},{"ID":10638,"Name":"Liberia","Lat":10.6333,"Lon":-85.4333,"CountryCode":null},{"ID":33592,"Name":"Los Chiles","Lat":10.9639,"Lon":-84.599,"CountryCode":null},{"ID":14394,"Name":"Matina","Lat":10.0099,"Lon":-83.3096,"CountryCode":null},{"ID":34233,"Name":"Matinilla","Lat":9.9246,"Lon":-84.0713,"CountryCode":null},{"ID":10078,"Name":"Mora","Lat":10.0088,"Lon":-84.0216,"CountryCode":null},{"ID":38135,"Name":"Nandayure","Lat":9.9014,"Lon":-85.3036,"CountryCode":null},{"ID":12853,"Name":"Naranjo","Lat":10.1053,"Lon":-84.3885,"CountryCode":null},{"ID":11098,"Name":"Nicoya","Lat":10.1024,"Lon":-85.4431,"CountryCode":null},{"ID":42506,"Name":"Orotina","Lat":9.9024,"Lon":-84.525,"CountryCode":null},{"ID":45446,"Name":"Pacuarito","Lat":10.1093,"Lon":-83.4091,"CountryCode":null},{"ID":13109,"Name":"Palmares","Lat":10.0466,"Lon":-84.4373,"CountryCode":null},{"ID":24080,"Name":"Paraiso","Lat":9.8432,"Lon":-83.8463,"CountryCode":null},{"ID":29088,"Name":"Parrita","Lat":9.5471,"Lon":-84.3464,"CountryCode":null},{"ID":36314,"Name":"Patarra","Lat":9.8637,"Lon":-84.0248,"CountryCode":null},{"ID":27563,"Name":"Pital","Lat":10.6024,"Lon":-84.2474,"CountryCode":null},{"ID":17988,"Name":"Poas","Lat":10.106,"Lon":-84.2475,"CountryCode":null},{"ID":29833,"Name":"Pozos","Lat":9.9536,"Lon":-84.1926,"CountryCode":null},{"ID":39637,"Name":"Puente de Piedra","Lat":10.0298,"Lon":-84.3332,"CountryCode":null},{"ID":34418,"Name":"Puerto Jimenez","Lat":8.5338,"Lon":-83.461,"CountryCode":null},{"ID":9505,"Name":"Puerto Limon","Lat":10.0022,"Lon":-83.084,"CountryCode":null},{"ID":24468,"Name":"Puerto Viejo","Lat":10.5737,"Lon":-83.9548,"CountryCode":null},{"ID":13198,"Name":"Puntarenas","Lat":9.9667,"Lon":-84.8333,"CountryCode":null},{"ID":18948,"Name":"Purral","Lat":9.9594,"Lon":-84.0165,"CountryCode":null},{"ID":24845,"Name":"Quepos","Lat":9.4571,"Lon":-84.1387,"CountryCode":null},{"ID":13039,"Name":"Quesada","Lat":10.3441,"Lon":-84.4199,"CountryCode":null},{"ID":38237,"Name":"Rio Cuarto","Lat":10.4076,"Lon":-84.2135,"CountryCode":null},{"ID":45504,"Name":"Rio Jimenez","Lat":10.2556,"Lon":-83.5629,"CountryCode":null},{"ID":39006,"Name":"Rio Segundo","Lat":10.0013,"Lon":-84.1937,"CountryCode":null},{"ID":21230,"Name":"Rita","Lat":10.4337,"Lon":-83.753,"CountryCode":null},{"ID":28242,"Name":"Roxana","Lat":10.3586,"Lon":-83.6738,"CountryCode":null},{"ID":38519,"Name":"Sabalito","Lat":8.8828,"Lon":-82.8314,"CountryCode":null},{"ID":41652,"Name":"San Antonio","Lat":9.9781,"Lon":-84.1879,"CountryCode":null},{"ID":24445,"Name":"San Francisco","Lat":9.9083,"Lon":-84.0582,"CountryCode":null},{"ID":44492,"Name":"San Ignacio","Lat":9.7997,"Lon":-84.163,"CountryCode":null},{"ID":24043,"Name":"San Isidro","Lat":10.0299,"Lon":-84.0431,"CountryCode":null},{"ID":28431,"Name":"San Isidro","Lat":9.9737,"Lon":-83.9861,"CountryCode":null},{"ID":12228,"Name":"San Isidro","Lat":9.3403,"Lon":-83.7338,"CountryCode":null},{"ID":507,"Name":"San Jose","Lat":9.9325,"Lon":-84.08,"CountryCode":null},{"ID":39778,"Name":"San Josecito","Lat":9.8885,"Lon":-84.1055,"CountryCode":null},{"ID":37053,"Name":"San Josecito","Lat":10.0126,"Lon":-84.1119,"CountryCode":null},{"ID":19928,"Name":"San Juan","Lat":9.9609,"Lon":-84.0731,"CountryCode":null},{"ID":25179,"Name":"San Juan de Dios","Lat":9.88,"Lon":-84.0914,"CountryCode":null},{"ID":3925,"Name":"San Marcos","Lat":10.6204,"Lon":-84.512,"CountryCode":null},{"ID":41473,"Name":"San Marcos","Lat":9.6703,"Lon":-84.0092,"CountryCode":null},{"ID":18819,"Name":"San Pablo","Lat":9.9918,"Lon":-84.0937,"CountryCode":null},{"ID":21282,"Name":"San Pedro","Lat":9.9332,"Lon":-84.047,"CountryCode":null},{"ID":12090,"Name":"San Rafael","Lat":10.0417,"Lon":-84.075,"CountryCode":null},{"ID":21798,"Name":"San Rafael Abajo","Lat":9.8943,"Lon":-84.0837,"CountryCode":null},{"ID":30255,"Name":"San Rafael Arriba","Lat":9.8778,"Lon":-84.0708,"CountryCode":null},{"ID":7373,"Name":"San Ramon","Lat":10.2182,"Lon":-84.5992,"CountryCode":null},{"ID":17076,"Name":"San Vicente","Lat":9.9636,"Lon":-84.0454,"CountryCode":null},{"ID":30966,"Name":"San Vito","Lat":8.84,"Lon":-82.9784,"CountryCode":null},{"ID":34192,"Name":"Santa Ana","Lat":9.932,"Lon":-84.176,"CountryCode":null},{"ID":10360,"Name":"Santa Cruz","Lat":10.2358,"Lon":-85.6408,"CountryCode":null},{"ID":34882,"Name":"Santiago","Lat":9.8291,"Lon":-84.3044,"CountryCode":null},{"ID":13639,"Name":"Santo Domingo","Lat":9.988,"Lon":-84.0686,"CountryCode":null},{"ID":10032,"Name":"Sarapiqui","Lat":10.4853,"Lon":-83.9362,"CountryCode":null},{"ID":30859,"Name":"Sardinal","Lat":10.5343,"Lon":-85.6955,"CountryCode":null},{"ID":24323,"Name":"Sartalillo","Lat":9.9759,"Lon":-84.0232,"CountryCode":null},{"ID":16785,"Name":"Siquirres","Lat":10.0901,"Lon":-83.5016,"CountryCode":null},{"ID":36468,"Name":"Sixaola","Lat":9.5579,"Lon":-82.6698,"CountryCode":null},{"ID":45727,"Name":"Tilaran","Lat":10.4709,"Lon":-84.9674,"CountryCode":null},{"ID":43485,"Name":"Tres Rios","Lat":9.9072,"Lon":-83.9865,"CountryCode":null},{"ID":19382,"Name":"Turrialba","Lat":9.8897,"Lon":-83.6807,"CountryCode":null},{"ID":29052,"Name":"Upala","Lat":10.8645,"Lon":-84.9942,"CountryCode":null},{"ID":42571,"Name":"Venecia","Lat":10.3357,"Lon":-84.2859,"CountryCode":null},{"ID":26007,"Name":"Zapote","Lat":9.9203,"Lon":-84.0592,"CountryCode":null}]