[{"ID":14305,"Name":"Ali Sabieh","Lat":11.15,"Lon":42.7167,"CountryCode":null},{"ID":7820,"Name":"Arta","Lat":11.5236,"Lon":42.8472,"CountryCode":null},{"ID":15382,"Name":"Dikhil","Lat":11.1167,"Lon":42.3667,"CountryCode":null},{"ID":1244,"Name":"Djibouti","Lat":11.5883,"Lon":43.145,"CountryCode":null},{"ID":23523,"Name":"Obock","Lat":11.9667,"Lon":43.2833,"CountryCode":null},{"ID":30989,"Name":"Tadjourah","Lat":11.7833,"Lon":42.8833,"CountryCode":null},{"ID":26773,"Name":"Yoboki","Lat":11.5167,"Lon":42.1,"CountryCode":null}]