[{"ID":25822,"Name":"Altamira","Lat":19.6667,"Lon":-70.8333,"CountryCode":null},{"ID":32197,"Name":"Arenoso","Lat":19.18,"Lon":-69.85,"CountryCode":null},{"ID":6565,"Name":"Azua","Lat":18.46,"Lon":-70.74,"CountryCode":null},{"ID":36625,"Name":"Baitoa","Lat":19.32,"Lon":-70.7,"CountryCode":null},{"ID":5030,"Name":"Bajos de Haina","Lat":18.4167,"Lon":-70.0333,"CountryCode":null},{"ID":4377,"Name":"Bani","Lat":18.29,"Lon":-70.33,"CountryCode":null},{"ID":7161,"Name":"Barahona","Lat":18.2,"Lon":-71.1,"CountryCode":null},{"ID":4260,"Name":"Bavaro","Lat":18.7167,"Lon":-68.45,"CountryCode":null},{"ID":16674,"Name":"Bayaguana","Lat":18.75,"Lon":-69.6333,"CountryCode":null},{"ID":4473,"Name":"Boca Chica","Lat":18.4539,"Lon":-69.6064,"CountryCode":null},{"ID":42432,"Name":"Bohechio","Lat":18.77,"Lon":-70.98,"CountryCode":null},{"ID":4985,"Name":"Bonao","Lat":18.95,"Lon":-70.41,"CountryCode":null},{"ID":31329,"Name":"Cabarete","Lat":19.7511,"Lon":-70.4083,"CountryCode":null},{"ID":30986,"Name":"Cabral","Lat":18.25,"Lon":-71.2167,"CountryCode":null},{"ID":21108,"Name":"Cabrera","Lat":19.63,"Lon":-69.9,"CountryCode":null},{"ID":17049,"Name":"Cambita Garabitos","Lat":18.45,"Lon":-70.2,"CountryCode":null},{"ID":30843,"Name":"Castanuelas","Lat":19.7,"Lon":-71.5,"CountryCode":null},{"ID":29679,"Name":"Castillo","Lat":19.22,"Lon":-70.03,"CountryCode":null},{"ID":28650,"Name":"Cayetano Germosen","Lat":19.33,"Lon":-70.48,"CountryCode":null},{"ID":26928,"Name":"Cenovi","Lat":19.25,"Lon":-70.37,"CountryCode":null},{"ID":23856,"Name":"Cercado Abajo","Lat":18.73,"Lon":-71.52,"CountryCode":null},{"ID":34906,"Name":"Cevicos","Lat":19,"Lon":-69.98,"CountryCode":null},{"ID":12594,"Name":"Comendador","Lat":18.8833,"Lon":-71.7,"CountryCode":null},{"ID":9745,"Name":"Constanza","Lat":18.91,"Lon":-70.75,"CountryCode":null},{"ID":9597,"Name":"Consuelito","Lat":18.56,"Lon":-69.3,"CountryCode":null},{"ID":7729,"Name":"Cotui","Lat":19.06,"Lon":-70.15,"CountryCode":null},{"ID":18604,"Name":"Dajabon","Lat":19.5667,"Lon":-71.71,"CountryCode":null},{"ID":32893,"Name":"Duverge","Lat":18.38,"Lon":-71.3633,"CountryCode":null},{"ID":42872,"Name":"El Cacao","Lat":18.5264,"Lon":-70.2954,"CountryCode":null},{"ID":21088,"Name":"El Factor","Lat":19.32,"Lon":-69.88,"CountryCode":null},{"ID":8742,"Name":"El Seibo","Lat":18.763,"Lon":-69.042,"CountryCode":null},{"ID":45105,"Name":"El Valle","Lat":18.9764,"Lon":-69.3792,"CountryCode":null},{"ID":40544,"Name":"Enriquillo","Lat":17.9,"Lon":-71.2333,"CountryCode":null},{"ID":23793,"Name":"Esperalvillo","Lat":18.82,"Lon":-70.03,"CountryCode":null},{"ID":8323,"Name":"Esperanza","Lat":19.58,"Lon":-70.99,"CountryCode":null},{"ID":22727,"Name":"Fantino","Lat":19.12,"Lon":-70.3,"CountryCode":null},{"ID":29471,"Name":"Galvan","Lat":18.5039,"Lon":-71.34,"CountryCode":null},{"ID":14338,"Name":"Gaspar Hernandez","Lat":19.62,"Lon":-70.28,"CountryCode":null},{"ID":14322,"Name":"Guayacanes","Lat":18.4533,"Lon":-69.45,"CountryCode":null},{"ID":28514,"Name":"Guaymate","Lat":18.58,"Lon":-68.98,"CountryCode":null},{"ID":9669,"Name":"Guerra","Lat":18.55,"Lon":-69.7,"CountryCode":null},{"ID":4955,"Name":"Gurabo al Medio","Lat":19.4739,"Lon":-70.6727,"CountryCode":null},{"ID":9395,"Name":"Hato Mayor","Lat":18.7667,"Lon":-69.25,"CountryCode":null},{"ID":2672,"Name":"Higuey","Lat":18.6167,"Lon":-68.7,"CountryCode":null},{"ID":22782,"Name":"Imbert","Lat":19.75,"Lon":-70.83,"CountryCode":null},{"ID":30099,"Name":"Jamao al Norte","Lat":19.65,"Lon":-70.6167,"CountryCode":null},{"ID":8559,"Name":"Jarabacoa","Lat":19.1167,"Lon":-70.6333,"CountryCode":null},{"ID":23912,"Name":"Jicome","Lat":19.65,"Lon":-70.95,"CountryCode":null},{"ID":17417,"Name":"Jima Abajo","Lat":19.13,"Lon":-70.38,"CountryCode":null},{"ID":37447,"Name":"Jimani","Lat":18.49,"Lon":-71.85,"CountryCode":null},{"ID":34180,"Name":"Juan de Herrera","Lat":18.8667,"Lon":-71.2333,"CountryCode":null},{"ID":11934,"Name":"La Caleta","Lat":18.4639,"Lon":-69.6806,"CountryCode":null},{"ID":12840,"Name":"La Mata","Lat":19.1,"Lon":-70.1681,"CountryCode":null},{"ID":4536,"Name":"La Romana","Lat":18.43,"Lon":-68.97,"CountryCode":null},{"ID":3029,"Name":"La Vega","Lat":19.22,"Lon":-70.53,"CountryCode":null},{"ID":21297,"Name":"Laguna Salada","Lat":19.65,"Lon":-71.0833,"CountryCode":null},{"ID":37819,"Name":"Las Charcas","Lat":18.45,"Lon":-70.62,"CountryCode":null},{"ID":31226,"Name":"Las Guaranas","Lat":19.2,"Lon":-70.22,"CountryCode":null},{"ID":12539,"Name":"Las Matas de Farfan","Lat":18.87,"Lon":-71.52,"CountryCode":null},{"ID":39632,"Name":"Las Matas de Santa Cruz","Lat":19.67,"Lon":-71.5,"CountryCode":null},{"ID":25867,"Name":"Las Terrenas","Lat":19.32,"Lon":-69.53,"CountryCode":null},{"ID":20149,"Name":"Licey al Medio","Lat":19.43,"Lon":-70.62,"CountryCode":null},{"ID":29783,"Name":"Loma de Cabrera","Lat":19.422,"Lon":-71.615,"CountryCode":null},{"ID":2491,"Name":"Los Alcarrizos","Lat":18.5167,"Lon":-70.0167,"CountryCode":null},{"ID":37969,"Name":"Los Almacigos","Lat":19.4083,"Lon":-71.4417,"CountryCode":null},{"ID":35257,"Name":"Los Bellosos","Lat":19.8333,"Lon":-71.0167,"CountryCode":null},{"ID":34796,"Name":"Los Hidalgos","Lat":19.73,"Lon":-71.03,"CountryCode":null},{"ID":22379,"Name":"Los Llanos","Lat":18.6167,"Lon":-69.5,"CountryCode":null},{"ID":5887,"Name":"Los Minas","Lat":18.5,"Lon":-69.9833,"CountryCode":null},{"ID":41576,"Name":"Los Rios","Lat":18.5219,"Lon":-71.59,"CountryCode":null},{"ID":24402,"Name":"Luperon","Lat":19.9,"Lon":-70.95,"CountryCode":null},{"ID":26034,"Name":"Maimon","Lat":18.77,"Lon":-70.33,"CountryCode":null},{"ID":43035,"Name":"Maizal","Lat":19.65,"Lon":-71.03,"CountryCode":null},{"ID":7702,"Name":"Mao","Lat":19.5667,"Lon":-71.0833,"CountryCode":null},{"ID":15199,"Name":"Matanzas","Lat":18.2428,"Lon":-70.4192,"CountryCode":null},{"ID":23883,"Name":"Miches","Lat":18.98,"Lon":-69.05,"CountryCode":null},{"ID":6433,"Name":"Moca","Lat":19.3833,"Lon":-70.5167,"CountryCode":null},{"ID":36687,"Name":"Moncion","Lat":19.4167,"Lon":-71.1667,"CountryCode":null},{"ID":20775,"Name":"Monte Cristi","Lat":19.8667,"Lon":-71.65,"CountryCode":null},{"ID":9964,"Name":"Monte Plata","Lat":18.81,"Lon":-69.79,"CountryCode":null},{"ID":7697,"Name":"Nagua","Lat":19.38,"Lon":-69.85,"CountryCode":null},{"ID":14801,"Name":"Neiba","Lat":18.49,"Lon":-71.42,"CountryCode":null},{"ID":19170,"Name":"Nizao","Lat":18.2441,"Lon":-70.1984,"CountryCode":null},{"ID":13495,"Name":"Padre Las Casas","Lat":18.7333,"Lon":-70.9333,"CountryCode":null},{"ID":4555,"Name":"Pantanal","Lat":18.5333,"Lon":-68.3667,"CountryCode":null},{"ID":31527,"Name":"Paraiso","Lat":18,"Lon":-71.1667,"CountryCode":null},{"ID":32657,"Name":"Pedernales","Lat":18.0333,"Lon":-71.75,"CountryCode":null},{"ID":7966,"Name":"Pedro Brand","Lat":18.5667,"Lon":-70.0911,"CountryCode":null},{"ID":44108,"Name":"Pepillo Salcedo","Lat":19.7,"Lon":-71.75,"CountryCode":null},{"ID":45996,"Name":"Peralta","Lat":18.5167,"Lon":-70.7833,"CountryCode":null},{"ID":23770,"Name":"Piedra Blanca","Lat":18.8438,"Lon":-70.3157,"CountryCode":null},{"ID":26921,"Name":"Pimentel","Lat":19.1833,"Lon":-70.1,"CountryCode":null},{"ID":37841,"Name":"Pueblo Viejo","Lat":18.4,"Lon":-70.7667,"CountryCode":null},{"ID":2194,"Name":"Puerto Plata","Lat":19.8,"Lon":-70.6833,"CountryCode":null},{"ID":11969,"Name":"Punal","Lat":19.4,"Lon":-70.6167,"CountryCode":null},{"ID":20620,"Name":"Quisqueya","Lat":18.5542,"Lon":-69.4056,"CountryCode":null},{"ID":28522,"Name":"Ramon Santana","Lat":18.55,"Lon":-69.1833,"CountryCode":null},{"ID":40397,"Name":"Rancho Arriba","Lat":18.7147,"Lon":-70.4618,"CountryCode":null},{"ID":24499,"Name":"Rio Grande","Lat":19.73,"Lon":-70.8,"CountryCode":null},{"ID":30392,"Name":"Rio San Juan","Lat":19.64,"Lon":-70.08,"CountryCode":null},{"ID":15893,"Name":"Rio Verde Arriba","Lat":19.32,"Lon":-70.57,"CountryCode":null},{"ID":28872,"Name":"Sabana de La Mar","Lat":19.07,"Lon":-69.39,"CountryCode":null},{"ID":17035,"Name":"Sabana Grande de Boya","Lat":18.95,"Lon":-69.8,"CountryCode":null},{"ID":29989,"Name":"Sabana Grande de Palenque","Lat":18.2667,"Lon":-70.15,"CountryCode":null},{"ID":33418,"Name":"Sabana Iglesia","Lat":19.33,"Lon":-70.75,"CountryCode":null},{"ID":42097,"Name":"Sabana Larga","Lat":18.585,"Lon":-70.4982,"CountryCode":null},{"ID":37689,"Name":"Sabana Yegua","Lat":18.72,"Lon":-71.02,"CountryCode":null},{"ID":15566,"Name":"Sabaneta","Lat":19.4833,"Lon":-71.35,"CountryCode":null},{"ID":39670,"Name":"Sabaneta de Yasica","Lat":19.6667,"Lon":-70.3833,"CountryCode":null},{"ID":13817,"Name":"Salcedo","Lat":19.378,"Lon":-70.418,"CountryCode":null},{"ID":9879,"Name":"Samana","Lat":19.2,"Lon":-69.3167,"CountryCode":null},{"ID":2877,"Name":"San Cristobal","Lat":18.4167,"Lon":-70.1056,"CountryCode":null},{"ID":3476,"Name":"San Francisco de Macoris","Lat":19.3,"Lon":-70.25,"CountryCode":null},{"ID":17414,"Name":"San Gregorio de Nigua","Lat":18.3833,"Lon":-70.0833,"CountryCode":null},{"ID":14102,"Name":"San Jose de Las Matas","Lat":19.33,"Lon":-70.93,"CountryCode":null},{"ID":13842,"Name":"San Jose de Ocoa","Lat":18.55,"Lon":-70.5,"CountryCode":null},{"ID":4765,"Name":"San Juan","Lat":18.81,"Lon":-71.23,"CountryCode":null},{"ID":15007,"Name":"San Lorenzo de Guayubin","Lat":19.62,"Lon":-71.33,"CountryCode":null},{"ID":10073,"Name":"San Luis","Lat":18.55,"Lon":-69.7,"CountryCode":null},{"ID":3378,"Name":"San Pedro de Macoris","Lat":18.45,"Lon":-69.3,"CountryCode":null},{"ID":22877,"Name":"San Rafael del Yuma","Lat":18.4333,"Lon":-68.6667,"CountryCode":null},{"ID":23678,"Name":"San Victor Abajo","Lat":19.45,"Lon":-70.53,"CountryCode":null},{"ID":23829,"Name":"Sanchez","Lat":19.2282,"Lon":-69.6128,"CountryCode":null},{"ID":569,"Name":"Santiago","Lat":19.4572,"Lon":-70.6889,"CountryCode":null},{"ID":685,"Name":"Santo Domingo","Lat":18.4667,"Lon":-69.95,"CountryCode":null},{"ID":807,"Name":"Santo Domingo Este","Lat":18.4855,"Lon":-69.8734,"CountryCode":null},{"ID":27985,"Name":"Santo Tomas de Janico","Lat":19.4,"Lon":-70.8,"CountryCode":null},{"ID":11351,"Name":"Sosua","Lat":19.75,"Lon":-70.52,"CountryCode":null},{"ID":27139,"Name":"Tabara Arriba","Lat":18.5694,"Lon":-70.8792,"CountryCode":null},{"ID":19333,"Name":"Tamayo","Lat":18.4,"Lon":-71.2,"CountryCode":null},{"ID":10950,"Name":"Tamboril","Lat":19.48,"Lon":-70.6,"CountryCode":null},{"ID":18762,"Name":"Tenares","Lat":19.37,"Lon":-70.35,"CountryCode":null},{"ID":35270,"Name":"Vallejuelo","Lat":18.65,"Lon":-71.33,"CountryCode":null},{"ID":23178,"Name":"Vicente Noble","Lat":18.3833,"Lon":-71.1833,"CountryCode":null},{"ID":7118,"Name":"Villa Altagracia","Lat":18.6667,"Lon":-70.1667,"CountryCode":null},{"ID":13029,"Name":"Villa Bisono","Lat":19.56,"Lon":-70.87,"CountryCode":null},{"ID":14526,"Name":"Villa Gonzalez","Lat":19.5333,"Lon":-70.7833,"CountryCode":null},{"ID":27736,"Name":"Villa Isabela","Lat":19.82,"Lon":-71.05,"CountryCode":null},{"ID":39464,"Name":"Villa Jaragua","Lat":18.48,"Lon":-71.5,"CountryCode":null},{"ID":15954,"Name":"Villa Riva","Lat":19.1667,"Lon":-69.9,"CountryCode":null},{"ID":20635,"Name":"Villa Tapia","Lat":19.3,"Lon":-70.42,"CountryCode":null},{"ID":31618,"Name":"Villa Vasquez","Lat":19.74,"Lon":-71.45,"CountryCode":null},{"ID":12967,"Name":"Yaguate","Lat":18.33,"Lon":-70.18,"CountryCode":null},{"ID":10323,"Name":"Yamasa","Lat":18.7667,"Lon":-70.0167,"CountryCode":null},{"ID":21921,"Name":"Yasica Arriba","Lat":19.6333,"Lon":-70.6,"CountryCode":null},{"ID":27185,"Name":"Yayas de Viajama","Lat":18.6,"Lon":-70.92,"CountryCode":null}]