[{"ID":46563,"Name":"Alausi","Lat":-2.19,"Lon":-78.85,"CountryCode":null},{"ID":3650,"Name":"Ambato","Lat":-1.2417,"Lon":-78.6197,"CountryCode":null},{"ID":25747,"Name":"Atacames","Lat":0.8667,"Lon":-79.8333,"CountryCode":null},{"ID":20434,"Name":"Atuntaqui","Lat":0.3317,"Lon":-78.2189,"CountryCode":null},{"ID":15062,"Name":"Azogues","Lat":-2.7333,"Lon":-78.8333,"CountryCode":null},{"ID":6248,"Name":"Babahoyo","Lat":-1.8167,"Lon":-79.5167,"CountryCode":null},{"ID":22650,"Name":"Bahia de Caraquez","Lat":-0.5995,"Lon":-80.4245,"CountryCode":null},{"ID":34390,"Name":"Balao","Lat":-2.91,"Lon":-79.81,"CountryCode":null},{"ID":16323,"Name":"Balzar","Lat":-1.36,"Lon":-79.9,"CountryCode":null},{"ID":32141,"Name":"Banos","Lat":-1.3964,"Lon":-78.4247,"CountryCode":null},{"ID":35559,"Name":"Banos","Lat":-2.9,"Lon":-79.0667,"CountryCode":null},{"ID":24642,"Name":"Calceta","Lat":-0.84,"Lon":-80.17,"CountryCode":null},{"ID":22199,"Name":"Camilo Ponce Enriquez","Lat":-3.05,"Lon":-79.7333,"CountryCode":null},{"ID":33741,"Name":"Cariamanga","Lat":-4.32,"Lon":-79.56,"CountryCode":null},{"ID":19173,"Name":"Catamayo","Lat":-3.9833,"Lon":-79.35,"CountryCode":null},{"ID":12441,"Name":"Cayambe","Lat":0.0439,"Lon":-78.1561,"CountryCode":null},{"ID":10435,"Name":"Chone","Lat":-0.6833,"Lon":-80.1,"CountryCode":null},{"ID":39725,"Name":"Cotacachi","Lat":0.3,"Lon":-78.2667,"CountryCode":null},{"ID":1941,"Name":"Cuenca","Lat":-2.8974,"Lon":-79.0045,"CountryCode":null},{"ID":37380,"Name":"Cumanda","Lat":-2.2058,"Lon":-79.1339,"CountryCode":null},{"ID":3974,"Name":"Daule","Lat":-1.8667,"Lon":-79.9833,"CountryCode":null},{"ID":2338,"Name":"Eloy Alfaro","Lat":-2.1733,"Lon":-79.8311,"CountryCode":null},{"ID":4112,"Name":"Esmeraldas","Lat":0.9667,"Lon":-79.6528,"CountryCode":null},{"ID":22690,"Name":"Guabo","Lat":-3.2388,"Lon":-79.8292,"CountryCode":null},{"ID":44042,"Name":"Gualaquiza","Lat":-3.38,"Lon":-78.58,"CountryCode":null},{"ID":44109,"Name":"Guano","Lat":-1.5833,"Lon":-78.6333,"CountryCode":null},{"ID":17192,"Name":"Guaranda","Lat":-1.6,"Lon":-79,"CountryCode":null},{"ID":302,"Name":"Guayaquil","Lat":-2.19,"Lon":-79.8875,"CountryCode":null},{"ID":10212,"Name":"Huaquillas","Lat":-3.4814,"Lon":-80.2432,"CountryCode":null},{"ID":4056,"Name":"Ibarra","Lat":0.3627,"Lon":-78.1307,"CountryCode":null},{"ID":18415,"Name":"Jaramijo","Lat":-0.9487,"Lon":-80.6363,"CountryCode":null},{"ID":12221,"Name":"Jipijapa","Lat":-1.3486,"Lon":-80.5786,"CountryCode":null},{"ID":15171,"Name":"La Concordia","Lat":-0.0067,"Lon":-79.3958,"CountryCode":null},{"ID":5533,"Name":"La Libertad","Lat":-2.2333,"Lon":-80.9,"CountryCode":null},{"ID":16741,"Name":"La Mana","Lat":-0.93,"Lon":-79.22,"CountryCode":null},{"ID":13806,"Name":"La Troncal","Lat":-2.4,"Lon":-79.33,"CountryCode":null},{"ID":7664,"Name":"Latacunga","Lat":-0.9319,"Lon":-78.6161,"CountryCode":null},{"ID":3249,"Name":"Loja","Lat":-3.9833,"Lon":-79.2,"CountryCode":null},{"ID":28465,"Name":"Lomas de Sargentillo","Lat":-1.8833,"Lon":-80.0833,"CountryCode":null},{"ID":35189,"Name":"Macara","Lat":-4.3833,"Lon":-79.95,"CountryCode":null},{"ID":22498,"Name":"Macas","Lat":-2.3667,"Lon":-78.1333,"CountryCode":null},{"ID":21140,"Name":"Machachi","Lat":-0.51,"Lon":-78.57,"CountryCode":null},{"ID":2387,"Name":"Machala","Lat":-3.2667,"Lon":-79.9667,"CountryCode":null},{"ID":2604,"Name":"Manta","Lat":-0.95,"Lon":-80.7162,"CountryCode":null},{"ID":4020,"Name":"Milagro","Lat":-2.1347,"Lon":-79.5872,"CountryCode":null},{"ID":28897,"Name":"Montalvo","Lat":-1.79,"Lon":-79.2875,"CountryCode":null},{"ID":8274,"Name":"Montecristi","Lat":-1.05,"Lon":-80.6667,"CountryCode":null},{"ID":46614,"Name":"Muisne","Lat":0.6108,"Lon":-80.0186,"CountryCode":null},{"ID":13881,"Name":"Naranjal","Lat":-2.6736,"Lon":-79.6183,"CountryCode":null},{"ID":15524,"Name":"Naranjito","Lat":-2.1667,"Lon":-79.4653,"CountryCode":null},{"ID":10269,"Name":"Nueva Loja","Lat":0.0847,"Lon":-76.8828,"CountryCode":null},{"ID":13139,"Name":"Otavalo","Lat":0.2303,"Lon":-78.2625,"CountryCode":null},{"ID":40106,"Name":"Palestina","Lat":-1.6263,"Lon":-79.977,"CountryCode":null},{"ID":9571,"Name":"Pasaje","Lat":-3.3269,"Lon":-79.8049,"CountryCode":null},{"ID":19142,"Name":"Pedernales","Lat":0.07,"Lon":-80.055,"CountryCode":null},{"ID":20625,"Name":"Pedro Carbo","Lat":-1.8179,"Lon":-80.233,"CountryCode":null},{"ID":37469,"Name":"Pelileo","Lat":-1.3306,"Lon":-78.5428,"CountryCode":null},{"ID":41273,"Name":"Piedrahita","Lat":-1.9167,"Lon":-80.0115,"CountryCode":null},{"ID":42023,"Name":"Pillaro","Lat":-1.1667,"Lon":-78.5333,"CountryCode":null},{"ID":26230,"Name":"Pinas","Lat":-3.6806,"Lon":-79.6806,"CountryCode":null},{"ID":11634,"Name":"Playas","Lat":-2.63,"Lon":-80.39,"CountryCode":null},{"ID":2753,"Name":"Portoviejo","Lat":-1.0561,"Lon":-80.4553,"CountryCode":null},{"ID":34681,"Name":"Puerto Ayora","Lat":-0.75,"Lon":-90.3167,"CountryCode":null},{"ID":46445,"Name":"Puerto Baquerizo Moreno","Lat":-0.9025,"Lon":-89.6092,"CountryCode":null},{"ID":11016,"Name":"Puerto Francisco de Orellana","Lat":-0.4625,"Lon":-76.9842,"CountryCode":null},{"ID":34885,"Name":"Puerto Lopez","Lat":-1.5589,"Lon":-80.8106,"CountryCode":null},{"ID":24243,"Name":"Puerto Quito","Lat":0.1272,"Lon":-79.2531,"CountryCode":null},{"ID":47046,"Name":"Puerto Villamil","Lat":-0.9568,"Lon":-90.9672,"CountryCode":null},{"ID":29023,"Name":"Pujili","Lat":-0.95,"Lon":-78.69,"CountryCode":null},{"ID":16085,"Name":"Puyo","Lat":-1.4861,"Lon":-78.0028,"CountryCode":null},{"ID":3640,"Name":"Quevedo","Lat":-1.0333,"Lon":-79.45,"CountryCode":null},{"ID":458,"Name":"Quito","Lat":-0.22,"Lon":-78.5125,"CountryCode":null},{"ID":32285,"Name":"Ricaurte","Lat":-2.8667,"Lon":-78.9333,"CountryCode":null},{"ID":3652,"Name":"Riobamba","Lat":-1.6731,"Lon":-78.6483,"CountryCode":null},{"ID":39584,"Name":"Rocafuerte","Lat":-0.9236,"Lon":-80.4495,"CountryCode":null},{"ID":17020,"Name":"Rosa Zarate","Lat":0.33,"Lon":-79.48,"CountryCode":null},{"ID":15337,"Name":"Salinas","Lat":-2.2167,"Lon":-80.9501,"CountryCode":null},{"ID":8124,"Name":"Samborondon","Lat":-2.1833,"Lon":-79.8833,"CountryCode":null},{"ID":27341,"Name":"San Antonio de Ibarra","Lat":0.3627,"Lon":-78.1307,"CountryCode":null},{"ID":31492,"Name":"San Gabriel","Lat":0.5983,"Lon":-77.8353,"CountryCode":null},{"ID":11910,"Name":"San Jacinto de Buena Fe","Lat":-0.8986,"Lon":-79.4889,"CountryCode":null},{"ID":18372,"Name":"San Lorenzo de Esmeraldas","Lat":1.2864,"Lon":-78.8353,"CountryCode":null},{"ID":45265,"Name":"San Miguel","Lat":-1.7,"Lon":-79.0333,"CountryCode":null},{"ID":28287,"Name":"San Miguel de Salcedo","Lat":-1.05,"Lon":-78.5833,"CountryCode":null},{"ID":42020,"Name":"San Vicente","Lat":-1.9,"Lon":-79.2333,"CountryCode":null},{"ID":6331,"Name":"Sangolqui","Lat":-0.3344,"Lon":-78.4475,"CountryCode":null},{"ID":37768,"Name":"Santa Cruz","Lat":-0.5333,"Lon":-90.35,"CountryCode":null},{"ID":10444,"Name":"Santa Elena","Lat":-2.2267,"Lon":-80.8583,"CountryCode":null},{"ID":10090,"Name":"Santa Rosa","Lat":-3.4522,"Lon":-79.9617,"CountryCode":null},{"ID":2088,"Name":"Santo Domingo de los Colorados","Lat":-0.2542,"Lon":-79.1719,"CountryCode":null},{"ID":41817,"Name":"Saquisili","Lat":-0.83,"Lon":-78.67,"CountryCode":null},{"ID":45660,"Name":"Simon Bolivar","Lat":-2.0025,"Lon":-79.4856,"CountryCode":null},{"ID":34771,"Name":"Sinincay","Lat":-2.8333,"Lon":-79,"CountryCode":null},{"ID":38882,"Name":"Sucua","Lat":-2.46,"Lon":-78.17,"CountryCode":null},{"ID":17727,"Name":"Tena","Lat":-0.989,"Lon":-77.8159,"CountryCode":null},{"ID":37661,"Name":"Tosagua","Lat":-0.78,"Lon":-80.26,"CountryCode":null},{"ID":10103,"Name":"Tulcan","Lat":0.8117,"Lon":-77.7186,"CountryCode":null},{"ID":46693,"Name":"Valdez","Lat":1.25,"Lon":-79,"CountryCode":null},{"ID":22036,"Name":"Valencia","Lat":-0.9525,"Lon":-79.3531,"CountryCode":null},{"ID":25998,"Name":"Valle","Lat":-2.95,"Lon":-78.9833,"CountryCode":null},{"ID":13120,"Name":"Velasco Ibarra","Lat":-1.0439,"Lon":-79.6383,"CountryCode":null},{"ID":13196,"Name":"Ventanas","Lat":-1.45,"Lon":-79.47,"CountryCode":null},{"ID":15339,"Name":"Vinces","Lat":-1.55,"Lon":-79.7333,"CountryCode":null},{"ID":22054,"Name":"Yaguachi Nuevo","Lat":-2.12,"Lon":-79.69,"CountryCode":null},{"ID":33443,"Name":"Yantzaza","Lat":-3.85,"Lon":-78.75,"CountryCode":null},{"ID":47452,"Name":"Yaupi","Lat":-2.8379,"Lon":-77.9357,"CountryCode":null},{"ID":27234,"Name":"Zamora","Lat":-4.0692,"Lon":-78.9567,"CountryCode":null},{"ID":41287,"Name":"Zaruma","Lat":-3.6833,"Lon":-79.6,"CountryCode":null},{"ID":36372,"Name":"Zumbagua","Lat":-0.9558,"Lon":-78.9017,"CountryCode":null}]