[{"ID":33134,"Name":"`Alem T'ena","Lat":8.3,"Lon":38.95,"CountryCode":null},{"ID":15726,"Name":"Abiy Adi","Lat":13.6231,"Lon":39.0017,"CountryCode":null},{"ID":25441,"Name":"Abomsa","Lat":8.5833,"Lon":39.85,"CountryCode":null},{"ID":44434,"Name":"Adami Tulu","Lat":7.8667,"Lon":38.7,"CountryCode":null},{"ID":254,"Name":"Addis Ababa","Lat":9.03,"Lon":38.74,"CountryCode":null},{"ID":23590,"Name":"Adet","Lat":11.2667,"Lon":37.4833,"CountryCode":null},{"ID":7381,"Name":"Adigala","Lat":10.4236,"Lon":42.2333,"CountryCode":null},{"ID":5358,"Name":"Adigrat","Lat":14.2667,"Lon":39.45,"CountryCode":null},{"ID":33286,"Name":"Adis `Alem","Lat":9.0333,"Lon":38.4,"CountryCode":null},{"ID":20651,"Name":"Adis Zemen","Lat":12.1167,"Lon":37.7833,"CountryCode":null},{"ID":7015,"Name":"Adwa","Lat":14.1667,"Lon":38.9,"CountryCode":null},{"ID":31040,"Name":"Afdem","Lat":9.4667,"Lon":41,"CountryCode":null},{"ID":20199,"Name":"Agaro","Lat":7.8558,"Lon":36.5858,"CountryCode":null},{"ID":8748,"Name":"Aksum","Lat":14.1208,"Lon":38.7278,"CountryCode":null},{"ID":16131,"Name":"Alamat'a","Lat":12.4167,"Lon":39.55,"CountryCode":null},{"ID":3421,"Name":"Arba Minch'","Lat":6.0333,"Lon":37.55,"CountryCode":null},{"ID":16876,"Name":"Areka","Lat":7.071,"Lon":37.7076,"CountryCode":null},{"ID":22272,"Name":"Asaita","Lat":11.5667,"Lon":41.4333,"CountryCode":null},{"ID":25162,"Name":"Asasa","Lat":7.1,"Lon":39.1944,"CountryCode":null},{"ID":8698,"Name":"Asela","Lat":7.95,"Lon":39.1167,"CountryCode":null},{"ID":24427,"Name":"Asosa","Lat":10.0667,"Lon":34.5167,"CountryCode":null},{"ID":4766,"Name":"Aware","Lat":8.2667,"Lon":44.15,"CountryCode":null},{"ID":2294,"Name":"Awasa","Lat":7.05,"Lon":38.4667,"CountryCode":null},{"ID":38305,"Name":"Awash","Lat":8.9944,"Lon":40.1667,"CountryCode":null},{"ID":25108,"Name":"Aysha","Lat":10.75,"Lon":42.5667,"CountryCode":null},{"ID":15929,"Name":"Azezo","Lat":12.5586,"Lon":37.4308,"CountryCode":null},{"ID":6146,"Name":"Babile","Lat":9.2167,"Lon":42.3333,"CountryCode":null},{"ID":2764,"Name":"Bahir Dar","Lat":11.6,"Lon":37.3833,"CountryCode":null},{"ID":24146,"Name":"Bati","Lat":11.1833,"Lon":40.0167,"CountryCode":null},{"ID":25149,"Name":"Bedele","Lat":8.45,"Lon":36.35,"CountryCode":null},{"ID":26550,"Name":"Bedesa","Lat":8.9,"Lon":40.7833,"CountryCode":null},{"ID":15248,"Name":"Bedesa","Lat":6.883,"Lon":37.9329,"CountryCode":null},{"ID":28320,"Name":"Bek'oji","Lat":7.5833,"Lon":39.3333,"CountryCode":null},{"ID":24790,"Name":"Bichena","Lat":10.45,"Lon":38.2,"CountryCode":null},{"ID":43913,"Name":"Bike","Lat":9.5297,"Lon":41.1969,"CountryCode":null},{"ID":8631,"Name":"Boditi","Lat":6.8667,"Lon":37.8667,"CountryCode":null},{"ID":10209,"Name":"Bonga","Lat":7.2667,"Lon":36.2333,"CountryCode":null},{"ID":20455,"Name":"Bure","Lat":10.7,"Lon":37.0667,"CountryCode":null},{"ID":16054,"Name":"Butajira","Lat":8.1208,"Lon":38.3792,"CountryCode":null},{"ID":17107,"Name":"Chagne","Lat":10.95,"Lon":36.5,"CountryCode":null},{"ID":39839,"Name":"Chencha","Lat":6.25,"Lon":37.5667,"CountryCode":null},{"ID":27893,"Name":"Cheraro","Lat":14.3958,"Lon":37.7731,"CountryCode":null},{"ID":34929,"Name":"Dabat","Lat":12.9842,"Lon":37.765,"CountryCode":null},{"ID":10660,"Name":"Dangila","Lat":11.2667,"Lon":36.8333,"CountryCode":null},{"ID":23862,"Name":"Debark'","Lat":13.1333,"Lon":37.9,"CountryCode":null},{"ID":4535,"Name":"Debre Birhan","Lat":9.6833,"Lon":39.5333,"CountryCode":null},{"ID":4703,"Name":"Debre Mark'os","Lat":10.3333,"Lon":37.7167,"CountryCode":null},{"ID":5223,"Name":"Debre Tabor","Lat":11.85,"Lon":38.0167,"CountryCode":null},{"ID":32484,"Name":"Debre Werk'","Lat":10.6667,"Lon":38.1667,"CountryCode":null},{"ID":6162,"Name":"Debre Zeyit","Lat":8.75,"Lon":38.9833,"CountryCode":null},{"ID":17511,"Name":"Degeh Bur","Lat":8.2167,"Lon":43.5667,"CountryCode":null},{"ID":29961,"Name":"Dejen","Lat":10.1667,"Lon":38.1333,"CountryCode":null},{"ID":30617,"Name":"Dembecha","Lat":10.55,"Lon":37.4833,"CountryCode":null},{"ID":17867,"Name":"Dembi Dolo","Lat":8.5353,"Lon":34.8003,"CountryCode":null},{"ID":6891,"Name":"Denan","Lat":6.5,"Lon":43.5,"CountryCode":null},{"ID":28318,"Name":"Dera","Lat":8.3333,"Lon":39.3167,"CountryCode":null},{"ID":3481,"Name":"Dese","Lat":11.1333,"Lon":39.6333,"CountryCode":null},{"ID":4200,"Name":"Dila","Lat":6.4083,"Lon":38.3083,"CountryCode":null},{"ID":2465,"Name":"Dire Dawa","Lat":9.6,"Lon":41.8667,"CountryCode":null},{"ID":20714,"Name":"Dodola","Lat":6.9833,"Lon":39.1833,"CountryCode":null},{"ID":36557,"Name":"Dolo Bay","Lat":4.1833,"Lon":42.0833,"CountryCode":null},{"ID":17091,"Name":"Dolo Odo","Lat":4.1667,"Lon":42.0667,"CountryCode":null},{"ID":1156,"Name":"Erer Sata","Lat":9.5667,"Lon":41.3833,"CountryCode":null},{"ID":4716,"Name":"Ferfer","Lat":5.0833,"Lon":45.0833,"CountryCode":null},{"ID":18927,"Name":"Fiche","Lat":9.8,"Lon":38.7333,"CountryCode":null},{"ID":38097,"Name":"Finch'a'a","Lat":9.9,"Lon":37.45,"CountryCode":null},{"ID":10281,"Name":"Finote Selam","Lat":10.7,"Lon":37.2667,"CountryCode":null},{"ID":29972,"Name":"Funyan Bira","Lat":9.35,"Lon":42.4,"CountryCode":null},{"ID":6279,"Name":"Gambela","Lat":8.25,"Lon":34.5833,"CountryCode":null},{"ID":24866,"Name":"Gebre Guracha","Lat":9.8,"Lon":38.4,"CountryCode":null},{"ID":21126,"Name":"Gelemso","Lat":8.8167,"Lon":40.5167,"CountryCode":null},{"ID":20108,"Name":"Genet","Lat":9.05,"Lon":38.5,"CountryCode":null},{"ID":32456,"Name":"Gesuba","Lat":6.7242,"Lon":37.5567,"CountryCode":null},{"ID":17086,"Name":"Gimbi","Lat":9.1667,"Lon":35.8333,"CountryCode":null},{"ID":27823,"Name":"Ginir","Lat":7.1333,"Lon":40.7,"CountryCode":null},{"ID":14326,"Name":"Giyon","Lat":8.5333,"Lon":37.9667,"CountryCode":null},{"ID":11410,"Name":"Goba","Lat":7,"Lon":39.9833,"CountryCode":null},{"ID":2179,"Name":"Gode","Lat":5.9527,"Lon":43.5516,"CountryCode":null},{"ID":7349,"Name":"Gonder","Lat":12.6075,"Lon":37.4592,"CountryCode":null},{"ID":43423,"Name":"Gore","Lat":8.149,"Lon":35.537,"CountryCode":null},{"ID":11631,"Name":"Hagere Hiywet","Lat":8.9833,"Lon":37.85,"CountryCode":null},{"ID":4871,"Name":"Harar","Lat":9.3111,"Lon":42.1278,"CountryCode":null},{"ID":5310,"Name":"Harshin","Lat":9.2167,"Lon":43.5878,"CountryCode":null},{"ID":23135,"Name":"Himora","Lat":14.2861,"Lon":36.6097,"CountryCode":null},{"ID":28326,"Name":"Hirna","Lat":9.2167,"Lon":41.1,"CountryCode":null},{"ID":3615,"Name":"Hosa'ina","Lat":7.55,"Lon":37.85,"CountryCode":null},{"ID":28066,"Name":"Huruta","Lat":8.15,"Lon":39.35,"CountryCode":null},{"ID":23630,"Name":"Injibara","Lat":10.95,"Lon":36.9333,"CountryCode":null},{"ID":44390,"Name":"Intich'o","Lat":14.2667,"Lon":39.15,"CountryCode":null},{"ID":4031,"Name":"Jijiga","Lat":9.35,"Lon":42.8,"CountryCode":null},{"ID":5150,"Name":"Jima","Lat":7.6667,"Lon":36.8333,"CountryCode":null},{"ID":17422,"Name":"Jinka","Lat":5.7833,"Lon":36.5667,"CountryCode":null},{"ID":3892,"Name":"K'ebri Beyah","Lat":9.0833,"Lon":43.0833,"CountryCode":null},{"ID":1937,"Name":"K'ebri Dehar","Lat":6.7333,"Lon":44.2667,"CountryCode":null},{"ID":31922,"Name":"Kelafo","Lat":5.5889,"Lon":44.2056,"CountryCode":null},{"ID":41041,"Name":"Kele","Lat":6.0833,"Lon":38.0333,"CountryCode":null},{"ID":25230,"Name":"Kemise","Lat":10.7167,"Lon":39.8667,"CountryCode":null},{"ID":20636,"Name":"Kobo","Lat":12.15,"Lon":39.6333,"CountryCode":null},{"ID":33825,"Name":"Kofele","Lat":7,"Lon":38.75,"CountryCode":null},{"ID":18993,"Name":"K'olito","Lat":7.3122,"Lon":38.0892,"CountryCode":null},{"ID":4980,"Name":"Kombolcha","Lat":11.0867,"Lon":39.7367,"CountryCode":null},{"ID":28156,"Name":"Korem","Lat":12.5,"Lon":39.5167,"CountryCode":null},{"ID":34990,"Name":"Kwiha","Lat":13.4769,"Lon":39.545,"CountryCode":null},{"ID":27511,"Name":"Lalibela","Lat":12.0317,"Lon":39.0411,"CountryCode":null},{"ID":21694,"Name":"Maychew","Lat":12.7833,"Lon":39.5333,"CountryCode":null},{"ID":43367,"Name":"Mega","Lat":4.0167,"Lon":38.25,"CountryCode":null},{"ID":2158,"Name":"Mekele","Lat":13.4969,"Lon":39.4769,"CountryCode":null},{"ID":14774,"Name":"Mek'i","Lat":8.15,"Lon":38.8167,"CountryCode":null},{"ID":13277,"Name":"Mersa","Lat":11.6667,"Lon":39.6583,"CountryCode":null},{"ID":23407,"Name":"Metahara","Lat":8.9,"Lon":39.9167,"CountryCode":null},{"ID":11142,"Name":"Metema","Lat":12.9667,"Lon":36.2,"CountryCode":null},{"ID":18221,"Name":"Metu","Lat":8.3,"Lon":35.5833,"CountryCode":null},{"ID":23406,"Name":"Mi'eso","Lat":9.2333,"Lon":40.75,"CountryCode":null},{"ID":6627,"Name":"Mizan Teferi","Lat":7,"Lon":35.5833,"CountryCode":null},{"ID":11357,"Name":"Mojo","Lat":8.65,"Lon":39.0833,"CountryCode":null},{"ID":10190,"Name":"Mota","Lat":11.0833,"Lon":37.8667,"CountryCode":null},{"ID":20540,"Name":"Moyale","Lat":3.527,"Lon":39.056,"CountryCode":null},{"ID":2154,"Name":"Nazret","Lat":8.5414,"Lon":39.2689,"CountryCode":null},{"ID":25999,"Name":"Nefas Mewch'a","Lat":11.7333,"Lon":38.4667,"CountryCode":null},{"ID":36643,"Name":"Negele","Lat":5.3167,"Lon":39.5833,"CountryCode":null},{"ID":24812,"Name":"Nejo","Lat":9.5,"Lon":35.5,"CountryCode":null},{"ID":4293,"Name":"Nek'emte","Lat":9.0833,"Lon":36.55,"CountryCode":null},{"ID":12477,"Name":"Robe","Lat":7.1167,"Lon":40,"CountryCode":null},{"ID":41586,"Name":"Sagure","Lat":7.75,"Lon":39.15,"CountryCode":null},{"ID":11403,"Name":"Sebeta","Lat":8.9111,"Lon":38.6214,"CountryCode":null},{"ID":22523,"Name":"Sek'ot'a","Lat":12.6253,"Lon":39.035,"CountryCode":null},{"ID":11270,"Name":"Semera","Lat":11.7922,"Lon":41.0086,"CountryCode":null},{"ID":35500,"Name":"Sendafa","Lat":9.15,"Lon":39.0333,"CountryCode":null},{"ID":18487,"Name":"Shakiso","Lat":5.75,"Lon":38.9167,"CountryCode":null},{"ID":30732,"Name":"Shambu","Lat":9.5667,"Lon":37.1,"CountryCode":null},{"ID":1763,"Name":"Shashemene","Lat":7.2,"Lon":38.6,"CountryCode":null},{"ID":43597,"Name":"Shende","Lat":10.6333,"Lon":36.9333,"CountryCode":null},{"ID":33816,"Name":"Shinile","Lat":9.6667,"Lon":41.8333,"CountryCode":null},{"ID":6392,"Name":"Shire","Lat":14.1,"Lon":38.2833,"CountryCode":null},{"ID":3114,"Name":"Sodo","Lat":6.855,"Lon":37.7808,"CountryCode":null},{"ID":8343,"Name":"Togoch'ale","Lat":9.6014,"Lon":43.3361,"CountryCode":null},{"ID":7035,"Name":"Warder","Lat":6.9667,"Lon":45.35,"CountryCode":null},{"ID":6216,"Name":"Weldiya","Lat":11.8306,"Lon":39.6,"CountryCode":null},{"ID":23734,"Name":"Welench'iti","Lat":8.6667,"Lon":39.4333,"CountryCode":null},{"ID":18178,"Name":"Welk'it'e","Lat":8.2833,"Lon":37.7833,"CountryCode":null},{"ID":41125,"Name":"Were Ilu","Lat":10.6,"Lon":39.4333,"CountryCode":null},{"ID":19618,"Name":"Werota","Lat":11.9167,"Lon":37.7,"CountryCode":null},{"ID":17435,"Name":"Wik'ro","Lat":13.7833,"Lon":39.6,"CountryCode":null},{"ID":6968,"Name":"Yabelo","Lat":4.8833,"Lon":38.0833,"CountryCode":null},{"ID":12608,"Name":"Yirga `Alem","Lat":6.75,"Lon":38.4167,"CountryCode":null}]