[{"ID":26185,"Name":"Ba","Lat":-17.5333,"Lon":177.6833,"CountryCode":null},{"ID":18671,"Name":"Labasa","Lat":-16.4311,"Lon":179.3703,"CountryCode":null},{"ID":24160,"Name":"Lami","Lat":-18.1167,"Lon":178.4167,"CountryCode":null},{"ID":10849,"Name":"Lautoka","Lat":-17.6242,"Lon":177.4528,"CountryCode":null},{"ID":8276,"Name":"Nadi","Lat":-17.8,"Lon":177.4167,"CountryCode":null},{"ID":25771,"Name":"Nakasi","Lat":-18.0667,"Lon":178.5167,"CountryCode":null},{"ID":9919,"Name":"Nausori","Lat":-18.0244,"Lon":178.5454,"CountryCode":null},{"ID":42607,"Name":"Sigatoka","Lat":-18.1414,"Lon":177.5069,"CountryCode":null},{"ID":3508,"Name":"Suva","Lat":-18.1416,"Lon":178.4419,"CountryCode":null}]