[{"ID":25104,"Name":"Abbots Langley","Lat":51.701,"Lon":-0.416,"CountryCode":null},{"ID":41573,"Name":"Aberaman","Lat":51.7,"Lon":-3.4333,"CountryCode":null},{"ID":43948,"Name":"Aberbargoed","Lat":51.6968,"Lon":-3.224,"CountryCode":null},{"ID":31472,"Name":"Aberdare","Lat":51.713,"Lon":-3.445,"CountryCode":null},{"ID":3292,"Name":"Aberdeen","Lat":57.15,"Lon":-2.11,"CountryCode":null},{"ID":41061,"Name":"Abergavenny","Lat":51.824,"Lon":-3.0167,"CountryCode":null},{"ID":39577,"Name":"Abergele","Lat":53.28,"Lon":-3.58,"CountryCode":null},{"ID":2742,"Name":"Abertawe","Lat":51.6167,"Lon":-3.95,"CountryCode":null},{"ID":36999,"Name":"Abertillery","Lat":51.73,"Lon":-3.13,"CountryCode":null},{"ID":33988,"Name":"Aberystwyth","Lat":52.414,"Lon":-4.081,"CountryCode":null},{"ID":16161,"Name":"Abingdon","Lat":51.6717,"Lon":-1.2783,"CountryCode":null},{"ID":41906,"Name":"Abram","Lat":53.508,"Lon":-2.588,"CountryCode":null},{"ID":15180,"Name":"Accrington","Lat":53.7534,"Lon":-2.3638,"CountryCode":null},{"ID":22647,"Name":"Acomb","Lat":53.955,"Lon":-1.126,"CountryCode":null},{"ID":9266,"Name":"Acton","Lat":51.5135,"Lon":-0.2707,"CountryCode":null},{"ID":29451,"Name":"Addlestone","Lat":51.3695,"Lon":-0.4901,"CountryCode":null},{"ID":25222,"Name":"Adel","Lat":53.8489,"Lon":-1.5849,"CountryCode":null},{"ID":29408,"Name":"Adwick le Street","Lat":53.5677,"Lon":-1.1931,"CountryCode":null},{"ID":34633,"Name":"Ainsdale","Lat":53.6021,"Lon":-3.0405,"CountryCode":null},{"ID":14509,"Name":"Airdrie","Lat":55.86,"Lon":-3.98,"CountryCode":null},{"ID":41654,"Name":"Aldenham","Lat":51.6723,"Lon":-0.3546,"CountryCode":null},{"ID":10020,"Name":"Aldershot","Lat":51.2483,"Lon":-0.7614,"CountryCode":null},{"ID":19215,"Name":"Aldridge","Lat":52.606,"Lon":-1.9179,"CountryCode":null},{"ID":21032,"Name":"Alfreton","Lat":53.097,"Lon":-1.38,"CountryCode":null},{"ID":32972,"Name":"Allestree","Lat":52.9519,"Lon":-1.4856,"CountryCode":null},{"ID":31579,"Name":"Alloa","Lat":56.116,"Lon":-3.793,"CountryCode":null},{"ID":26380,"Name":"Almondbury","Lat":53.6344,"Lon":-1.7489,"CountryCode":null},{"ID":33356,"Name":"Alsager","Lat":53.096,"Lon":-2.305,"CountryCode":null},{"ID":26978,"Name":"Alton","Lat":51.1498,"Lon":-0.9769,"CountryCode":null},{"ID":10819,"Name":"Altrincham","Lat":53.3838,"Lon":-2.3547,"CountryCode":null},{"ID":33349,"Name":"Amblecote","Lat":52.46,"Lon":-2.16,"CountryCode":null},{"ID":31690,"Name":"Amersham","Lat":51.677,"Lon":-0.603,"CountryCode":null},{"ID":39187,"Name":"Amesbury","Lat":51.173,"Lon":-1.78,"CountryCode":null},{"ID":45953,"Name":"Ammanford","Lat":51.8,"Lon":-3.993,"CountryCode":null},{"ID":33495,"Name":"Ampthill","Lat":52.0263,"Lon":-0.4906,"CountryCode":null},{"ID":11082,"Name":"Andover","Lat":51.208,"Lon":-1.48,"CountryCode":null},{"ID":45361,"Name":"Annan","Lat":54.983,"Lon":-3.266,"CountryCode":null},{"ID":24724,"Name":"Antrim","Lat":54.7173,"Lon":-6.2055,"CountryCode":null},{"ID":40510,"Name":"Appleton","Lat":53.3508,"Lon":-2.5441,"CountryCode":null},{"ID":26210,"Name":"Appley Bridge","Lat":53.579,"Lon":-2.721,"CountryCode":null},{"ID":21312,"Name":"Arbroath","Lat":56.561,"Lon":-2.586,"CountryCode":null},{"ID":39348,"Name":"Ardrossan","Lat":55.6432,"Lon":-4.8097,"CountryCode":null},{"ID":34974,"Name":"Armadale","Lat":55.8978,"Lon":-3.7047,"CountryCode":null},{"ID":31050,"Name":"Armagh","Lat":54.3499,"Lon":-6.6546,"CountryCode":null},{"ID":31544,"Name":"Armthorpe","Lat":53.5352,"Lon":-1.0522,"CountryCode":null},{"ID":14371,"Name":"Arnold","Lat":53.005,"Lon":-1.127,"CountryCode":null},{"ID":36995,"Name":"Ascot","Lat":51.4084,"Lon":-0.6707,"CountryCode":null},{"ID":28594,"Name":"Ashby de la Zouch","Lat":52.746,"Lon":-1.476,"CountryCode":null},{"ID":18981,"Name":"Ashford","Lat":51.434,"Lon":-0.464,"CountryCode":null},{"ID":7187,"Name":"Ashford","Lat":51.1465,"Lon":0.8676,"CountryCode":null},{"ID":18763,"Name":"Ashington","Lat":55.181,"Lon":-1.568,"CountryCode":null},{"ID":32042,"Name":"Ashtead","Lat":51.31,"Lon":-0.299,"CountryCode":null},{"ID":12256,"Name":"Ashton","Lat":53.4897,"Lon":-2.0952,"CountryCode":null},{"ID":19575,"Name":"Ashton in Makerfield","Lat":53.487,"Lon":-2.641,"CountryCode":null},{"ID":37748,"Name":"Astley","Lat":53.5008,"Lon":-2.4454,"CountryCode":null},{"ID":45752,"Name":"Atherstone","Lat":52.5787,"Lon":-1.5462,"CountryCode":null},{"ID":22855,"Name":"Atherton","Lat":53.523,"Lon":-2.495,"CountryCode":null},{"ID":39852,"Name":"Attleborough","Lat":52.5183,"Lon":1.0192,"CountryCode":null},{"ID":7174,"Name":"Aylesbury","Lat":51.8168,"Lon":-0.8124,"CountryCode":null},{"ID":39373,"Name":"Aylesford","Lat":51.3033,"Lon":0.4796,"CountryCode":null},{"ID":38049,"Name":"Aylestone","Lat":52.604,"Lon":-1.154,"CountryCode":null},{"ID":11908,"Name":"Ayr","Lat":55.458,"Lon":-4.629,"CountryCode":null},{"ID":33468,"Name":"Bacup","Lat":53.704,"Lon":-2.199,"CountryCode":null},{"ID":31031,"Name":"Baguley","Lat":53.399,"Lon":-2.276,"CountryCode":null},{"ID":30126,"Name":"Baildon","Lat":53.851,"Lon":-1.763,"CountryCode":null},{"ID":23129,"Name":"Bailleston","Lat":55.8474,"Lon":-4.1147,"CountryCode":null},{"ID":41727,"Name":"Balderton","Lat":53.0549,"Lon":-0.7727,"CountryCode":null},{"ID":41769,"Name":"Baldock","Lat":51.99,"Lon":-0.19,"CountryCode":null},{"ID":31097,"Name":"Balham","Lat":51.4434,"Lon":-0.1525,"CountryCode":null},{"ID":18258,"Name":"Ballymena","Lat":54.86,"Lon":-6.28,"CountryCode":null},{"ID":38322,"Name":"Ballymoney","Lat":55.071,"Lon":-6.508,"CountryCode":null},{"ID":35838,"Name":"Bamber Bridge","Lat":53.7281,"Lon":-2.6606,"CountryCode":null},{"ID":31110,"Name":"Banbridge","Lat":54.349,"Lon":-6.27,"CountryCode":null},{"ID":11896,"Name":"Banbury","Lat":52.061,"Lon":-1.336,"CountryCode":null},{"ID":9469,"Name":"Bangor","Lat":54.66,"Lon":-5.67,"CountryCode":null},{"ID":28765,"Name":"Bangor","Lat":53.228,"Lon":-4.128,"CountryCode":null},{"ID":28389,"Name":"Banstead","Lat":51.322,"Lon":-0.204,"CountryCode":null},{"ID":36361,"Name":"Bargoed","Lat":51.69,"Lon":-3.24,"CountryCode":null},{"ID":9742,"Name":"Barking","Lat":51.54,"Lon":0.08,"CountryCode":null},{"ID":11793,"Name":"Barnet","Lat":51.6444,"Lon":-0.1997,"CountryCode":null},{"ID":39110,"Name":"Barnoldswick","Lat":53.9147,"Lon":-2.1895,"CountryCode":null},{"ID":2747,"Name":"Barnsley","Lat":53.5547,"Lon":-1.4791,"CountryCode":null},{"ID":21285,"Name":"Barnstaple","Lat":51.08,"Lon":-4.06,"CountryCode":null},{"ID":27201,"Name":"Barrhead","Lat":55.801,"Lon":-4.389,"CountryCode":null},{"ID":10977,"Name":"Barri","Lat":51.405,"Lon":-3.27,"CountryCode":null},{"ID":10301,"Name":"Barrow in Furness","Lat":54.1108,"Lon":-3.2261,"CountryCode":null},{"ID":38263,"Name":"Barton upon Humber","Lat":53.6833,"Lon":-0.45,"CountryCode":null},{"ID":35163,"Name":"Barton upon Irwell","Lat":53.476,"Lon":-2.36,"CountryCode":null},{"ID":44469,"Name":"Barwell","Lat":52.5682,"Lon":-1.3462,"CountryCode":null},{"ID":28953,"Name":"Basford","Lat":52.978,"Lon":-1.169,"CountryCode":null},{"ID":3509,"Name":"Basildon","Lat":51.58,"Lon":0.49,"CountryCode":null},{"ID":5758,"Name":"Basingstoke","Lat":51.2667,"Lon":-1.0876,"CountryCode":null},{"ID":6451,"Name":"Bath","Lat":51.38,"Lon":-2.36,"CountryCode":null},{"ID":22099,"Name":"Bathgate","Lat":55.9024,"Lon":-3.6431,"CountryCode":null},{"ID":7379,"Name":"Batley","Lat":53.7167,"Lon":-1.6356,"CountryCode":null},{"ID":35941,"Name":"Beaconsfield","Lat":51.6009,"Lon":-0.6347,"CountryCode":null},{"ID":18567,"Name":"Bearsden","Lat":55.9195,"Lon":-4.3337,"CountryCode":null},{"ID":9998,"Name":"Bebington","Lat":53.35,"Lon":-3.003,"CountryCode":null},{"ID":40921,"Name":"Beccles","Lat":52.458,"Lon":1.563,"CountryCode":null},{"ID":11897,"Name":"Beckenham","Lat":51.408,"Lon":-0.022,"CountryCode":null},{"ID":6574,"Name":"Bedford","Lat":52.135,"Lon":-0.47,"CountryCode":null},{"ID":26245,"Name":"Bedlington","Lat":55.133,"Lon":-1.583,"CountryCode":null},{"ID":46298,"Name":"Bedwas","Lat":51.5926,"Lon":-3.2061,"CountryCode":null},{"ID":17041,"Name":"Bedworth","Lat":52.475,"Lon":-1.477,"CountryCode":null},{"ID":14628,"Name":"Beeston","Lat":52.927,"Lon":-1.215,"CountryCode":null},{"ID":2040,"Name":"Belfast","Lat":54.5964,"Lon":-5.93,"CountryCode":null},{"ID":37108,"Name":"Belgrave","Lat":52.6566,"Lon":-1.1262,"CountryCode":null},{"ID":24365,"Name":"Bellshill","Lat":55.816,"Lon":-4.026,"CountryCode":null},{"ID":22979,"Name":"Belper","Lat":53.029,"Lon":-1.475,"CountryCode":null},{"ID":36007,"Name":"Bentley","Lat":53.551,"Lon":-1.144,"CountryCode":null},{"ID":26652,"Name":"Berkhampstead","Lat":51.76,"Lon":-0.56,"CountryCode":null},{"ID":36016,"Name":"Berwick-Upon-Tweed","Lat":55.7692,"Lon":-2.0025,"CountryCode":null},{"ID":17157,"Name":"Beverley","Lat":53.845,"Lon":-0.427,"CountryCode":null},{"ID":43080,"Name":"Bewdley","Lat":52.3758,"Lon":-2.315,"CountryCode":null},{"ID":16653,"Name":"Bexleyheath","Lat":51.459,"Lon":0.138,"CountryCode":null},{"ID":17142,"Name":"Bicester","Lat":51.9,"Lon":-1.15,"CountryCode":null},{"ID":35183,"Name":"Bickenhill","Lat":52.439,"Lon":-1.725,"CountryCode":null},{"ID":32489,"Name":"Bickley","Lat":51.4003,"Lon":0.0466,"CountryCode":null},{"ID":24808,"Name":"Biddulph","Lat":53.12,"Lon":-2.17,"CountryCode":null},{"ID":26467,"Name":"Bideford","Lat":51.016,"Lon":-4.209,"CountryCode":null},{"ID":30314,"Name":"Bidston","Lat":53.402,"Lon":-3.078,"CountryCode":null},{"ID":38953,"Name":"Biggin Hill","Lat":51.3127,"Lon":0.0336,"CountryCode":null},{"ID":23098,"Name":"Biggleswade","Lat":52.0855,"Lon":-0.2557,"CountryCode":null},{"ID":18646,"Name":"Billericay","Lat":51.628,"Lon":0.4184,"CountryCode":null},{"ID":15302,"Name":"Billingham","Lat":54.61,"Lon":-1.27,"CountryCode":null},{"ID":20118,"Name":"Bilston","Lat":52.566,"Lon":-2.0728,"CountryCode":null},{"ID":45682,"Name":"Binfield","Lat":51.432,"Lon":-0.792,"CountryCode":null},{"ID":41051,"Name":"Bingham","Lat":52.952,"Lon":-0.953,"CountryCode":null},{"ID":26435,"Name":"Bingley","Lat":53.846,"Lon":-1.836,"CountryCode":null},{"ID":41584,"Name":"Birchington","Lat":51.377,"Lon":1.305,"CountryCode":null},{"ID":4447,"Name":"Birkenhead","Lat":53.393,"Lon":-3.014,"CountryCode":null},{"ID":268,"Name":"Birmingham","Lat":52.48,"Lon":-1.9025,"CountryCode":null},{"ID":28830,"Name":"Birstall","Lat":53.732,"Lon":-1.66,"CountryCode":null},{"ID":35663,"Name":"Birstall","Lat":52.6736,"Lon":-1.12,"CountryCode":null},{"ID":20201,"Name":"Bishop Auckland","Lat":54.663,"Lon":-1.676,"CountryCode":null},{"ID":21602,"Name":"Bishopbriggs","Lat":55.9046,"Lon":-4.225,"CountryCode":null},{"ID":32188,"Name":"Bishops Cleeve","Lat":51.947,"Lon":-2.061,"CountryCode":null},{"ID":14233,"Name":"Bishops Stortford","Lat":51.872,"Lon":0.1725,"CountryCode":null},{"ID":41539,"Name":"Bishopstoke","Lat":50.9679,"Lon":-1.3278,"CountryCode":null},{"ID":24652,"Name":"Bispham","Lat":53.852,"Lon":-3.041,"CountryCode":null},{"ID":5276,"Name":"Blackburn","Lat":53.748,"Lon":-2.482,"CountryCode":null},{"ID":4547,"Name":"Blackpool","Lat":53.8142,"Lon":-3.0503,"CountryCode":null},{"ID":44476,"Name":"Blairgowrie","Lat":56.5916,"Lon":-3.3405,"CountryCode":null},{"ID":40205,"Name":"Blandford Forum","Lat":50.856,"Lon":-2.165,"CountryCode":null},{"ID":30408,"Name":"Blaydon","Lat":54.963,"Lon":-1.719,"CountryCode":null},{"ID":14463,"Name":"Bletchley","Lat":51.994,"Lon":-0.732,"CountryCode":null},{"ID":20231,"Name":"Bloxwich","Lat":52.614,"Lon":-2.004,"CountryCode":null},{"ID":37199,"Name":"Blundellsands","Lat":53.48,"Lon":-3.05,"CountryCode":null},{"ID":14529,"Name":"Blyth","Lat":55.126,"Lon":-1.514,"CountryCode":null},{"ID":31129,"Name":"Bodmin","Lat":50.466,"Lon":-4.718,"CountryCode":null},{"ID":9093,"Name":"Bognor Regis","Lat":50.7824,"Lon":-0.6764,"CountryCode":null},{"ID":36852,"Name":"Bolsover","Lat":53.2304,"Lon":-1.2875,"CountryCode":null},{"ID":2409,"Name":"Bolton","Lat":53.578,"Lon":-2.429,"CountryCode":null},{"ID":31080,"Name":"Bo'ness","Lat":56.0168,"Lon":-3.6089,"CountryCode":null},{"ID":44385,"Name":"Bonhill","Lat":55.983,"Lon":-4.567,"CountryCode":null},{"ID":27309,"Name":"Bonnyrigg","Lat":55.8747,"Lon":-3.1031,"CountryCode":null},{"ID":10994,"Name":"Bootle","Lat":53.4457,"Lon":-2.9891,"CountryCode":null},{"ID":14845,"Name":"Borehamwood","Lat":51.6578,"Lon":-0.2722,"CountryCode":null},{"ID":23964,"Name":"Boscombe","Lat":50.725,"Lon":-1.84,"CountryCode":null},{"ID":9008,"Name":"Boston","Lat":52.974,"Lon":-0.0214,"CountryCode":null},{"ID":38345,"Name":"Bottesford","Lat":53.5521,"Lon":-0.6714,"CountryCode":null},{"ID":37783,"Name":"Boultham","Lat":53.214,"Lon":-0.5561,"CountryCode":null},{"ID":26801,"Name":"Bourne","Lat":52.7684,"Lon":-0.3775,"CountryCode":null},{"ID":3486,"Name":"Bournemouth","Lat":50.72,"Lon":-1.88,"CountryCode":null},{"ID":19876,"Name":"Bournville","Lat":52.4299,"Lon":-1.9355,"CountryCode":null},{"ID":44606,"Name":"Bovingdon","Lat":51.7231,"Lon":-0.5367,"CountryCode":null},{"ID":43812,"Name":"Bowdon","Lat":53.376,"Lon":-2.366,"CountryCode":null},{"ID":42822,"Name":"Boxley","Lat":51.3024,"Lon":0.5429,"CountryCode":null},{"ID":34021,"Name":"Brackley","Lat":52.032,"Lon":-1.147,"CountryCode":null},{"ID":7665,"Name":"Bracknell","Lat":51.416,"Lon":-0.749,"CountryCode":null},{"ID":2353,"Name":"Bradford","Lat":53.8,"Lon":-1.75,"CountryCode":null},{"ID":40053,"Name":"Bradford-on-Avon","Lat":51.347,"Lon":-2.251,"CountryCode":null},{"ID":42521,"Name":"Bradwell","Lat":52.05,"Lon":-0.787,"CountryCode":null},{"ID":10241,"Name":"Braintree","Lat":51.878,"Lon":0.55,"CountryCode":null},{"ID":27431,"Name":"Bramhall","Lat":53.357,"Lon":-2.164,"CountryCode":null},{"ID":44078,"Name":"Brandon","Lat":52.4474,"Lon":0.6242,"CountryCode":null},{"ID":28170,"Name":"Braunstone","Lat":52.616,"Lon":-1.175,"CountryCode":null},{"ID":28331,"Name":"Bredbury","Lat":53.42,"Lon":-2.113,"CountryCode":null},{"ID":10783,"Name":"Brentwood","Lat":51.62,"Lon":0.305,"CountryCode":null},{"ID":35948,"Name":"Bridgnorth","Lat":52.535,"Lon":-2.4195,"CountryCode":null},{"ID":13268,"Name":"Bridgwater","Lat":51.128,"Lon":-2.993,"CountryCode":null},{"ID":15261,"Name":"Bridlington","Lat":54.0819,"Lon":-0.1923,"CountryCode":null},{"ID":33069,"Name":"Bridport","Lat":50.7336,"Lon":-2.7584,"CountryCode":null},{"ID":32437,"Name":"Brierley Hill","Lat":52.4795,"Lon":-2.1245,"CountryCode":null},{"ID":16453,"Name":"Brighouse","Lat":53.707,"Lon":-1.794,"CountryCode":null},{"ID":4687,"Name":"Brighton","Lat":50.8208,"Lon":-0.1375,"CountryCode":null},{"ID":45329,"Name":"Brimington","Lat":53.258,"Lon":-1.3905,"CountryCode":null},{"ID":37208,"Name":"Brislington","Lat":51.4316,"Lon":-2.5439,"CountryCode":null},{"ID":1053,"Name":"Bristol","Lat":51.4536,"Lon":-2.5975,"CountryCode":null},{"ID":28204,"Name":"Brixham","Lat":50.394,"Lon":-3.516,"CountryCode":null},{"ID":7556,"Name":"Brixton","Lat":51.4575,"Lon":-0.1175,"CountryCode":null},{"ID":20610,"Name":"Broadstairs","Lat":51.3589,"Lon":1.4394,"CountryCode":null},{"ID":40382,"Name":"Broadstone","Lat":50.7605,"Lon":-1.995,"CountryCode":null},{"ID":43354,"Name":"Broadwater","Lat":50.8282,"Lon":-0.3742,"CountryCode":null},{"ID":43211,"Name":"Brockworth","Lat":51.85,"Lon":-2.15,"CountryCode":null},{"ID":30947,"Name":"Bromborough","Lat":53.336,"Lon":-2.978,"CountryCode":null},{"ID":6860,"Name":"Bromley","Lat":51.407,"Lon":0.021,"CountryCode":null},{"ID":17968,"Name":"Bromsgrove","Lat":52.3353,"Lon":-2.0579,"CountryCode":null},{"ID":44823,"Name":"Broughton Astley","Lat":52.5278,"Lon":-1.2275,"CountryCode":null},{"ID":26029,"Name":"Broughty Ferry","Lat":56.4672,"Lon":-2.8699,"CountryCode":null},{"ID":34722,"Name":"Brownhills","Lat":52.647,"Lon":-1.933,"CountryCode":null},{"ID":30202,"Name":"Broxbourne","Lat":51.7495,"Lon":-0.0216,"CountryCode":null},{"ID":30032,"Name":"Broxburn","Lat":55.934,"Lon":-3.471,"CountryCode":null},{"ID":36875,"Name":"Bryn","Lat":53.499,"Lon":-2.657,"CountryCode":null},{"ID":37514,"Name":"Buckhurst Hill","Lat":51.632,"Lon":0.036,"CountryCode":null},{"ID":45854,"Name":"Buckie","Lat":57.6764,"Lon":-2.965,"CountryCode":null},{"ID":34317,"Name":"Buckingham","Lat":51.995,"Lon":-0.986,"CountryCode":null},{"ID":29072,"Name":"Buckley","Lat":53.172,"Lon":-3.086,"CountryCode":null},{"ID":46083,"Name":"Bucksburn","Lat":57.177,"Lon":-2.175,"CountryCode":null},{"ID":43836,"Name":"Bude","Lat":50.824,"Lon":-4.542,"CountryCode":null},{"ID":17691,"Name":"Bulwell","Lat":53.001,"Lon":-1.197,"CountryCode":null},{"ID":31372,"Name":"Burbage","Lat":52.5277,"Lon":-1.3483,"CountryCode":null},{"ID":17252,"Name":"Burgess Hill","Lat":50.9535,"Lon":-0.1262,"CountryCode":null},{"ID":36945,"Name":"Burnham","Lat":51.54,"Lon":-0.66,"CountryCode":null},{"ID":25099,"Name":"Burnham-on-Sea","Lat":51.2376,"Lon":-2.9935,"CountryCode":null},{"ID":7268,"Name":"Burnley","Lat":53.789,"Lon":-2.248,"CountryCode":null},{"ID":19798,"Name":"Burntwood","Lat":52.6831,"Lon":-1.92,"CountryCode":null},{"ID":41675,"Name":"Burscough","Lat":53.596,"Lon":-2.843,"CountryCode":null},{"ID":37668,"Name":"Burslem","Lat":53.0426,"Lon":-2.1879,"CountryCode":null},{"ID":39946,"Name":"Burton Latimer","Lat":52.365,"Lon":-0.678,"CountryCode":null},{"ID":7873,"Name":"Burton upon Trent","Lat":52.8019,"Lon":-1.6367,"CountryCode":null},{"ID":37758,"Name":"Burtonwood","Lat":53.4302,"Lon":-2.6614,"CountryCode":null},{"ID":7538,"Name":"Bury","Lat":53.593,"Lon":-2.298,"CountryCode":null},{"ID":13459,"Name":"Bury Saint Edmunds","Lat":52.2474,"Lon":0.7183,"CountryCode":null},{"ID":18406,"Name":"Bushey","Lat":51.6429,"Lon":-0.3604,"CountryCode":null},{"ID":24601,"Name":"Buxton","Lat":53.259,"Lon":-1.911,"CountryCode":null},{"ID":1515,"Name":"Caerdydd","Lat":51.4833,"Lon":-3.1833,"CountryCode":null},{"ID":33787,"Name":"Caerfyrddin","Lat":51.856,"Lon":-4.316,"CountryCode":null},{"ID":42630,"Name":"Caernarfon","Lat":53.14,"Lon":-4.27,"CountryCode":null},{"ID":13233,"Name":"Caerphilly","Lat":51.578,"Lon":-3.218,"CountryCode":null},{"ID":44949,"Name":"Caister-on-Sea","Lat":52.651,"Lon":1.733,"CountryCode":null},{"ID":42032,"Name":"Caldicot","Lat":51.591,"Lon":-2.7492,"CountryCode":null},{"ID":25600,"Name":"Calne","Lat":51.438,"Lon":-2.005,"CountryCode":null},{"ID":46265,"Name":"Cam","Lat":51.7011,"Lon":-2.3642,"CountryCode":null},{"ID":14710,"Name":"Camberley","Lat":51.335,"Lon":-0.742,"CountryCode":null},{"ID":22769,"Name":"Camborne","Lat":50.213,"Lon":-5.3,"CountryCode":null},{"ID":5042,"Name":"Cambridge","Lat":52.2053,"Lon":0.1192,"CountryCode":null},{"ID":18047,"Name":"Cambuslang","Lat":55.819,"Lon":-4.1671,"CountryCode":null},{"ID":45920,"Name":"Canford Cliffs","Lat":50.7,"Lon":-1.93,"CountryCode":null},{"ID":8642,"Name":"Cannock","Lat":52.691,"Lon":-2.027,"CountryCode":null},{"ID":10408,"Name":"Canterbury","Lat":51.28,"Lon":1.08,"CountryCode":null},{"ID":7841,"Name":"Carlisle","Lat":54.8947,"Lon":-2.9364,"CountryCode":null},{"ID":46322,"Name":"Carlton Colville","Lat":52.454,"Lon":1.691,"CountryCode":null},{"ID":33476,"Name":"Carluke","Lat":55.734,"Lon":-3.834,"CountryCode":null},{"ID":37579,"Name":"Carnoustie","Lat":56.501,"Lon":-2.71,"CountryCode":null},{"ID":18557,"Name":"Carrickfergus","Lat":54.7136,"Lon":-5.8075,"CountryCode":null},{"ID":17619,"Name":"Carshalton","Lat":51.3652,"Lon":-0.1676,"CountryCode":null},{"ID":29711,"Name":"Carterton","Lat":51.76,"Lon":-1.59,"CountryCode":null},{"ID":37886,"Name":"Castle Bromwich","Lat":52.505,"Lon":-1.7856,"CountryCode":null},{"ID":12276,"Name":"Castleford","Lat":53.716,"Lon":-1.356,"CountryCode":null},{"ID":40814,"Name":"Castleton","Lat":53.5907,"Lon":-2.1737,"CountryCode":null},{"ID":23661,"Name":"Caterham","Lat":51.2803,"Lon":-0.0816,"CountryCode":null},{"ID":12343,"Name":"Catford","Lat":51.4452,"Lon":-0.0207,"CountryCode":null},{"ID":21355,"Name":"Caversham","Lat":51.467,"Lon":-0.973,"CountryCode":null},{"ID":33297,"Name":"Chaddesden","Lat":52.9301,"Lon":-1.4383,"CountryCode":null},{"ID":34551,"Name":"Chalfont Saint Peter","Lat":51.607,"Lon":-0.556,"CountryCode":null},{"ID":23324,"Name":"Chandlers Ford","Lat":50.984,"Lon":-1.3792,"CountryCode":null},{"ID":45870,"Name":"Chapel en le Frith","Lat":53.322,"Lon":-1.917,"CountryCode":null},{"ID":41178,"Name":"Chapeltown","Lat":53.462,"Lon":-1.466,"CountryCode":null},{"ID":31847,"Name":"Chard","Lat":50.8728,"Lon":-2.9587,"CountryCode":null},{"ID":40088,"Name":"Charlton Kings","Lat":51.8877,"Lon":-2.0413,"CountryCode":null},{"ID":7707,"Name":"Chatham","Lat":51.37,"Lon":0.52,"CountryCode":null},{"ID":38409,"Name":"Chatteris","Lat":52.456,"Lon":0.055,"CountryCode":null},{"ID":35765,"Name":"Cheadle","Lat":52.9849,"Lon":-1.9865,"CountryCode":null},{"ID":19510,"Name":"Cheadle Hulme","Lat":53.3761,"Lon":-2.1897,"CountryCode":null},{"ID":40446,"Name":"Cheam","Lat":51.36,"Lon":-0.21,"CountryCode":null},{"ID":30347,"Name":"Chellaston","Lat":52.8671,"Lon":-1.4384,"CountryCode":null},{"ID":5402,"Name":"Chelmsford","Lat":51.73,"Lon":0.48,"CountryCode":null},{"ID":31470,"Name":"Chelsfield","Lat":51.3582,"Lon":0.1278,"CountryCode":null},{"ID":5344,"Name":"Cheltenham","Lat":51.9,"Lon":-2.0667,"CountryCode":null},{"ID":35384,"Name":"Chepstow","Lat":51.642,"Lon":-2.675,"CountryCode":null},{"ID":45360,"Name":"Cherry Hinton","Lat":52.1849,"Lon":0.176,"CountryCode":null},{"ID":29345,"Name":"Chertsey","Lat":51.3902,"Lon":-0.5074,"CountryCode":null},{"ID":23272,"Name":"Chesham","Lat":51.712,"Lon":-0.612,"CountryCode":null},{"ID":12129,"Name":"Cheshunt","Lat":51.702,"Lon":-0.035,"CountryCode":null},{"ID":6881,"Name":"Chester","Lat":53.19,"Lon":-2.89,"CountryCode":null},{"ID":39300,"Name":"Chesterfield","Lat":53.2363,"Lon":-1.4292,"CountryCode":null},{"ID":21101,"Name":"Chester-le-Street","Lat":54.8594,"Lon":-1.5699,"CountryCode":null},{"ID":17111,"Name":"Chichester","Lat":50.8365,"Lon":-0.7792,"CountryCode":null},{"ID":35196,"Name":"Chigwell","Lat":51.6225,"Lon":0.0723,"CountryCode":null},{"ID":32938,"Name":"Childwall","Lat":53.395,"Lon":-2.881,"CountryCode":null},{"ID":34367,"Name":"Chilwell","Lat":52.916,"Lon":-1.235,"CountryCode":null},{"ID":8325,"Name":"Chingford","Lat":51.623,"Lon":0.009,"CountryCode":null},{"ID":14786,"Name":"Chippenham","Lat":51.459,"Lon":-2.116,"CountryCode":null},{"ID":30970,"Name":"Chislehurst","Lat":51.412,"Lon":0.075,"CountryCode":null},{"ID":42123,"Name":"Choppington","Lat":55.145,"Lon":-1.601,"CountryCode":null},{"ID":14164,"Name":"Chorley","Lat":53.653,"Lon":-2.632,"CountryCode":null},{"ID":37713,"Name":"Chorleywood","Lat":51.65,"Lon":-0.51,"CountryCode":null},{"ID":10505,"Name":"Christchurch","Lat":50.73,"Lon":-1.78,"CountryCode":null},{"ID":38508,"Name":"Churchdown","Lat":51.88,"Lon":-2.17,"CountryCode":null},{"ID":45374,"Name":"Cinderford","Lat":51.8225,"Lon":-2.4989,"CountryCode":null},{"ID":25597,"Name":"Cirencester","Lat":51.719,"Lon":-1.968,"CountryCode":null},{"ID":11149,"Name":"Clacton-on-Sea","Lat":51.7918,"Lon":1.1457,"CountryCode":null},{"ID":43835,"Name":"Clay Cross","Lat":53.1637,"Lon":-1.4128,"CountryCode":null},{"ID":27994,"Name":"Clayton","Lat":53.782,"Lon":-1.8135,"CountryCode":null},{"ID":46255,"Name":"Clayton le Moors","Lat":53.775,"Lon":-2.384,"CountryCode":null},{"ID":28434,"Name":"Cleckheaton","Lat":53.725,"Lon":-1.719,"CountryCode":null},{"ID":13979,"Name":"Cleethorpes","Lat":53.5533,"Lon":-0.0215,"CountryCode":null},{"ID":22856,"Name":"Clevedon","Lat":51.438,"Lon":-2.854,"CountryCode":null},{"ID":22090,"Name":"Clifton","Lat":52.904,"Lon":-1.177,"CountryCode":null},{"ID":33100,"Name":"Clifton","Lat":53.9721,"Lon":-1.0979,"CountryCode":null},{"ID":34295,"Name":"Cliftonville","Lat":51.3881,"Lon":1.4046,"CountryCode":null},{"ID":27778,"Name":"Clitheroe","Lat":53.8711,"Lon":-2.3916,"CountryCode":null},{"ID":19614,"Name":"Clydebank","Lat":55.8997,"Lon":-4.4006,"CountryCode":null},{"ID":14422,"Name":"Coalville","Lat":52.724,"Lon":-1.369,"CountryCode":null},{"ID":12585,"Name":"Coatbridge","Lat":55.8625,"Lon":-4.0266,"CountryCode":null},{"ID":42262,"Name":"Cobham","Lat":51.329,"Lon":-0.409,"CountryCode":null},{"ID":45432,"Name":"Cockermouth","Lat":54.6613,"Lon":-3.362,"CountryCode":null},{"ID":5111,"Name":"Colchester","Lat":51.8917,"Lon":0.903,"CountryCode":null},{"ID":43656,"Name":"Coleford","Lat":51.791,"Lon":-2.6162,"CountryCode":null},{"ID":26935,"Name":"Colne","Lat":53.8554,"Lon":-2.1756,"CountryCode":null},{"ID":38523,"Name":"Colwyn Bay","Lat":53.29,"Lon":-3.7,"CountryCode":null},{"ID":17518,"Name":"Congleton","Lat":53.162,"Lon":-2.217,"CountryCode":null},{"ID":31765,"Name":"Conisbrough","Lat":53.479,"Lon":-1.227,"CountryCode":null},{"ID":28270,"Name":"Connahs Quay","Lat":53.218,"Lon":-3.057,"CountryCode":null},{"ID":19969,"Name":"Consett","Lat":54.85,"Lon":-1.83,"CountryCode":null},{"ID":31147,"Name":"Conwy","Lat":53.28,"Lon":-3.83,"CountryCode":null},{"ID":39405,"Name":"Cookstown","Lat":54.647,"Lon":-6.745,"CountryCode":null},{"ID":10401,"Name":"Corby","Lat":52.4877,"Lon":-0.7013,"CountryCode":null},{"ID":40887,"Name":"Corfe Mullen","Lat":50.7701,"Lon":-2.0175,"CountryCode":null},{"ID":33390,"Name":"Corsham","Lat":51.434,"Lon":-2.185,"CountryCode":null},{"ID":35361,"Name":"Coseley","Lat":52.55,"Lon":-2.083,"CountryCode":null},{"ID":32615,"Name":"Cosham","Lat":50.8424,"Lon":-1.066,"CountryCode":null},{"ID":35159,"Name":"Costessey","Lat":52.6602,"Lon":1.2161,"CountryCode":null},{"ID":27746,"Name":"Cottingham","Lat":53.7822,"Lon":-0.4136,"CountryCode":null},{"ID":20048,"Name":"Coulsdon","Lat":51.3211,"Lon":-0.1386,"CountryCode":null},{"ID":1938,"Name":"Coventry","Lat":52.4081,"Lon":-1.5106,"CountryCode":null},{"ID":36917,"Name":"Cowdenbeath","Lat":56.11,"Lon":-3.35,"CountryCode":null},{"ID":31714,"Name":"Cowes","Lat":50.7595,"Lon":-1.3002,"CountryCode":null},{"ID":28576,"Name":"Cowley","Lat":51.733,"Lon":-1.215,"CountryCode":null},{"ID":45376,"Name":"Cowley","Lat":51.528,"Lon":-0.481,"CountryCode":null},{"ID":17888,"Name":"Cramlington","Lat":55.082,"Lon":-1.585,"CountryCode":null},{"ID":37827,"Name":"Cranleigh","Lat":51.1363,"Lon":-0.4784,"CountryCode":null},{"ID":5790,"Name":"Crawley","Lat":51.1092,"Lon":-0.1872,"CountryCode":null},{"ID":37866,"Name":"Crayford","Lat":51.4491,"Lon":0.1812,"CountryCode":null},{"ID":8041,"Name":"Crewe","Lat":53.099,"Lon":-2.44,"CountryCode":null},{"ID":43665,"Name":"Crigglestone","Lat":53.644,"Lon":-1.5225,"CountryCode":null},{"ID":35179,"Name":"Cromer","Lat":52.931,"Lon":1.302,"CountryCode":null},{"ID":10934,"Name":"Crosby","Lat":53.4872,"Lon":-3.0343,"CountryCode":null},{"ID":24073,"Name":"Crowborough","Lat":51.06,"Lon":0.16,"CountryCode":null},{"ID":34952,"Name":"Croxley Green","Lat":51.647,"Lon":-0.445,"CountryCode":null},{"ID":3420,"Name":"Croydon","Lat":51.3727,"Lon":-0.1099,"CountryCode":null},{"ID":38539,"Name":"Cudworth","Lat":53.5784,"Lon":-1.4149,"CountryCode":null},{"ID":37349,"Name":"Culcheth","Lat":53.4517,"Lon":-2.5218,"CountryCode":null},{"ID":43896,"Name":"Cullercoats","Lat":55.033,"Lon":-1.433,"CountryCode":null},{"ID":11071,"Name":"Cumbernauld","Lat":55.945,"Lon":-3.994,"CountryCode":null},{"ID":45189,"Name":"Cumnock","Lat":55.4529,"Lon":-4.2638,"CountryCode":null},{"ID":44477,"Name":"Cupar","Lat":56.32,"Lon":-3.01,"CountryCode":null},{"ID":11561,"Name":"Cwmbran","Lat":51.653,"Lon":-3.021,"CountryCode":null},{"ID":5812,"Name":"Dagenham","Lat":51.5397,"Lon":0.1422,"CountryCode":null},{"ID":33334,"Name":"Dalkeith","Lat":55.8958,"Lon":-3.0583,"CountryCode":null},{"ID":39310,"Name":"Darfield","Lat":53.538,"Lon":-1.3812,"CountryCode":null},{"ID":18739,"Name":"Darlaston","Lat":52.5708,"Lon":-2.0457,"CountryCode":null},{"ID":6534,"Name":"Darlington","Lat":54.527,"Lon":-1.5526,"CountryCode":null},{"ID":11025,"Name":"Dartford","Lat":51.4444,"Lon":0.2172,"CountryCode":null},{"ID":23412,"Name":"Darton","Lat":53.585,"Lon":-1.5325,"CountryCode":null},{"ID":16811,"Name":"Darwen","Lat":53.698,"Lon":-2.461,"CountryCode":null},{"ID":20492,"Name":"Daventry","Lat":52.2578,"Lon":-1.1628,"CountryCode":null},{"ID":25037,"Name":"Davyhulme","Lat":53.4559,"Lon":-2.3683,"CountryCode":null},{"ID":37472,"Name":"Dawley","Lat":52.663,"Lon":-2.467,"CountryCode":null},{"ID":30259,"Name":"Dawlish","Lat":50.581,"Lon":-3.466,"CountryCode":null},{"ID":17115,"Name":"Deal","Lat":51.2226,"Lon":1.4006,"CountryCode":null},{"ID":44671,"Name":"Denbigh","Lat":53.1854,"Lon":-3.4178,"CountryCode":null},{"ID":28750,"Name":"Denby Dale","Lat":53.572,"Lon":-1.655,"CountryCode":null},{"ID":14776,"Name":"Denton","Lat":53.4554,"Lon":-2.1122,"CountryCode":null},{"ID":2508,"Name":"Derby","Lat":52.9247,"Lon":-1.478,"CountryCode":null},{"ID":7060,"Name":"Derry","Lat":54.9975,"Lon":-7.32,"CountryCode":null},{"ID":39274,"Name":"Desborough","Lat":52.4398,"Lon":-0.8172,"CountryCode":null},{"ID":28190,"Name":"Devizes","Lat":51.3528,"Lon":-1.9958,"CountryCode":null},{"ID":9214,"Name":"Dewsbury","Lat":53.691,"Lon":-1.633,"CountryCode":null},{"ID":31505,"Name":"Deysbrook","Lat":53.429,"Lon":-2.934,"CountryCode":null},{"ID":16526,"Name":"Didcot","Lat":51.606,"Lon":-1.241,"CountryCode":null},{"ID":33621,"Name":"Dingle","Lat":53.3774,"Lon":-2.9613,"CountryCode":null},{"ID":44309,"Name":"Dinnington","Lat":53.3667,"Lon":-1.2,"CountryCode":null},{"ID":39219,"Name":"Diss","Lat":52.3812,"Lon":1.1079,"CountryCode":null},{"ID":42152,"Name":"Dodworth","Lat":53.5417,"Lon":-1.5214,"CountryCode":null},{"ID":31614,"Name":"Dollis Hill","Lat":51.5641,"Lon":-0.2341,"CountryCode":null},{"ID":5640,"Name":"Doncaster","Lat":53.5231,"Lon":-1.1339,"CountryCode":null},{"ID":24514,"Name":"Dorchester","Lat":50.7154,"Lon":-2.4367,"CountryCode":null},{"ID":38032,"Name":"Dorking","Lat":51.2325,"Lon":-0.3306,"CountryCode":null},{"ID":38077,"Name":"Dorridge","Lat":52.372,"Lon":-1.7554,"CountryCode":null},{"ID":17066,"Name":"Dover","Lat":51.1295,"Lon":1.3089,"CountryCode":null},{"ID":41471,"Name":"Downham Market","Lat":52.6,"Lon":0.39,"CountryCode":null},{"ID":37134,"Name":"Downpatrick","Lat":54.322,"Lon":-5.703,"CountryCode":null},{"ID":20490,"Name":"Droitwich","Lat":52.267,"Lon":-2.153,"CountryCode":null},{"ID":23482,"Name":"Dronfield","Lat":53.3024,"Lon":-1.4664,"CountryCode":null},{"ID":21509,"Name":"Droylsden","Lat":53.4828,"Lon":-2.1582,"CountryCode":null},{"ID":7479,"Name":"Dudley","Lat":52.508,"Lon":-2.089,"CountryCode":null},{"ID":25348,"Name":"Dukinfield","Lat":53.4739,"Lon":-2.0828,"CountryCode":null},{"ID":24125,"Name":"Dumbarton","Lat":55.95,"Lon":-4.5667,"CountryCode":null},{"ID":16447,"Name":"Dumfries","Lat":55.07,"Lon":-3.603,"CountryCode":null},{"ID":44448,"Name":"Dunbar","Lat":56.0027,"Lon":-2.5169,"CountryCode":null},{"ID":43256,"Name":"Dunblane","Lat":56.1838,"Lon":-3.9674,"CountryCode":null},{"ID":4305,"Name":"Dundee","Lat":56.462,"Lon":-2.9707,"CountryCode":null},{"ID":10688,"Name":"Dunfermline","Lat":56.0719,"Lon":-3.4393,"CountryCode":null},{"ID":28853,"Name":"Dungannon","Lat":54.5,"Lon":-6.77,"CountryCode":null},{"ID":13442,"Name":"Dunstable","Lat":51.886,"Lon":-0.521,"CountryCode":null},{"ID":11645,"Name":"Durham","Lat":54.7761,"Lon":-1.5733,"CountryCode":null},{"ID":7062,"Name":"Ealing","Lat":51.5175,"Lon":-0.2988,"CountryCode":null},{"ID":38922,"Name":"Earlestown","Lat":53.45,"Lon":-2.65,"CountryCode":null},{"ID":16595,"Name":"Earley","Lat":51.433,"Lon":-0.933,"CountryCode":null},{"ID":29055,"Name":"East Barnet","Lat":51.643,"Lon":-0.163,"CountryCode":null},{"ID":26088,"Name":"East Dereham","Lat":52.681,"Lon":0.94,"CountryCode":null},{"ID":29303,"Name":"East Finchley","Lat":51.5902,"Lon":-0.1753,"CountryCode":null},{"ID":19573,"Name":"East Grinstead","Lat":51.1286,"Lon":-0.0144,"CountryCode":null},{"ID":7768,"Name":"East Ham","Lat":51.5323,"Lon":0.0554,"CountryCode":null},{"ID":7867,"Name":"East Kilbride","Lat":55.7644,"Lon":-4.1769,"CountryCode":null},{"ID":46152,"Name":"East Leake","Lat":52.832,"Lon":-1.177,"CountryCode":null},{"ID":21467,"Name":"East Retford","Lat":53.3228,"Lon":-0.9431,"CountryCode":null},{"ID":6055,"Name":"Eastbourne","Lat":50.77,"Lon":0.28,"CountryCode":null},{"ID":32518,"Name":"Eastham","Lat":53.313,"Lon":-2.962,"CountryCode":null},{"ID":7540,"Name":"Eastleigh","Lat":50.9667,"Lon":-1.35,"CountryCode":null},{"ID":26082,"Name":"Eastwood","Lat":53.018,"Lon":-1.304,"CountryCode":null},{"ID":26148,"Name":"Ebbw Vale","Lat":51.78,"Lon":-3.21,"CountryCode":null},{"ID":14056,"Name":"Eccles","Lat":53.4824,"Lon":-2.339,"CountryCode":null},{"ID":25440,"Name":"Ecclesall","Lat":53.362,"Lon":-1.498,"CountryCode":null},{"ID":16792,"Name":"Ecclesfield","Lat":53.4429,"Lon":-1.4698,"CountryCode":null},{"ID":39983,"Name":"Eccleston","Lat":53.4539,"Lon":-2.7748,"CountryCode":null},{"ID":36452,"Name":"Eckington","Lat":53.308,"Lon":-1.3643,"CountryCode":null},{"ID":9810,"Name":"Edgware","Lat":51.6185,"Lon":-0.2729,"CountryCode":null},{"ID":1516,"Name":"Edinburgh","Lat":55.9533,"Lon":-3.1892,"CountryCode":null},{"ID":7243,"Name":"Edmonton","Lat":51.6154,"Lon":-0.0708,"CountryCode":null},{"ID":33413,"Name":"Egg Buckland","Lat":50.4006,"Lon":-4.1136,"CountryCode":null},{"ID":21908,"Name":"Elgin","Lat":57.6486,"Lon":-3.3153,"CountryCode":null},{"ID":36846,"Name":"Elland","Lat":53.683,"Lon":-1.84,"CountryCode":null},{"ID":9457,"Name":"Ellesmere Port","Lat":53.279,"Lon":-2.897,"CountryCode":null},{"ID":40699,"Name":"Ellon","Lat":57.366,"Lon":-2.086,"CountryCode":null},{"ID":11481,"Name":"Eltham","Lat":51.451,"Lon":0.052,"CountryCode":null},{"ID":24404,"Name":"Ely","Lat":52.3981,"Lon":0.2622,"CountryCode":null},{"ID":43024,"Name":"Emsworth","Lat":50.849,"Lon":-0.938,"CountryCode":null},{"ID":4083,"Name":"Enfield","Lat":51.6522,"Lon":-0.0808,"CountryCode":null},{"ID":28613,"Name":"Enfield Lock","Lat":51.6686,"Lon":-0.026,"CountryCode":null},{"ID":39495,"Name":"Englefield Green","Lat":51.4301,"Lon":-0.5699,"CountryCode":null},{"ID":32625,"Name":"Enniskillen","Lat":54.3447,"Lon":-7.6389,"CountryCode":null},{"ID":38324,"Name":"Epping","Lat":51.7004,"Lon":0.1087,"CountryCode":null},{"ID":16844,"Name":"Epsom","Lat":51.3331,"Lon":-0.2686,"CountryCode":null},{"ID":22182,"Name":"Erdington","Lat":52.5236,"Lon":-1.8378,"CountryCode":null},{"ID":12225,"Name":"Erith","Lat":51.48,"Lon":0.1778,"CountryCode":null},{"ID":11077,"Name":"Esher","Lat":51.3691,"Lon":-0.365,"CountryCode":null},{"ID":41474,"Name":"Euxton","Lat":53.662,"Lon":-2.674,"CountryCode":null},{"ID":22555,"Name":"Evesham","Lat":52.092,"Lon":-1.947,"CountryCode":null},{"ID":38102,"Name":"Evington","Lat":52.628,"Lon":-1.074,"CountryCode":null},{"ID":15457,"Name":"Ewell","Lat":51.35,"Lon":-0.249,"CountryCode":null},{"ID":5032,"Name":"Exeter","Lat":50.7256,"Lon":-3.5269,"CountryCode":null},{"ID":15620,"Name":"Exmouth","Lat":50.62,"Lon":-3.413,"CountryCode":null},{"ID":24006,"Name":"Failsworth","Lat":53.5102,"Lon":-2.1575,"CountryCode":null},{"ID":15038,"Name":"Falkirk","Lat":56.0011,"Lon":-3.7835,"CountryCode":null},{"ID":23006,"Name":"Falmouth","Lat":50.15,"Lon":-5.07,"CountryCode":null},{"ID":12998,"Name":"Fareham","Lat":50.85,"Lon":-1.18,"CountryCode":null},{"ID":8957,"Name":"Farnborough","Lat":51.29,"Lon":-0.75,"CountryCode":null},{"ID":31273,"Name":"Farnborough","Lat":51.3591,"Lon":0.0741,"CountryCode":null},{"ID":20099,"Name":"Farnham","Lat":51.215,"Lon":-0.799,"CountryCode":null},{"ID":21112,"Name":"Farnley","Lat":53.7876,"Lon":-1.6159,"CountryCode":null},{"ID":19240,"Name":"Farnworth","Lat":53.5452,"Lon":-2.3999,"CountryCode":null},{"ID":22362,"Name":"Farsley","Lat":53.8116,"Lon":-1.6718,"CountryCode":null},{"ID":25334,"Name":"Faversham","Lat":51.3177,"Lon":0.8928,"CountryCode":null},{"ID":28250,"Name":"Fazakerley","Lat":53.4676,"Lon":-2.9408,"CountryCode":null},{"ID":30283,"Name":"Featherstone","Lat":53.7,"Lon":-1.37,"CountryCode":null},{"ID":20926,"Name":"Felixstowe","Lat":51.9639,"Lon":1.3515,"CountryCode":null},{"ID":44920,"Name":"Felling","Lat":54.95,"Lon":-1.564,"CountryCode":null},{"ID":42243,"Name":"Felpham","Lat":50.7905,"Lon":-0.6539,"CountryCode":null},{"ID":9157,"Name":"Feltham","Lat":51.4496,"Lon":-0.4089,"CountryCode":null},{"ID":39494,"Name":"Felton","Lat":51.51,"Lon":-2.574,"CountryCode":null},{"ID":35967,"Name":"Fenton","Lat":52.9977,"Lon":-2.1578,"CountryCode":null},{"ID":27137,"Name":"Fern Down","Lat":50.81,"Lon":-1.9,"CountryCode":null},{"ID":44809,"Name":"Ferryhill","Lat":54.69,"Lon":-1.55,"CountryCode":null},{"ID":8855,"Name":"Finchley","Lat":51.599,"Lon":-0.187,"CountryCode":null},{"ID":12831,"Name":"Fleet","Lat":51.2834,"Lon":-0.8456,"CountryCode":null},{"ID":19873,"Name":"Fleetwood","Lat":53.922,"Lon":-3.012,"CountryCode":null},{"ID":34199,"Name":"Flint","Lat":53.2482,"Lon":-3.1358,"CountryCode":null},{"ID":34674,"Name":"Flitwick","Lat":52.0038,"Lon":-0.4966,"CountryCode":null},{"ID":39025,"Name":"Flixton","Lat":53.447,"Lon":-2.391,"CountryCode":null},{"ID":22443,"Name":"Foleshill","Lat":52.4255,"Lon":-1.502,"CountryCode":null},{"ID":11004,"Name":"Folkestone","Lat":51.0792,"Lon":1.1794,"CountryCode":null},{"ID":31941,"Name":"Forfar","Lat":56.6442,"Lon":-2.8884,"CountryCode":null},{"ID":22484,"Name":"Formby","Lat":53.5586,"Lon":-3.0666,"CountryCode":null},{"ID":40996,"Name":"Forres","Lat":57.608,"Lon":-3.62,"CountryCode":null},{"ID":40767,"Name":"Fort William","Lat":56.8198,"Lon":-5.1052,"CountryCode":null},{"ID":33732,"Name":"Fraserburgh","Lat":57.693,"Lon":-2.005,"CountryCode":null},{"ID":27647,"Name":"Friern Barnet","Lat":51.6126,"Lon":-0.1584,"CountryCode":null},{"ID":25575,"Name":"Frimley","Lat":51.3143,"Lon":-0.7387,"CountryCode":null},{"ID":43578,"Name":"Frodsham","Lat":53.2947,"Lon":-2.7289,"CountryCode":null},{"ID":18330,"Name":"Frome","Lat":51.2279,"Lon":-2.3215,"CountryCode":null},{"ID":6910,"Name":"Fulham","Lat":51.4828,"Lon":-0.195,"CountryCode":null},{"ID":26497,"Name":"Fulwood","Lat":53.365,"Lon":-1.544,"CountryCode":null},{"ID":22170,"Name":"Gainsborough","Lat":53.4016,"Lon":-0.7732,"CountryCode":null},{"ID":34105,"Name":"Galashiels","Lat":55.6194,"Lon":-2.8033,"CountryCode":null},{"ID":24886,"Name":"Garforth","Lat":53.792,"Lon":-1.388,"CountryCode":null},{"ID":5183,"Name":"Gateshead","Lat":54.9556,"Lon":-1.6,"CountryCode":null},{"ID":35492,"Name":"Giffnock","Lat":55.8051,"Lon":-4.2946,"CountryCode":null},{"ID":36679,"Name":"Gillingham","Lat":51.0375,"Lon":-2.2748,"CountryCode":null},{"ID":5918,"Name":"Gillingham","Lat":51.385,"Lon":0.55,"CountryCode":null},{"ID":1190,"Name":"Glasgow","Lat":55.8611,"Lon":-4.25,"CountryCode":null},{"ID":44844,"Name":"Glastonbury","Lat":51.1485,"Lon":-2.714,"CountryCode":null},{"ID":27714,"Name":"Glen Parva","Lat":52.5867,"Lon":-1.1617,"CountryCode":null},{"ID":42556,"Name":"Glenfield","Lat":52.6491,"Lon":-1.2062,"CountryCode":null},{"ID":14133,"Name":"Glenrothes","Lat":56.198,"Lon":-3.178,"CountryCode":null},{"ID":16078,"Name":"Glossop","Lat":53.443,"Lon":-1.949,"CountryCode":null},{"ID":4379,"Name":"Gloucester","Lat":51.8667,"Lon":-2.25,"CountryCode":null},{"ID":8752,"Name":"Godalming","Lat":51.1855,"Lon":-0.6155,"CountryCode":null},{"ID":21148,"Name":"Golborne","Lat":53.4758,"Lon":-2.5943,"CountryCode":null},{"ID":33938,"Name":"Goodmayes","Lat":51.5631,"Lon":0.1133,"CountryCode":null},{"ID":25148,"Name":"Goole","Lat":53.6992,"Lon":-0.8692,"CountryCode":null},{"ID":20699,"Name":"Gorleston-on-Sea","Lat":52.5757,"Lon":1.7235,"CountryCode":null},{"ID":34124,"Name":"Gornalwood","Lat":52.523,"Lon":-2.124,"CountryCode":null},{"ID":21552,"Name":"Gosforth","Lat":55.007,"Lon":-1.623,"CountryCode":null},{"ID":8218,"Name":"Gosport","Lat":50.7948,"Lon":-1.1243,"CountryCode":null},{"ID":40223,"Name":"Gourock","Lat":55.9538,"Lon":-4.8173,"CountryCode":null},{"ID":28405,"Name":"Grangemouth","Lat":56.012,"Lon":-3.717,"CountryCode":null},{"ID":15547,"Name":"Grantham","Lat":52.918,"Lon":-0.638,"CountryCode":null},{"ID":7967,"Name":"Gravesend","Lat":51.4415,"Lon":0.3685,"CountryCode":null},{"ID":8743,"Name":"Grays","Lat":51.475,"Lon":0.33,"CountryCode":null},{"ID":37826,"Name":"Greasley","Lat":53.02,"Lon":-1.27,"CountryCode":null},{"ID":31250,"Name":"Great Baddow","Lat":51.719,"Lon":0.507,"CountryCode":null},{"ID":37534,"Name":"Great Bookham","Lat":51.278,"Lon":-0.373,"CountryCode":null},{"ID":44921,"Name":"Great Cornard","Lat":52.0245,"Lon":0.7497,"CountryCode":null},{"ID":33915,"Name":"Great Driffield","Lat":54.005,"Lon":-0.438,"CountryCode":null},{"ID":40087,"Name":"Great Dunmow","Lat":51.871,"Lon":0.364,"CountryCode":null},{"ID":38763,"Name":"Great Harwood","Lat":53.786,"Lon":-2.408,"CountryCode":null},{"ID":25301,"Name":"Great Linford","Lat":52.068,"Lon":-0.7637,"CountryCode":null},{"ID":40871,"Name":"Great Missenden","Lat":51.7042,"Lon":-0.7078,"CountryCode":null},{"ID":21114,"Name":"Great Sankey","Lat":53.3918,"Lon":-2.6383,"CountryCode":null},{"ID":38282,"Name":"Great Wyrley","Lat":52.6593,"Lon":-2.0102,"CountryCode":null},{"ID":14078,"Name":"Great Yarmouth","Lat":52.606,"Lon":1.729,"CountryCode":null},{"ID":11904,"Name":"Greenford","Lat":51.5299,"Lon":-0.3488,"CountryCode":null},{"ID":13066,"Name":"Greenock","Lat":55.95,"Lon":-4.765,"CountryCode":null},{"ID":37486,"Name":"Greetland","Lat":53.6869,"Lon":-1.8714,"CountryCode":null},{"ID":6837,"Name":"Grimsby","Lat":53.5675,"Lon":-0.08,"CountryCode":null},{"ID":7686,"Name":"Guildford","Lat":51.2365,"Lon":-0.5703,"CountryCode":null},{"ID":27998,"Name":"Guisborough","Lat":54.535,"Lon":-1.0563,"CountryCode":null},{"ID":9081,"Name":"Guiseley","Lat":53.875,"Lon":-1.706,"CountryCode":null},{"ID":36732,"Name":"Hackney","Lat":51.541,"Lon":-0.027,"CountryCode":null},{"ID":44123,"Name":"Haddington","Lat":55.956,"Lon":-2.781,"CountryCode":null},{"ID":26429,"Name":"Hadleigh","Lat":51.5535,"Lon":0.6095,"CountryCode":null},{"ID":24217,"Name":"Hailsham","Lat":50.8647,"Lon":0.2577,"CountryCode":null},{"ID":9882,"Name":"Halesowen","Lat":52.4502,"Lon":-2.0509,"CountryCode":null},{"ID":24538,"Name":"Halewood","Lat":53.3599,"Lon":-2.84,"CountryCode":null},{"ID":5923,"Name":"Halifax","Lat":53.725,"Lon":-1.863,"CountryCode":null},{"ID":36348,"Name":"Halstead","Lat":51.9451,"Lon":0.6411,"CountryCode":null},{"ID":10672,"Name":"Hamilton","Lat":55.777,"Lon":-4.039,"CountryCode":null},{"ID":6367,"Name":"Hammersmith","Lat":51.4928,"Lon":-0.2229,"CountryCode":null},{"ID":11498,"Name":"Hampstead","Lat":51.5541,"Lon":-0.1744,"CountryCode":null},{"ID":24687,"Name":"Hampton","Lat":51.422,"Lon":-0.367,"CountryCode":null},{"ID":33801,"Name":"Hamworthy","Lat":50.7207,"Lon":-2.0109,"CountryCode":null},{"ID":41601,"Name":"Handsworth","Lat":53.37,"Lon":-1.4,"CountryCode":null},{"ID":18225,"Name":"Hanwell","Lat":51.509,"Lon":-0.338,"CountryCode":null},{"ID":22014,"Name":"Harborne","Lat":52.46,"Lon":-1.95,"CountryCode":null},{"ID":7266,"Name":"Harlow","Lat":51.779,"Lon":0.128,"CountryCode":null},{"ID":17427,"Name":"Harpenden","Lat":51.8175,"Lon":-0.3524,"CountryCode":null},{"ID":8012,"Name":"Harrogate","Lat":53.9919,"Lon":-1.5378,"CountryCode":null},{"ID":4277,"Name":"Harrow","Lat":51.5836,"Lon":-0.3464,"CountryCode":null},{"ID":35562,"Name":"Harrow on the Hill","Lat":51.5655,"Lon":-0.3327,"CountryCode":null},{"ID":37530,"Name":"Harrow Weald","Lat":51.604,"Lon":-0.339,"CountryCode":null},{"ID":6849,"Name":"Hartlepool","Lat":54.69,"Lon":-1.21,"CountryCode":null},{"ID":27098,"Name":"Harwich","Lat":51.934,"Lon":1.266,"CountryCode":null},{"ID":28200,"Name":"Haslemere","Lat":51.09,"Lon":-0.712,"CountryCode":null},{"ID":28173,"Name":"Haslingden","Lat":53.705,"Lon":-2.328,"CountryCode":null},{"ID":6646,"Name":"Hastings","Lat":50.85,"Lon":0.57,"CountryCode":null},{"ID":39291,"Name":"Hatch End","Lat":51.601,"Lon":-0.3743,"CountryCode":null},{"ID":27664,"Name":"Hatfield","Lat":53.58,"Lon":-1,"CountryCode":null},{"ID":13274,"Name":"Hatfield","Lat":51.7636,"Lon":-0.2258,"CountryCode":null},{"ID":12132,"Name":"Havant","Lat":50.8517,"Lon":-0.9842,"CountryCode":null},{"ID":19158,"Name":"Haverhill","Lat":52.08,"Lon":0.44,"CountryCode":null},{"ID":32771,"Name":"Hawick","Lat":55.422,"Lon":-2.787,"CountryCode":null},{"ID":37439,"Name":"Haydock","Lat":53.4678,"Lon":-2.6609,"CountryCode":null},{"ID":29417,"Name":"Hayes","Lat":51.378,"Lon":0.0192,"CountryCode":null},{"ID":6482,"Name":"Hayes","Lat":51.5127,"Lon":-0.4211,"CountryCode":null},{"ID":43282,"Name":"Hayle","Lat":50.186,"Lon":-5.419,"CountryCode":null},{"ID":22209,"Name":"Haywards Heath","Lat":51.0048,"Lon":-0.0979,"CountryCode":null},{"ID":32255,"Name":"Hazel Grove","Lat":53.375,"Lon":-2.111,"CountryCode":null},{"ID":27646,"Name":"Heanor","Lat":53.014,"Lon":-1.354,"CountryCode":null},{"ID":28592,"Name":"Hebburn","Lat":54.972,"Lon":-1.513,"CountryCode":null},{"ID":26586,"Name":"Heckmondwike","Lat":53.708,"Lon":-1.67,"CountryCode":null},{"ID":27531,"Name":"Hednesford","Lat":52.7115,"Lon":-2.0006,"CountryCode":null},{"ID":32937,"Name":"Helensburgh","Lat":56.0166,"Lon":-4.7333,"CountryCode":null},{"ID":38599,"Name":"Hellesdon","Lat":52.6485,"Lon":1.2509,"CountryCode":null},{"ID":42145,"Name":"Helston","Lat":50.1,"Lon":-5.27,"CountryCode":null},{"ID":6439,"Name":"Hemel Hempstead","Lat":51.7526,"Lon":-0.4692,"CountryCode":null},{"ID":33128,"Name":"Hemsworth","Lat":53.61,"Lon":-1.35,"CountryCode":null},{"ID":15027,"Name":"Hendon","Lat":51.5837,"Lon":-0.2252,"CountryCode":null},{"ID":36962,"Name":"Henley on Thames","Lat":51.5357,"Lon":-0.903,"CountryCode":null},{"ID":10686,"Name":"Hereford","Lat":52.056,"Lon":-2.716,"CountryCode":null},{"ID":14177,"Name":"Herne Bay","Lat":51.37,"Lon":1.13,"CountryCode":null},{"ID":35258,"Name":"Hersham","Lat":51.3681,"Lon":-0.4008,"CountryCode":null},{"ID":20743,"Name":"Hertford","Lat":51.7966,"Lon":-0.0774,"CountryCode":null},{"ID":30701,"Name":"Hessle","Lat":53.7239,"Lon":-0.4319,"CountryCode":null},{"ID":33329,"Name":"Heswall","Lat":53.328,"Lon":-3.099,"CountryCode":null},{"ID":31657,"Name":"Hetton le Hole","Lat":54.821,"Lon":-1.449,"CountryCode":null},{"ID":38081,"Name":"Hexham","Lat":54.971,"Lon":-2.101,"CountryCode":null},{"ID":27924,"Name":"Heysham","Lat":54.046,"Lon":-2.894,"CountryCode":null},{"ID":18523,"Name":"Heywood","Lat":53.59,"Lon":-2.219,"CountryCode":null},{"ID":28091,"Name":"High Blantyre","Lat":55.7936,"Lon":-4.0919,"CountryCode":null},{"ID":5174,"Name":"High Wycombe","Lat":51.6287,"Lon":-0.7482,"CountryCode":null},{"ID":19399,"Name":"Highbury","Lat":51.552,"Lon":-0.097,"CountryCode":null},{"ID":38605,"Name":"Highgate","Lat":51.5716,"Lon":-0.1448,"CountryCode":null},{"ID":33095,"Name":"Hilsea","Lat":50.83,"Lon":-1.07,"CountryCode":null},{"ID":12241,"Name":"Hinckley","Lat":52.5413,"Lon":-1.3725,"CountryCode":null},{"ID":20514,"Name":"Hindley","Lat":53.5355,"Lon":-2.5658,"CountryCode":null},{"ID":37677,"Name":"Hipperholme","Lat":53.7258,"Lon":-1.812,"CountryCode":null},{"ID":15684,"Name":"Hitchin","Lat":51.947,"Lon":-0.283,"CountryCode":null},{"ID":42628,"Name":"Hockley","Lat":51.6014,"Lon":0.6363,"CountryCode":null},{"ID":12986,"Name":"Hoddesdon","Lat":51.759,"Lon":-0.015,"CountryCode":null},{"ID":39907,"Name":"Holbeach","Lat":52.8037,"Lon":0.0154,"CountryCode":null},{"ID":34012,"Name":"Holborn","Lat":51.5204,"Lon":-0.1136,"CountryCode":null},{"ID":38696,"Name":"Hollinwood","Lat":53.5183,"Lon":-2.144,"CountryCode":null},{"ID":37409,"Name":"Holyhead","Lat":53.309,"Lon":-4.633,"CountryCode":null},{"ID":44988,"Name":"Holywell","Lat":53.274,"Lon":-3.223,"CountryCode":null},{"ID":38040,"Name":"Honiton","Lat":50.8,"Lon":-3.19,"CountryCode":null},{"ID":41291,"Name":"Horbury","Lat":53.6595,"Lon":-1.5324,"CountryCode":null},{"ID":22767,"Name":"Horley","Lat":51.174,"Lon":-0.172,"CountryCode":null},{"ID":9134,"Name":"Hornchurch","Lat":51.5565,"Lon":0.2128,"CountryCode":null},{"ID":34797,"Name":"Horndean","Lat":50.9136,"Lon":-0.9961,"CountryCode":null},{"ID":34752,"Name":"Hornsey","Lat":51.587,"Lon":-0.118,"CountryCode":null},{"ID":43324,"Name":"Horsell","Lat":51.3286,"Lon":-0.5617,"CountryCode":null},{"ID":25790,"Name":"Horsforth","Lat":53.837,"Lon":-1.643,"CountryCode":null},{"ID":11070,"Name":"Horsham","Lat":51.062,"Lon":-0.325,"CountryCode":null},{"ID":24583,"Name":"Horwich","Lat":53.592,"Lon":-2.54,"CountryCode":null},{"ID":14727,"Name":"Houghton le Spring","Lat":54.841,"Lon":-1.468,"CountryCode":null},{"ID":27610,"Name":"Houghton Regis","Lat":51.9039,"Lon":-0.5247,"CountryCode":null},{"ID":5963,"Name":"Hounslow","Lat":51.4668,"Lon":-0.375,"CountryCode":null},{"ID":6596,"Name":"Hove","Lat":50.8352,"Lon":-0.1758,"CountryCode":null},{"ID":36456,"Name":"Hoyland Nether","Lat":53.4985,"Lon":-1.4406,"CountryCode":null},{"ID":45202,"Name":"Hucclecote","Lat":51.85,"Lon":-2.18,"CountryCode":null},{"ID":3945,"Name":"Huddersfield","Lat":53.645,"Lon":-1.7798,"CountryCode":null},{"ID":21475,"Name":"Huntingdon","Lat":52.3364,"Lon":-0.1717,"CountryCode":null},{"ID":35868,"Name":"Huntington","Lat":53.9926,"Lon":-1.043,"CountryCode":null},{"ID":16141,"Name":"Huyton","Lat":53.4111,"Lon":-2.8403,"CountryCode":null},{"ID":36020,"Name":"Hwlffordd","Lat":51.8,"Lon":-4.97,"CountryCode":null},{"ID":15018,"Name":"Hyde","Lat":53.4474,"Lon":-2.082,"CountryCode":null},{"ID":32040,"Name":"Hythe","Lat":51.0716,"Lon":1.084,"CountryCode":null},{"ID":24163,"Name":"Hythe","Lat":50.869,"Lon":-1.399,"CountryCode":null},{"ID":40117,"Name":"Ickenham","Lat":51.558,"Lon":-0.4484,"CountryCode":null},{"ID":45002,"Name":"Ifield","Lat":51.1234,"Lon":-0.2073,"CountryCode":null},{"ID":3834,"Name":"Ilford","Lat":51.5575,"Lon":0.0858,"CountryCode":null},{"ID":37964,"Name":"Ilfracombe","Lat":51.208,"Lon":-4.12,"CountryCode":null},{"ID":14096,"Name":"Ilkeston","Lat":52.9711,"Lon":-1.3092,"CountryCode":null},{"ID":31005,"Name":"Ilkley","Lat":53.925,"Lon":-1.822,"CountryCode":null},{"ID":42561,"Name":"Immingham","Lat":53.6139,"Lon":-0.2183,"CountryCode":null},{"ID":29728,"Name":"Ince-in-Makerfield","Lat":53.5402,"Lon":-2.599,"CountryCode":null},{"ID":13654,"Name":"Inverness","Lat":57.4778,"Lon":-4.2247,"CountryCode":null},{"ID":38782,"Name":"Inverurie","Lat":57.28,"Lon":-2.38,"CountryCode":null},{"ID":4203,"Name":"Ipswich","Lat":52.0594,"Lon":1.1556,"CountryCode":null},{"ID":24766,"Name":"Irlam","Lat":53.445,"Lon":-2.422,"CountryCode":null},{"ID":43505,"Name":"Irthlingborough","Lat":52.324,"Lon":-0.614,"CountryCode":null},{"ID":15939,"Name":"Irvine","Lat":55.6201,"Lon":-4.6614,"CountryCode":null},{"ID":3210,"Name":"Islington","Lat":51.544,"Lon":-0.1027,"CountryCode":null},{"ID":38141,"Name":"Iver","Lat":51.521,"Lon":-0.507,"CountryCode":null},{"ID":36460,"Name":"Ivybridge","Lat":50.389,"Lon":-3.921,"CountryCode":null},{"ID":18907,"Name":"Jarrow","Lat":54.9814,"Lon":-1.49,"CountryCode":null},{"ID":29123,"Name":"Johnstone","Lat":55.8346,"Lon":-4.5027,"CountryCode":null},{"ID":31972,"Name":"Kearsley","Lat":53.53,"Lon":-2.37,"CountryCode":null},{"ID":10647,"Name":"Keighley","Lat":53.867,"Lon":-1.911,"CountryCode":null},{"ID":25212,"Name":"Kempston","Lat":52.114,"Lon":-0.497,"CountryCode":null},{"ID":17794,"Name":"Kendal","Lat":54.326,"Lon":-2.745,"CountryCode":null},{"ID":22398,"Name":"Kenilworth","Lat":52.341,"Lon":-1.566,"CountryCode":null},{"ID":30772,"Name":"Kenley","Lat":51.3242,"Lon":-0.0969,"CountryCode":null},{"ID":9000,"Name":"Kensington","Lat":51.5,"Lon":-0.19,"CountryCode":null},{"ID":15126,"Name":"Kenton","Lat":51.5878,"Lon":-0.3086,"CountryCode":null},{"ID":10183,"Name":"Kettering","Lat":52.3931,"Lon":-0.7229,"CountryCode":null},{"ID":30854,"Name":"Kew Green","Lat":51.5308,"Lon":-0.2248,"CountryCode":null},{"ID":28414,"Name":"Keynsham","Lat":51.4135,"Lon":-2.4968,"CountryCode":null},{"ID":31825,"Name":"Kidbrooke","Lat":51.4621,"Lon":0.0273,"CountryCode":null},{"ID":10291,"Name":"Kidderminster","Lat":52.3885,"Lon":-2.249,"CountryCode":null},{"ID":32808,"Name":"Kidlington","Lat":51.8231,"Lon":-1.2903,"CountryCode":null},{"ID":21458,"Name":"Kidsgrove","Lat":53.0874,"Lon":-2.2478,"CountryCode":null},{"ID":43146,"Name":"Killamarsh","Lat":53.3205,"Lon":-1.3116,"CountryCode":null},{"ID":24573,"Name":"Killingworth","Lat":55.0318,"Lon":-1.5557,"CountryCode":null},{"ID":12005,"Name":"Kilmarnock","Lat":55.6111,"Lon":-4.4957,"CountryCode":null},{"ID":41052,"Name":"Kilsyth","Lat":55.98,"Lon":-4.06,"CountryCode":null},{"ID":28624,"Name":"Kilwinning","Lat":55.655,"Lon":-4.703,"CountryCode":null},{"ID":12836,"Name":"King's Lynn","Lat":52.754,"Lon":0.398,"CountryCode":null},{"ID":20970,"Name":"Kings Norton","Lat":52.4072,"Lon":-1.9272,"CountryCode":null},{"ID":37821,"Name":"Kingsnorth","Lat":51.1178,"Lon":0.8615,"CountryCode":null},{"ID":39517,"Name":"Kingsteignton","Lat":50.5458,"Lon":-3.5962,"CountryCode":null},{"ID":2221,"Name":"Kingston upon Hull","Lat":53.7444,"Lon":-0.3325,"CountryCode":null},{"ID":12793,"Name":"Kingston upon Thames","Lat":51.4103,"Lon":-0.2995,"CountryCode":null},{"ID":20376,"Name":"Kingswinford","Lat":52.4981,"Lon":-2.1657,"CountryCode":null},{"ID":13431,"Name":"Kingswood","Lat":51.46,"Lon":-2.505,"CountryCode":null},{"ID":42129,"Name":"Kippax","Lat":53.7669,"Lon":-1.3705,"CountryCode":null},{"ID":46091,"Name":"Kirk of Shotts","Lat":55.823,"Lon":-3.804,"CountryCode":null},{"ID":12185,"Name":"Kirkby","Lat":53.48,"Lon":-2.89,"CountryCode":null},{"ID":20320,"Name":"Kirkby in Ashfield","Lat":53.099,"Lon":-1.245,"CountryCode":null},{"ID":11639,"Name":"Kirkcaldy","Lat":56.1107,"Lon":-3.1674,"CountryCode":null},{"ID":23375,"Name":"Kirkintilloch","Lat":55.938,"Lon":-4.155,"CountryCode":null},{"ID":24011,"Name":"Kirkstall","Lat":53.816,"Lon":-1.602,"CountryCode":null},{"ID":46433,"Name":"Kirkwall","Lat":58.981,"Lon":-2.96,"CountryCode":null},{"ID":30028,"Name":"Knaresborough","Lat":54.0084,"Lon":-1.467,"CountryCode":null},{"ID":32823,"Name":"Knottingley","Lat":53.705,"Lon":-1.249,"CountryCode":null},{"ID":39331,"Name":"Knowle","Lat":52.3881,"Lon":-1.7318,"CountryCode":null},{"ID":37616,"Name":"Knowsley","Lat":53.4498,"Lon":-2.8501,"CountryCode":null},{"ID":33597,"Name":"Knutsford","Lat":53.3025,"Lon":-2.3708,"CountryCode":null},{"ID":14577,"Name":"Laindon","Lat":51.574,"Lon":0.4181,"CountryCode":null},{"ID":42468,"Name":"Lambeth","Lat":51.49,"Lon":-0.119,"CountryCode":null},{"ID":44386,"Name":"Lanark","Lat":55.6749,"Lon":-3.777,"CountryCode":null},{"ID":10846,"Name":"Lancaster","Lat":54.0489,"Lon":-2.8014,"CountryCode":null},{"ID":25884,"Name":"Lancing","Lat":50.832,"Lon":-0.319,"CountryCode":null},{"ID":38315,"Name":"Larbert","Lat":56.0229,"Lon":-3.826,"CountryCode":null},{"ID":37775,"Name":"Largs","Lat":55.795,"Lon":-4.87,"CountryCode":null},{"ID":31120,"Name":"Larkhall","Lat":55.737,"Lon":-3.972,"CountryCode":null},{"ID":25839,"Name":"Larne","Lat":54.8517,"Lon":-5.8133,"CountryCode":null},{"ID":39924,"Name":"Launceston","Lat":50.637,"Lon":-4.36,"CountryCode":null},{"ID":34275,"Name":"Leagrave","Lat":51.903,"Lon":-0.466,"CountryCode":null},{"ID":37663,"Name":"Leatherhead","Lat":51.295,"Lon":-0.329,"CountryCode":null},{"ID":43612,"Name":"Ledbury","Lat":52.0339,"Lon":-2.4235,"CountryCode":null},{"ID":958,"Name":"Leeds","Lat":53.7975,"Lon":-1.5436,"CountryCode":null},{"ID":23917,"Name":"Leek","Lat":53.108,"Lon":-2.0234,"CountryCode":null},{"ID":1452,"Name":"Leicester","Lat":52.6344,"Lon":-1.1319,"CountryCode":null},{"ID":13269,"Name":"Leigh","Lat":53.4975,"Lon":-2.515,"CountryCode":null},{"ID":23947,"Name":"Leigh-on-Sea","Lat":51.5425,"Lon":0.6535,"CountryCode":null},{"ID":14483,"Name":"Leighton Buzzard","Lat":51.9165,"Lon":-0.6617,"CountryCode":null},{"ID":11237,"Name":"Leith","Lat":55.98,"Lon":-3.17,"CountryCode":null},{"ID":40617,"Name":"Lemington","Lat":54.972,"Lon":-1.723,"CountryCode":null},{"ID":36237,"Name":"Leominster","Lat":52.2282,"Lon":-2.7385,"CountryCode":null},{"ID":46487,"Name":"Lerwick","Lat":60.155,"Lon":-1.145,"CountryCode":null},{"ID":15810,"Name":"Letchworth","Lat":51.978,"Lon":-0.23,"CountryCode":null},{"ID":44417,"Name":"Leven","Lat":56.195,"Lon":-2.9942,"CountryCode":null},{"ID":29306,"Name":"Lewes","Lat":50.8747,"Lon":0.0117,"CountryCode":null},{"ID":14120,"Name":"Leyland","Lat":53.6903,"Lon":-2.6992,"CountryCode":null},{"ID":32018,"Name":"Leyton","Lat":51.57,"Lon":-0.015,"CountryCode":null},{"ID":15891,"Name":"Lichfield","Lat":52.682,"Lon":-1.829,"CountryCode":null},{"ID":37727,"Name":"Limavady","Lat":55.053,"Lon":-6.946,"CountryCode":null},{"ID":4824,"Name":"Lincoln","Lat":53.2283,"Lon":-0.5389,"CountryCode":null},{"ID":33596,"Name":"Linlithgow","Lat":55.9791,"Lon":-3.6105,"CountryCode":null},{"ID":37962,"Name":"Linslade","Lat":51.9243,"Lon":-0.6774,"CountryCode":null},{"ID":8226,"Name":"Lisburn","Lat":54.512,"Lon":-6.031,"CountryCode":null},{"ID":41739,"Name":"Liskeard","Lat":50.4536,"Lon":-4.4651,"CountryCode":null},{"ID":22620,"Name":"Litherland","Lat":53.4727,"Lon":-2.999,"CountryCode":null},{"ID":37535,"Name":"Little Bookham","Lat":51.2804,"Lon":-0.3897,"CountryCode":null},{"ID":33222,"Name":"Little Hulton","Lat":53.53,"Lon":-2.418,"CountryCode":null},{"ID":34474,"Name":"Little Lever","Lat":53.563,"Lon":-2.369,"CountryCode":null},{"ID":32651,"Name":"Littleborough","Lat":53.644,"Lon":-2.098,"CountryCode":null},{"ID":9844,"Name":"Littlehampton","Lat":50.8094,"Lon":-0.5409,"CountryCode":null},{"ID":21300,"Name":"Littleover","Lat":52.906,"Lon":-1.505,"CountryCode":null},{"ID":44010,"Name":"Littleport","Lat":52.4568,"Lon":0.3046,"CountryCode":null},{"ID":1439,"Name":"Liverpool","Lat":53.4094,"Lon":-2.9785,"CountryCode":null},{"ID":25231,"Name":"Liversedge","Lat":53.7067,"Lon":-1.69,"CountryCode":null},{"ID":11097,"Name":"Livingston","Lat":55.8834,"Lon":-3.5157,"CountryCode":null},{"ID":23982,"Name":"Llandudno","Lat":53.3225,"Lon":-3.825,"CountryCode":null},{"ID":38500,"Name":"Llandybie","Lat":51.82,"Lon":-4.001,"CountryCode":null},{"ID":14612,"Name":"Llanelli","Lat":51.684,"Lon":-4.163,"CountryCode":null},{"ID":30192,"Name":"Llantrisant","Lat":51.542,"Lon":-3.375,"CountryCode":null},{"ID":43036,"Name":"Llantwit Major","Lat":51.4062,"Lon":-3.475,"CountryCode":null},{"ID":36,"Name":"London","Lat":51.5072,"Lon":-0.1275,"CountryCode":null},{"ID":42977,"Name":"London Colney","Lat":51.726,"Lon":-0.3,"CountryCode":null},{"ID":14376,"Name":"Long Eaton","Lat":52.898,"Lon":-1.271,"CountryCode":null},{"ID":39471,"Name":"Longbenton","Lat":55,"Lon":-1.57,"CountryCode":null},{"ID":20228,"Name":"Longbridge","Lat":52.395,"Lon":-1.979,"CountryCode":null},{"ID":19062,"Name":"Longton","Lat":52.9877,"Lon":-2.1327,"CountryCode":null},{"ID":9621,"Name":"Loughborough","Lat":52.7725,"Lon":-1.2078,"CountryCode":null},{"ID":16075,"Name":"Loughton","Lat":51.6494,"Lon":0.0735,"CountryCode":null},{"ID":27496,"Name":"Louth","Lat":53.3669,"Lon":-0.0061,"CountryCode":null},{"ID":8282,"Name":"Lowestoft","Lat":52.48,"Lon":1.75,"CountryCode":null},{"ID":31317,"Name":"Lowton","Lat":53.471,"Lon":-2.569,"CountryCode":null},{"ID":40503,"Name":"Ludlow","Lat":52.368,"Lon":-2.718,"CountryCode":null},{"ID":3121,"Name":"Luton","Lat":51.8783,"Lon":-0.4147,"CountryCode":null},{"ID":43417,"Name":"Lutterworth","Lat":52.456,"Lon":-1.2,"CountryCode":null},{"ID":41179,"Name":"Lydney","Lat":51.7286,"Lon":-2.5285,"CountryCode":null},{"ID":35392,"Name":"Lye","Lat":52.459,"Lon":-2.116,"CountryCode":null},{"ID":29653,"Name":"Lymington","Lat":50.75,"Lon":-1.55,"CountryCode":null},{"ID":34673,"Name":"Lymm","Lat":53.3834,"Lon":-2.475,"CountryCode":null},{"ID":35016,"Name":"Mablethorpe","Lat":53.3409,"Lon":0.261,"CountryCode":null},{"ID":10123,"Name":"Macclesfield","Lat":53.25,"Lon":-2.13,"CountryCode":null},{"ID":32024,"Name":"Mackworth","Lat":52.9277,"Lon":-1.5373,"CountryCode":null},{"ID":26847,"Name":"Madeley","Lat":52.637,"Lon":-2.448,"CountryCode":null},{"ID":27239,"Name":"Maesteg","Lat":51.61,"Lon":-3.65,"CountryCode":null},{"ID":24244,"Name":"Maghull","Lat":53.5174,"Lon":-2.9449,"CountryCode":null},{"ID":9136,"Name":"Maidenhead","Lat":51.5217,"Lon":-0.7177,"CountryCode":null},{"ID":3656,"Name":"Maidstone","Lat":51.272,"Lon":0.529,"CountryCode":null},{"ID":31956,"Name":"Maldon","Lat":51.7318,"Lon":0.6758,"CountryCode":null},{"ID":28157,"Name":"Maltby","Lat":53.426,"Lon":-1.21,"CountryCode":null},{"ID":1351,"Name":"Manchester","Lat":53.479,"Lon":-2.2452,"CountryCode":null},{"ID":8409,"Name":"Mansfield","Lat":53.1444,"Lon":-1.1964,"CountryCode":null},{"ID":22563,"Name":"March","Lat":52.551,"Lon":0.088,"CountryCode":null},{"ID":9444,"Name":"Margate","Lat":51.385,"Lon":1.3838,"CountryCode":null},{"ID":36639,"Name":"Market Drayton","Lat":52.9044,"Lon":-2.4848,"CountryCode":null},{"ID":22105,"Name":"Market Harborough","Lat":52.4775,"Lon":-0.9206,"CountryCode":null},{"ID":34784,"Name":"Market Warsop","Lat":53.2,"Lon":-1.15,"CountryCode":null},{"ID":32287,"Name":"Marlow","Lat":51.57,"Lon":-0.78,"CountryCode":null},{"ID":21510,"Name":"Marple","Lat":53.397,"Lon":-2.061,"CountryCode":null},{"ID":41481,"Name":"Marton","Lat":54.5372,"Lon":-1.2047,"CountryCode":null},{"ID":37769,"Name":"Maryport","Lat":54.7128,"Lon":-3.4926,"CountryCode":null},{"ID":29923,"Name":"Matlock","Lat":53.14,"Lon":-1.55,"CountryCode":null},{"ID":31209,"Name":"Melksham","Lat":51.371,"Lon":-2.138,"CountryCode":null},{"ID":46218,"Name":"Meltham","Lat":53.592,"Lon":-1.85,"CountryCode":null},{"ID":19086,"Name":"Melton Mowbray","Lat":52.7661,"Lon":-0.886,"CountryCode":null},{"ID":12607,"Name":"Merthyr Tudful","Lat":51.743,"Lon":-3.378,"CountryCode":null},{"ID":38993,"Name":"Methil","Lat":56.1844,"Lon":-3.0223,"CountryCode":null},{"ID":30284,"Name":"Mexborough","Lat":53.4992,"Lon":-1.283,"CountryCode":null},{"ID":26774,"Name":"Mickleover","Lat":52.901,"Lon":-1.552,"CountryCode":null},{"ID":4513,"Name":"Middlesbrough","Lat":54.5767,"Lon":-1.2355,"CountryCode":null},{"ID":12807,"Name":"Middleton","Lat":53.555,"Lon":-2.187,"CountryCode":null},{"ID":33032,"Name":"Middlewich","Lat":53.192,"Lon":-2.443,"CountryCode":null},{"ID":34104,"Name":"Midsomer Norton","Lat":51.2842,"Lon":-2.4817,"CountryCode":null},{"ID":40341,"Name":"Mildenhall","Lat":52.3446,"Lon":0.5089,"CountryCode":null},{"ID":32806,"Name":"Milford Haven","Lat":51.7142,"Lon":-5.0427,"CountryCode":null},{"ID":26264,"Name":"Mill Hill","Lat":51.62,"Lon":-0.23,"CountryCode":null},{"ID":34493,"Name":"Milngavie","Lat":55.9421,"Lon":-4.3137,"CountryCode":null},{"ID":33950,"Name":"Milnrow","Lat":53.6101,"Lon":-2.1111,"CountryCode":null},{"ID":27648,"Name":"Milton","Lat":53.05,"Lon":-2.142,"CountryCode":null},{"ID":3196,"Name":"Milton Keynes","Lat":52.04,"Lon":-0.76,"CountryCode":null},{"ID":36191,"Name":"Minehead","Lat":51.2038,"Lon":-3.4738,"CountryCode":null},{"ID":24688,"Name":"Minster","Lat":51.421,"Lon":0.809,"CountryCode":null},{"ID":25112,"Name":"Mirfield","Lat":53.6807,"Lon":-1.6888,"CountryCode":null},{"ID":9154,"Name":"Mitcham","Lat":51.4009,"Lon":-0.1517,"CountryCode":null},{"ID":41144,"Name":"Mold","Lat":53.166,"Lon":-3.133,"CountryCode":null},{"ID":25581,"Name":"Molesey","Lat":51.401,"Lon":-0.363,"CountryCode":null},{"ID":25624,"Name":"Monkseaton","Lat":55.043,"Lon":-1.459,"CountryCode":null},{"ID":39774,"Name":"Monmouth","Lat":51.81,"Lon":-2.72,"CountryCode":null},{"ID":35890,"Name":"Montrose","Lat":56.708,"Lon":-2.467,"CountryCode":null},{"ID":11620,"Name":"Morden","Lat":51.4015,"Lon":-0.1949,"CountryCode":null},{"ID":15486,"Name":"Morecambe","Lat":54.073,"Lon":-2.87,"CountryCode":null},{"ID":27112,"Name":"Moreton","Lat":53.401,"Lon":-3.111,"CountryCode":null},{"ID":12467,"Name":"Morley","Lat":53.7492,"Lon":-1.6023,"CountryCode":null},{"ID":32264,"Name":"Morpeth","Lat":55.1675,"Lon":-1.6908,"CountryCode":null},{"ID":28060,"Name":"Morriston","Lat":51.6647,"Lon":-3.9389,"CountryCode":null},{"ID":31495,"Name":"Morton","Lat":51.6094,"Lon":-2.5249,"CountryCode":null},{"ID":27827,"Name":"Mosbrough","Lat":53.325,"Lon":-1.362,"CountryCode":null},{"ID":38694,"Name":"Mossley","Lat":53.5147,"Lon":-2.0387,"CountryCode":null},{"ID":31452,"Name":"Moston","Lat":53.5156,"Lon":-2.1848,"CountryCode":null},{"ID":16380,"Name":"Motherwell","Lat":55.7839,"Lon":-3.9852,"CountryCode":null},{"ID":37853,"Name":"Mountain Ash","Lat":51.6814,"Lon":-3.3792,"CountryCode":null},{"ID":23858,"Name":"Musselburgh","Lat":55.942,"Lon":-3.054,"CountryCode":null},{"ID":29773,"Name":"Nailsea","Lat":51.43,"Lon":-2.76,"CountryCode":null},{"ID":41587,"Name":"Nairn","Lat":57.586,"Lon":-3.869,"CountryCode":null},{"ID":32226,"Name":"Nantwich","Lat":53.067,"Lon":-2.522,"CountryCode":null},{"ID":11131,"Name":"Neath","Lat":51.66,"Lon":-3.81,"CountryCode":null},{"ID":18014,"Name":"Nelson","Lat":53.8346,"Lon":-2.218,"CountryCode":null},{"ID":30307,"Name":"Neston","Lat":53.289,"Lon":-3.074,"CountryCode":null},{"ID":30600,"Name":"Netherton","Lat":52.4908,"Lon":-2.0835,"CountryCode":null},{"ID":30415,"Name":"New Brighton","Lat":53.432,"Lon":-3.049,"CountryCode":null},{"ID":35520,"Name":"New Mills","Lat":53.367,"Lon":-2.007,"CountryCode":null},{"ID":20035,"Name":"New Milton","Lat":50.76,"Lon":-1.65,"CountryCode":null},{"ID":40713,"Name":"New Silksworth","Lat":54.871,"Lon":-1.3957,"CountryCode":null},{"ID":17374,"Name":"Newark upon Trent","Lat":53.0772,"Lon":-0.8089,"CountryCode":null},{"ID":42887,"Name":"Newburn","Lat":54.983,"Lon":-1.743,"CountryCode":null},{"ID":13334,"Name":"Newbury","Lat":51.401,"Lon":-1.323,"CountryCode":null},{"ID":2292,"Name":"Newcastle","Lat":54.978,"Lon":-1.6102,"CountryCode":null},{"ID":7871,"Name":"Newcastle under Lyme","Lat":53.0109,"Lon":-2.2278,"CountryCode":null},{"ID":35637,"Name":"Newhaven","Lat":50.8,"Lon":0.06,"CountryCode":null},{"ID":24292,"Name":"Newmarket","Lat":52.2459,"Lon":0.4105,"CountryCode":null},{"ID":37495,"Name":"Newport","Lat":52.7691,"Lon":-2.3787,"CountryCode":null},{"ID":4028,"Name":"Newport","Lat":51.5886,"Lon":-2.9978,"CountryCode":null},{"ID":21303,"Name":"Newport","Lat":50.701,"Lon":-1.2883,"CountryCode":null},{"ID":30457,"Name":"Newport Pagnell","Lat":52.087,"Lon":-0.722,"CountryCode":null},{"ID":22768,"Name":"Newquay","Lat":50.412,"Lon":-5.0757,"CountryCode":null},{"ID":18687,"Name":"Newry","Lat":54.176,"Lon":-6.349,"CountryCode":null},{"ID":21572,"Name":"Newton Abbot","Lat":50.529,"Lon":-3.61,"CountryCode":null},{"ID":19549,"Name":"Newton Aycliffe","Lat":54.62,"Lon":-1.58,"CountryCode":null},{"ID":20793,"Name":"Newton in Makerfield","Lat":53.45,"Lon":-2.633,"CountryCode":null},{"ID":19433,"Name":"Newton Mearns","Lat":55.7716,"Lon":-4.3347,"CountryCode":null},{"ID":37587,"Name":"Newtown","Lat":52.5132,"Lon":-3.3141,"CountryCode":null},{"ID":17754,"Name":"Newtownards","Lat":54.591,"Lon":-5.68,"CountryCode":null},{"ID":23820,"Name":"Normanton","Lat":53.697,"Lon":-1.416,"CountryCode":null},{"ID":28179,"Name":"North Hykeham","Lat":53.1833,"Lon":-0.5875,"CountryCode":null},{"ID":15625,"Name":"North Shields","Lat":55.0097,"Lon":-1.4448,"CountryCode":null},{"ID":35916,"Name":"North Tidworth","Lat":51.237,"Lon":-1.664,"CountryCode":null},{"ID":34807,"Name":"North Walsham","Lat":52.8214,"Lon":1.3861,"CountryCode":null},{"ID":29633,"Name":"Northallerton","Lat":54.3378,"Lon":-1.4285,"CountryCode":null},{"ID":2737,"Name":"Northampton","Lat":52.2304,"Lon":-0.8938,"CountryCode":null},{"ID":30342,"Name":"Northenden","Lat":53.4075,"Lon":-2.2583,"CountryCode":null},{"ID":40056,"Name":"Northfield","Lat":52.408,"Lon":-1.963,"CountryCode":null},{"ID":17858,"Name":"Northfleet","Lat":51.44,"Lon":0.34,"CountryCode":null},{"ID":17397,"Name":"Northolt","Lat":51.5467,"Lon":-0.37,"CountryCode":null},{"ID":11152,"Name":"Northwich","Lat":53.259,"Lon":-2.518,"CountryCode":null},{"ID":22796,"Name":"Northwood","Lat":51.601,"Lon":-0.4176,"CountryCode":null},{"ID":23870,"Name":"Norton","Lat":54.589,"Lon":-1.3157,"CountryCode":null},{"ID":3118,"Name":"Norwich","Lat":52.6286,"Lon":1.2928,"CountryCode":null},{"ID":1023,"Name":"Nottingham","Lat":52.9561,"Lon":-1.1512,"CountryCode":null},{"ID":6950,"Name":"Nuneaton","Lat":52.523,"Lon":-1.468,"CountryCode":null},{"ID":21380,"Name":"Oadby","Lat":52.5987,"Lon":-1.0763,"CountryCode":null},{"ID":46281,"Name":"Oakengates","Lat":52.695,"Lon":-2.451,"CountryCode":null},{"ID":38544,"Name":"Oakham","Lat":52.6705,"Lon":-0.7333,"CountryCode":null},{"ID":20176,"Name":"Oldbury","Lat":52.505,"Lon":-2.0159,"CountryCode":null},{"ID":6337,"Name":"Oldham","Lat":53.5444,"Lon":-2.1169,"CountryCode":null},{"ID":38170,"Name":"Ollerton","Lat":53.2,"Lon":-1.02,"CountryCode":null},{"ID":35760,"Name":"Olton","Lat":52.4377,"Lon":-1.8058,"CountryCode":null},{"ID":24230,"Name":"Omagh","Lat":54.598,"Lon":-7.309,"CountryCode":null},{"ID":39218,"Name":"Ormesby","Lat":54.5492,"Lon":-1.1817,"CountryCode":null},{"ID":21213,"Name":"Ormskirk","Lat":53.5665,"Lon":-2.8869,"CountryCode":null},{"ID":6689,"Name":"Orpington","Lat":51.3741,"Lon":0.0986,"CountryCode":null},{"ID":23503,"Name":"Ossett","Lat":53.68,"Lon":-1.58,"CountryCode":null},{"ID":36571,"Name":"Oswaldtwistle","Lat":53.743,"Lon":-2.393,"CountryCode":null},{"ID":29801,"Name":"Oswestry","Lat":52.8598,"Lon":-3.0538,"CountryCode":null},{"ID":32894,"Name":"Otley","Lat":53.905,"Lon":-1.687,"CountryCode":null},{"ID":35382,"Name":"Ovenden","Lat":53.7432,"Lon":-1.8779,"CountryCode":null},{"ID":4193,"Name":"Oxford","Lat":51.75,"Lon":-1.25,"CountryCode":null},{"ID":37667,"Name":"Oxted","Lat":51.257,"Lon":-0.006,"CountryCode":null},{"ID":41004,"Name":"Padiham","Lat":53.797,"Lon":-2.311,"CountryCode":null},{"ID":9034,"Name":"Paignton","Lat":50.4353,"Lon":-3.5625,"CountryCode":null},{"ID":7668,"Name":"Paisley","Lat":55.8456,"Lon":-4.4239,"CountryCode":null},{"ID":30403,"Name":"Palmers Green","Lat":51.6178,"Lon":-0.1092,"CountryCode":null},{"ID":39045,"Name":"Parkstone","Lat":50.71,"Lon":-1.95,"CountryCode":null},{"ID":44995,"Name":"Partick","Lat":55.8699,"Lon":-4.3125,"CountryCode":null},{"ID":31867,"Name":"Patcham","Lat":50.864,"Lon":-0.15,"CountryCode":null},{"ID":44822,"Name":"Peebles","Lat":55.6519,"Lon":-3.1889,"CountryCode":null},{"ID":37548,"Name":"Pelsall","Lat":52.631,"Lon":-1.972,"CountryCode":null},{"ID":32361,"Name":"Pemberton","Lat":53.536,"Lon":-2.6738,"CountryCode":null},{"ID":42217,"Name":"Pembroke Dock","Lat":51.693,"Lon":-4.946,"CountryCode":null},{"ID":22756,"Name":"Penarth","Lat":51.43,"Lon":-3.17,"CountryCode":null},{"ID":44014,"Name":"Pencoed","Lat":51.5228,"Lon":-3.5047,"CountryCode":null},{"ID":33937,"Name":"Pendlebury","Lat":53.5075,"Lon":-2.3154,"CountryCode":null},{"ID":29396,"Name":"Penicuik","Lat":55.826,"Lon":-3.22,"CountryCode":null},{"ID":20719,"Name":"Penistone","Lat":53.525,"Lon":-1.629,"CountryCode":null},{"ID":46241,"Name":"Penkridge","Lat":52.7252,"Lon":-2.1164,"CountryCode":null},{"ID":31090,"Name":"Penrith","Lat":54.6648,"Lon":-2.7548,"CountryCode":null},{"ID":21977,"Name":"Penwortham","Lat":53.74,"Lon":-2.72,"CountryCode":null},{"ID":11390,"Name":"Pen-y-Bont ar Ogwr","Lat":51.507,"Lon":-3.578,"CountryCode":null},{"ID":23551,"Name":"Penzance","Lat":50.119,"Lon":-5.537,"CountryCode":null},{"ID":30157,"Name":"Perivale","Lat":51.5383,"Lon":-0.3192,"CountryCode":null},{"ID":21536,"Name":"Perry Barr","Lat":52.5249,"Lon":-1.9042,"CountryCode":null},{"ID":11777,"Name":"Perth","Lat":56.3958,"Lon":-3.4333,"CountryCode":null},{"ID":3398,"Name":"Peterborough","Lat":52.5661,"Lon":-0.2364,"CountryCode":null},{"ID":25380,"Name":"Peterhead","Lat":57.5091,"Lon":-1.7832,"CountryCode":null},{"ID":24485,"Name":"Peterlee","Lat":54.76,"Lon":-1.33,"CountryCode":null},{"ID":30759,"Name":"Petersfield","Lat":51.0038,"Lon":-0.9374,"CountryCode":null},{"ID":14075,"Name":"Pinner","Lat":51.5932,"Lon":-0.3894,"CountryCode":null},{"ID":20542,"Name":"Pitsea","Lat":51.569,"Lon":0.504,"CountryCode":null},{"ID":28312,"Name":"Plumstead","Lat":51.49,"Lon":0.09,"CountryCode":null},{"ID":2527,"Name":"Plymouth","Lat":50.3714,"Lon":-4.1422,"CountryCode":null},{"ID":17627,"Name":"Plympton","Lat":50.386,"Lon":-4.051,"CountryCode":null},{"ID":21197,"Name":"Plymstock","Lat":50.3569,"Lon":-4.09,"CountryCode":null},{"ID":40920,"Name":"Pocklington","Lat":53.9309,"Lon":-0.7781,"CountryCode":null},{"ID":43579,"Name":"Polegate","Lat":50.8216,"Lon":0.2442,"CountryCode":null},{"ID":31834,"Name":"Pollokshaws","Lat":55.8252,"Lon":-4.2947,"CountryCode":null},{"ID":29727,"Name":"Ponders End","Lat":51.646,"Lon":-0.046,"CountryCode":null},{"ID":44324,"Name":"Pontardulais","Lat":51.71,"Lon":-4.04,"CountryCode":null},{"ID":17130,"Name":"Pontefract","Lat":53.691,"Lon":-1.312,"CountryCode":null},{"ID":38693,"Name":"Ponteland","Lat":55.048,"Lon":-1.747,"CountryCode":null},{"ID":16984,"Name":"Pontypridd","Lat":51.602,"Lon":-3.342,"CountryCode":null},{"ID":18066,"Name":"Pont-y-pwl","Lat":51.703,"Lon":-3.041,"CountryCode":null},{"ID":4401,"Name":"Poole","Lat":50.7167,"Lon":-1.9833,"CountryCode":null},{"ID":31292,"Name":"Port Glasgow","Lat":55.934,"Lon":-4.6906,"CountryCode":null},{"ID":14548,"Name":"Port Talbot","Lat":51.5906,"Lon":-3.7986,"CountryCode":null},{"ID":27010,"Name":"Portchester","Lat":50.842,"Lon":-1.12,"CountryCode":null},{"ID":29763,"Name":"Porthcawl","Lat":51.48,"Lon":-3.69,"CountryCode":null},{"ID":20541,"Name":"Portishead","Lat":51.484,"Lon":-2.7626,"CountryCode":null},{"ID":44272,"Name":"Portlethen","Lat":57.061,"Lon":-2.13,"CountryCode":null},{"ID":897,"Name":"Portsmouth","Lat":50.8058,"Lon":-1.0872,"CountryCode":null},{"ID":22401,"Name":"Potters Bar","Lat":51.698,"Lon":-0.183,"CountryCode":null},{"ID":26627,"Name":"Poulton le Fylde","Lat":53.847,"Lon":-2.995,"CountryCode":null},{"ID":31896,"Name":"Poynton","Lat":53.35,"Lon":-2.1167,"CountryCode":null},{"ID":37965,"Name":"Prescot","Lat":53.4286,"Lon":-2.8064,"CountryCode":null},{"ID":25586,"Name":"Prestatyn","Lat":53.331,"Lon":-3.405,"CountryCode":null},{"ID":4479,"Name":"Preston","Lat":53.83,"Lon":-2.735,"CountryCode":null},{"ID":40037,"Name":"Prestonpans","Lat":55.9597,"Lon":-2.961,"CountryCode":null},{"ID":16839,"Name":"Prestwich","Lat":53.5333,"Lon":-2.2833,"CountryCode":null},{"ID":31157,"Name":"Prestwick","Lat":55.4956,"Lon":-4.6142,"CountryCode":null},{"ID":36847,"Name":"Prudhoe","Lat":54.961,"Lon":-1.849,"CountryCode":null},{"ID":22492,"Name":"Pudsey","Lat":53.797,"Lon":-1.663,"CountryCode":null},{"ID":27325,"Name":"Quedgeley","Lat":51.825,"Lon":-2.28,"CountryCode":null},{"ID":28869,"Name":"Queensbury","Lat":53.7683,"Lon":-1.8453,"CountryCode":null},{"ID":43427,"Name":"Queensferry","Lat":55.99,"Lon":-3.398,"CountryCode":null},{"ID":17601,"Name":"Radcliffe","Lat":53.5615,"Lon":-2.3268,"CountryCode":null},{"ID":41132,"Name":"Radlett","Lat":51.685,"Lon":-0.318,"CountryCode":null},{"ID":43227,"Name":"Radstock","Lat":51.293,"Lon":-2.448,"CountryCode":null},{"ID":15764,"Name":"Rainham","Lat":51.36,"Lon":0.61,"CountryCode":null},{"ID":38863,"Name":"Rainhill","Lat":53.4157,"Lon":-2.7625,"CountryCode":null},{"ID":26914,"Name":"Ramsbottom","Lat":53.6483,"Lon":-2.3167,"CountryCode":null},{"ID":13521,"Name":"Ramsgate","Lat":51.336,"Lon":1.416,"CountryCode":null},{"ID":43334,"Name":"Raunds","Lat":52.345,"Lon":-0.537,"CountryCode":null},{"ID":26212,"Name":"Rawmarsh","Lat":53.4636,"Lon":-1.3439,"CountryCode":null},{"ID":22032,"Name":"Rawtenstall","Lat":53.699,"Lon":-2.291,"CountryCode":null},{"ID":6387,"Name":"Rayleigh","Lat":51.5864,"Lon":0.6049,"CountryCode":null},{"ID":42270,"Name":"Raynes Park","Lat":51.4033,"Lon":-0.2321,"CountryCode":null},{"ID":2077,"Name":"Reading","Lat":51.4542,"Lon":-0.9731,"CountryCode":null},{"ID":14602,"Name":"Redcar","Lat":54.618,"Lon":-1.069,"CountryCode":null},{"ID":18608,"Name":"Reddish","Lat":53.4383,"Lon":-2.1613,"CountryCode":null},{"ID":7272,"Name":"Redditch","Lat":52.3,"Lon":-1.9333,"CountryCode":null},{"ID":26573,"Name":"Redhill","Lat":51.2393,"Lon":-0.1726,"CountryCode":null},{"ID":30388,"Name":"Redruth","Lat":50.2328,"Lon":-5.2264,"CountryCode":null},{"ID":22720,"Name":"Reigate","Lat":51.237,"Lon":-0.206,"CountryCode":null},{"ID":22953,"Name":"Renfrew","Lat":55.878,"Lon":-4.389,"CountryCode":null},{"ID":8462,"Name":"Rhondda","Lat":51.6159,"Lon":-3.4175,"CountryCode":null},{"ID":42402,"Name":"Rhosllanerchrugog","Lat":53.011,"Lon":-3.052,"CountryCode":null},{"ID":20412,"Name":"Rhyl","Lat":53.321,"Lon":-3.48,"CountryCode":null},{"ID":45134,"Name":"Rhymney","Lat":51.759,"Lon":-3.283,"CountryCode":null},{"ID":23282,"Name":"Richmond","Lat":51.456,"Lon":-0.301,"CountryCode":null},{"ID":21290,"Name":"Rickmansworth","Lat":51.6383,"Lon":-0.4659,"CountryCode":null},{"ID":24474,"Name":"Ripley","Lat":53.05,"Lon":-1.407,"CountryCode":null},{"ID":28867,"Name":"Ripon","Lat":54.138,"Lon":-1.524,"CountryCode":null},{"ID":36801,"Name":"Risca","Lat":51.608,"Lon":-3.091,"CountryCode":null},{"ID":5621,"Name":"Rochdale","Lat":53.61,"Lon":-2.16,"CountryCode":null},{"ID":9207,"Name":"Rochester","Lat":51.375,"Lon":0.5,"CountryCode":null},{"ID":31828,"Name":"Rock Ferry","Lat":53.373,"Lon":-3.008,"CountryCode":null},{"ID":40816,"Name":"Rogerstone","Lat":51.5906,"Lon":-3.0537,"CountryCode":null},{"ID":5076,"Name":"Romford","Lat":51.5768,"Lon":0.1801,"CountryCode":null},{"ID":31063,"Name":"Romsey","Lat":50.989,"Lon":-1.4966,"CountryCode":null},{"ID":39264,"Name":"Ross on Wye","Lat":51.914,"Lon":-2.587,"CountryCode":null},{"ID":33089,"Name":"Rossington","Lat":53.4759,"Lon":-1.0613,"CountryCode":null},{"ID":32704,"Name":"Rosyth","Lat":56.0339,"Lon":-3.4323,"CountryCode":null},{"ID":5643,"Name":"Rotherham","Lat":53.43,"Lon":-1.357,"CountryCode":null},{"ID":24315,"Name":"Rothwell","Lat":53.7485,"Lon":-1.478,"CountryCode":null},{"ID":31784,"Name":"Rottingdean","Lat":50.815,"Lon":-0.065,"CountryCode":null},{"ID":11196,"Name":"Rowley Regis","Lat":52.488,"Lon":-2.05,"CountryCode":null},{"ID":10251,"Name":"Royal Leamington Spa","Lat":52.2919,"Lon":-1.5358,"CountryCode":null},{"ID":9931,"Name":"Royal Tunbridge Wells","Lat":51.132,"Lon":0.263,"CountryCode":null},{"ID":33067,"Name":"Royal Wootton Bassett","Lat":51.533,"Lon":-1.9,"CountryCode":null},{"ID":39174,"Name":"Royston","Lat":53.61,"Lon":-1.45,"CountryCode":null},{"ID":27413,"Name":"Royston","Lat":52.0471,"Lon":-0.0202,"CountryCode":null},{"ID":23461,"Name":"Royton","Lat":53.566,"Lon":-2.121,"CountryCode":null},{"ID":8311,"Name":"Rugby","Lat":52.37,"Lon":-1.26,"CountryCode":null},{"ID":20966,"Name":"Rugeley","Lat":52.7599,"Lon":-1.9388,"CountryCode":null},{"ID":9872,"Name":"Ruislip","Lat":51.576,"Lon":-0.433,"CountryCode":null},{"ID":9359,"Name":"Runcorn","Lat":53.3417,"Lon":-2.7313,"CountryCode":null},{"ID":36410,"Name":"Rushall","Lat":52.6089,"Lon":-1.9592,"CountryCode":null},{"ID":16764,"Name":"Rushden","Lat":52.288,"Lon":-0.601,"CountryCode":null},{"ID":32515,"Name":"Rustington","Lat":50.8102,"Lon":-0.5052,"CountryCode":null},{"ID":16989,"Name":"Rutherglen","Lat":55.828,"Lon":-4.214,"CountryCode":null},{"ID":21202,"Name":"Ryde","Lat":50.7271,"Lon":-1.1618,"CountryCode":null},{"ID":44411,"Name":"Rye","Lat":50.95,"Lon":0.73,"CountryCode":null},{"ID":39846,"Name":"Ryhope","Lat":54.8679,"Lon":-1.3698,"CountryCode":null},{"ID":29940,"Name":"Saffron Walden","Lat":52.022,"Lon":0.243,"CountryCode":null},{"ID":7261,"Name":"Saint Albans","Lat":51.755,"Lon":-0.336,"CountryCode":null},{"ID":27240,"Name":"Saint Andrews","Lat":56.3404,"Lon":-2.7955,"CountryCode":null},{"ID":23641,"Name":"Saint Austell","Lat":50.34,"Lon":-4.79,"CountryCode":null},{"ID":33389,"Name":"Saint Budeaux","Lat":50.4033,"Lon":-4.1856,"CountryCode":null},{"ID":5994,"Name":"Saint Helens","Lat":53.4542,"Lon":-2.7361,"CountryCode":null},{"ID":37865,"Name":"Saint Ives","Lat":50.211,"Lon":-5.48,"CountryCode":null},{"ID":28212,"Name":"Saint Ives","Lat":52.3344,"Lon":-0.0761,"CountryCode":null},{"ID":16996,"Name":"Saint Neots","Lat":52.228,"Lon":-0.27,"CountryCode":null},{"ID":4695,"Name":"Sale","Lat":53.424,"Lon":-2.322,"CountryCode":null},{"ID":5934,"Name":"Salford","Lat":53.483,"Lon":-2.2931,"CountryCode":null},{"ID":12203,"Name":"Salisbury","Lat":51.07,"Lon":-1.79,"CountryCode":null},{"ID":28195,"Name":"Saltash","Lat":50.408,"Lon":-4.212,"CountryCode":null},{"ID":34794,"Name":"Saltcoats","Lat":55.6352,"Lon":-4.7896,"CountryCode":null},{"ID":22907,"Name":"Sandbach","Lat":53.146,"Lon":-2.367,"CountryCode":null},{"ID":34527,"Name":"Sanderstead","Lat":51.3358,"Lon":-0.0818,"CountryCode":null},{"ID":24293,"Name":"Sandhurst","Lat":51.349,"Lon":-0.8,"CountryCode":null},{"ID":44975,"Name":"Sandiacre","Lat":52.923,"Lon":-1.289,"CountryCode":null},{"ID":36317,"Name":"Sandridge","Lat":51.7808,"Lon":-0.3038,"CountryCode":null},{"ID":36883,"Name":"Sandy","Lat":52.131,"Lon":-0.297,"CountryCode":null},{"ID":11217,"Name":"Scarborough","Lat":54.2825,"Lon":-0.4,"CountryCode":null},{"ID":40040,"Name":"Scartho","Lat":53.5399,"Lon":-0.0926,"CountryCode":null},{"ID":7432,"Name":"Scunthorpe","Lat":53.5809,"Lon":-0.6502,"CountryCode":null},{"ID":30100,"Name":"Seacombe","Lat":53.409,"Lon":-3.029,"CountryCode":null},{"ID":31913,"Name":"Seacroft","Lat":53.8222,"Lon":-1.4599,"CountryCode":null},{"ID":19227,"Name":"Seaford","Lat":50.77,"Lon":0.1,"CountryCode":null},{"ID":24481,"Name":"Seaham","Lat":54.84,"Lon":-1.34,"CountryCode":null},{"ID":35921,"Name":"Sedgley","Lat":52.54,"Lon":-2.123,"CountryCode":null},{"ID":24931,"Name":"Selby","Lat":53.7836,"Lon":-1.0678,"CountryCode":null},{"ID":39148,"Name":"Selsey","Lat":50.735,"Lon":-0.7898,"CountryCode":null},{"ID":35618,"Name":"Selston","Lat":53.07,"Lon":-1.3,"CountryCode":null},{"ID":17839,"Name":"Sevenoaks","Lat":51.2781,"Lon":0.1874,"CountryCode":null},{"ID":44144,"Name":"Shanklin","Lat":50.6333,"Lon":-1.175,"CountryCode":null},{"ID":26482,"Name":"Shaw","Lat":53.5783,"Lon":-2.0951,"CountryCode":null},{"ID":36282,"Name":"Sheerness","Lat":51.441,"Lon":0.76,"CountryCode":null},{"ID":1427,"Name":"Sheffield","Lat":53.3808,"Lon":-1.4703,"CountryCode":null},{"ID":22986,"Name":"Sheldon","Lat":52.45,"Lon":-1.7666,"CountryCode":null},{"ID":19959,"Name":"Shenley Brook End","Lat":52.009,"Lon":-0.789,"CountryCode":null},{"ID":34184,"Name":"Shenley Church End","Lat":52.022,"Lon":-0.788,"CountryCode":null},{"ID":42216,"Name":"Shepperton","Lat":51.39,"Lon":-0.46,"CountryCode":null},{"ID":30916,"Name":"Shepshed","Lat":52.7711,"Lon":-1.2951,"CountryCode":null},{"ID":38967,"Name":"Shepton Mallet","Lat":51.193,"Lon":-2.546,"CountryCode":null},{"ID":43428,"Name":"Sherborne","Lat":50.9469,"Lon":-2.5171,"CountryCode":null},{"ID":42952,"Name":"Shevington","Lat":53.572,"Lon":-2.69,"CountryCode":null},{"ID":41529,"Name":"Shildon","Lat":54.63,"Lon":-1.65,"CountryCode":null},{"ID":29962,"Name":"Shipley","Lat":53.833,"Lon":-1.777,"CountryCode":null},{"ID":33515,"Name":"Shirebrook","Lat":53.2048,"Lon":-1.2197,"CountryCode":null},{"ID":33516,"Name":"Shiremoor","Lat":55.0366,"Lon":-1.5048,"CountryCode":null},{"ID":31832,"Name":"Shirley","Lat":51.3813,"Lon":-0.0543,"CountryCode":null},{"ID":22586,"Name":"Shoeburyness","Lat":51.5316,"Lon":0.7978,"CountryCode":null},{"ID":24139,"Name":"Shoreham-by-Sea","Lat":50.834,"Lon":-0.273,"CountryCode":null},{"ID":18975,"Name":"Shotley Bridge","Lat":54.87,"Lon":-1.86,"CountryCode":null},{"ID":8196,"Name":"Shrewsbury","Lat":52.708,"Lon":-2.754,"CountryCode":null},{"ID":12773,"Name":"Sidcup","Lat":51.4263,"Lon":0.1024,"CountryCode":null},{"ID":32780,"Name":"Sidmouth","Lat":50.68,"Lon":-3.239,"CountryCode":null},{"ID":44751,"Name":"Sileby","Lat":52.731,"Lon":-1.106,"CountryCode":null},{"ID":9264,"Name":"Sittingbourne","Lat":51.34,"Lon":0.74,"CountryCode":null},{"ID":23580,"Name":"Skegness","Lat":53.1436,"Lon":0.3428,"CountryCode":null},{"ID":14042,"Name":"Skelmersdale","Lat":53.55,"Lon":-2.776,"CountryCode":null},{"ID":31284,"Name":"Skipton","Lat":53.9625,"Lon":-2.0163,"CountryCode":null},{"ID":24890,"Name":"Sleaford","Lat":52.996,"Lon":-0.413,"CountryCode":null},{"ID":5226,"Name":"Slough","Lat":51.5084,"Lon":-0.5881,"CountryCode":null},{"ID":14672,"Name":"Small Heath","Lat":52.4629,"Lon":-1.8542,"CountryCode":null},{"ID":11630,"Name":"Smethwick","Lat":52.4931,"Lon":-1.9686,"CountryCode":null},{"ID":36420,"Name":"Snaresbrook","Lat":51.587,"Lon":0.0146,"CountryCode":null},{"ID":40666,"Name":"Snodland","Lat":51.328,"Lon":0.4467,"CountryCode":null},{"ID":38847,"Name":"Soham","Lat":52.3338,"Lon":0.3361,"CountryCode":null},{"ID":3200,"Name":"Solihull","Lat":52.413,"Lon":-1.778,"CountryCode":null},{"ID":46125,"Name":"Sompting","Lat":50.8303,"Lon":-0.3395,"CountryCode":null},{"ID":29369,"Name":"South Hayling","Lat":50.78,"Lon":-0.97,"CountryCode":null},{"ID":43145,"Name":"South Normanton","Lat":53.107,"Lon":-1.343,"CountryCode":null},{"ID":27111,"Name":"South Ockendon","Lat":51.5207,"Lon":0.2956,"CountryCode":null},{"ID":7849,"Name":"South Shields","Lat":54.995,"Lon":-1.43,"CountryCode":null},{"ID":7584,"Name":"Southall","Lat":51.5111,"Lon":-0.3756,"CountryCode":null},{"ID":899,"Name":"Southampton","Lat":50.9025,"Lon":-1.4042,"CountryCode":null},{"ID":38121,"Name":"Southborough","Lat":51.1598,"Lon":0.2652,"CountryCode":null},{"ID":25733,"Name":"Southbourne","Lat":50.722,"Lon":-1.798,"CountryCode":null},{"ID":4007,"Name":"Southend","Lat":51.55,"Lon":0.71,"CountryCode":null},{"ID":31552,"Name":"Southgate","Lat":51.6316,"Lon":-0.1265,"CountryCode":null},{"ID":6608,"Name":"Southport","Lat":53.6475,"Lon":-3.0053,"CountryCode":null},{"ID":41237,"Name":"Southwater","Lat":51.0238,"Lon":-0.3526,"CountryCode":null},{"ID":39703,"Name":"Southwick","Lat":54.9193,"Lon":-1.4062,"CountryCode":null},{"ID":33709,"Name":"Southwick","Lat":50.836,"Lon":-0.239,"CountryCode":null},{"ID":36784,"Name":"Sowerby Bridge","Lat":53.71,"Lon":-1.91,"CountryCode":null},{"ID":15750,"Name":"Spalding","Lat":52.7858,"Lon":-0.1529,"CountryCode":null},{"ID":24877,"Name":"Spennymoor","Lat":54.7,"Lon":-1.59,"CountryCode":null},{"ID":40442,"Name":"Spitalfields","Lat":51.5166,"Lon":-0.075,"CountryCode":null},{"ID":35320,"Name":"Spondon","Lat":52.92,"Lon":-1.401,"CountryCode":null},{"ID":8320,"Name":"Stafford","Lat":52.807,"Lon":-2.117,"CountryCode":null},{"ID":26227,"Name":"Staines-upon-Thames","Lat":51.434,"Lon":-0.511,"CountryCode":null},{"ID":21477,"Name":"Stalybridge","Lat":53.4834,"Lon":-2.04,"CountryCode":null},{"ID":24988,"Name":"Stamford","Lat":52.656,"Lon":-0.484,"CountryCode":null},{"ID":33560,"Name":"Standish","Lat":53.586,"Lon":-2.664,"CountryCode":null},{"ID":18227,"Name":"Stanford le Hope","Lat":51.514,"Lon":0.4244,"CountryCode":null},{"ID":30190,"Name":"Stanley","Lat":53.7145,"Lon":-1.476,"CountryCode":null},{"ID":21501,"Name":"Stanmore","Lat":51.618,"Lon":-0.314,"CountryCode":null},{"ID":26091,"Name":"Stannington","Lat":53.396,"Lon":-1.536,"CountryCode":null},{"ID":45916,"Name":"Stansted Mountfitchet","Lat":51.898,"Lon":0.198,"CountryCode":null},{"ID":37728,"Name":"Stanwell","Lat":51.457,"Lon":-0.4715,"CountryCode":null},{"ID":30016,"Name":"Stapleford","Lat":52.929,"Lon":-1.274,"CountryCode":null},{"ID":26478,"Name":"Staveley","Lat":53.2694,"Lon":-1.3484,"CountryCode":null},{"ID":28915,"Name":"Stepney","Lat":51.5152,"Lon":-0.0462,"CountryCode":null},{"ID":6738,"Name":"Stevenage","Lat":51.9017,"Lon":-0.2019,"CountryCode":null},{"ID":43804,"Name":"Stevenston","Lat":55.645,"Lon":-4.758,"CountryCode":null},{"ID":14438,"Name":"Stirling","Lat":56.1166,"Lon":-3.9369,"CountryCode":null},{"ID":4608,"Name":"Stockport","Lat":53.4083,"Lon":-2.1494,"CountryCode":null},{"ID":41871,"Name":"Stocksbridge","Lat":53.478,"Lon":-1.588,"CountryCode":null},{"ID":7222,"Name":"Stockton-on-Tees","Lat":54.57,"Lon":-1.32,"CountryCode":null},{"ID":24902,"Name":"Stoke Gifford","Lat":51.517,"Lon":-2.548,"CountryCode":null},{"ID":1897,"Name":"Stoke-on-Trent","Lat":53,"Lon":-2.1833,"CountryCode":null},{"ID":28728,"Name":"Stone","Lat":52.9,"Lon":-2.15,"CountryCode":null},{"ID":38003,"Name":"Stonehaven","Lat":56.964,"Lon":-2.211,"CountryCode":null},{"ID":9165,"Name":"Stourbridge","Lat":52.4575,"Lon":-2.1479,"CountryCode":null},{"ID":23232,"Name":"Stowmarket","Lat":52.19,"Lon":1,"CountryCode":null},{"ID":33164,"Name":"Strabane","Lat":54.83,"Lon":-7.47,"CountryCode":null},{"ID":40320,"Name":"Stranraer","Lat":54.902,"Lon":-5.027,"CountryCode":null},{"ID":10995,"Name":"Stratford","Lat":51.5423,"Lon":-0.0026,"CountryCode":null},{"ID":17307,"Name":"Stratford-upon-Avon","Lat":52.1928,"Lon":-1.7064,"CountryCode":null},{"ID":23685,"Name":"Stratton Saint Margaret","Lat":51.586,"Lon":-1.762,"CountryCode":null},{"ID":9892,"Name":"Streatham","Lat":51.4279,"Lon":-0.1235,"CountryCode":null},{"ID":36563,"Name":"Street","Lat":51.127,"Lon":-2.74,"CountryCode":null},{"ID":32442,"Name":"Streetly","Lat":52.577,"Lon":-1.884,"CountryCode":null},{"ID":11882,"Name":"Stretford","Lat":53.4466,"Lon":-2.3086,"CountryCode":null},{"ID":13674,"Name":"Strood","Lat":51.393,"Lon":0.478,"CountryCode":null},{"ID":33229,"Name":"Stroud","Lat":51.744,"Lon":-2.215,"CountryCode":null},{"ID":33946,"Name":"Sudbury","Lat":52.0417,"Lon":0.7282,"CountryCode":null},{"ID":30800,"Name":"Sudbury","Lat":51.5537,"Lon":-0.3199,"CountryCode":null},{"ID":26706,"Name":"Sunbury","Lat":51.423,"Lon":-0.424,"CountryCode":null},{"ID":2461,"Name":"Sunderland","Lat":54.906,"Lon":-1.381,"CountryCode":null},{"ID":36996,"Name":"Sunninghill","Lat":51.4025,"Lon":-0.655,"CountryCode":null},{"ID":12270,"Name":"Surbiton","Lat":51.394,"Lon":-0.307,"CountryCode":null},{"ID":13212,"Name":"Sutton","Lat":51.3656,"Lon":-0.1963,"CountryCode":null},{"ID":5638,"Name":"Sutton Coldfield","Lat":52.563,"Lon":-1.822,"CountryCode":null},{"ID":11565,"Name":"Sutton in Ashfield","Lat":53.125,"Lon":-1.261,"CountryCode":null},{"ID":34776,"Name":"Sutton on Hull","Lat":53.7806,"Lon":-0.3047,"CountryCode":null},{"ID":15553,"Name":"Swadlincote","Lat":52.774,"Lon":-1.557,"CountryCode":null},{"ID":30591,"Name":"Swallownest","Lat":53.3623,"Lon":-1.3251,"CountryCode":null},{"ID":42677,"Name":"Swanage","Lat":50.608,"Lon":-1.96,"CountryCode":null},{"ID":3003,"Name":"Swindon","Lat":51.56,"Lon":-1.78,"CountryCode":null},{"ID":22094,"Name":"Swinton","Lat":53.5122,"Lon":-2.3412,"CountryCode":null},{"ID":29865,"Name":"Swinton","Lat":53.4877,"Lon":-1.3149,"CountryCode":null},{"ID":34473,"Name":"Syston","Lat":52.7,"Lon":-1.08,"CountryCode":null},{"ID":37306,"Name":"Tadley","Lat":51.3506,"Lon":-1.1376,"CountryCode":null},{"ID":42937,"Name":"Tadworth","Lat":51.294,"Lon":-0.242,"CountryCode":null},{"ID":7981,"Name":"Tamworth","Lat":52.633,"Lon":-1.695,"CountryCode":null},{"ID":9528,"Name":"Taunton","Lat":51.019,"Lon":-3.1,"CountryCode":null},{"ID":38392,"Name":"Tavistock","Lat":50.545,"Lon":-4.15,"CountryCode":null},{"ID":40283,"Name":"Teddington","Lat":51.424,"Lon":-0.332,"CountryCode":null},{"ID":31100,"Name":"Teignmouth","Lat":50.5515,"Lon":-3.4886,"CountryCode":null},{"ID":4453,"Name":"Telford","Lat":52.6766,"Lon":-2.4469,"CountryCode":null},{"ID":24312,"Name":"Tewkesbury","Lat":51.99,"Lon":-2.16,"CountryCode":null},{"ID":33570,"Name":"Thame","Lat":51.75,"Lon":-0.97,"CountryCode":null},{"ID":43281,"Name":"Thames Ditton","Lat":51.389,"Lon":-0.331,"CountryCode":null},{"ID":20194,"Name":"Thatcham","Lat":51.405,"Lon":-1.264,"CountryCode":null},{"ID":35538,"Name":"Thatto Heath","Lat":53.4352,"Lon":-2.7481,"CountryCode":null},{"ID":28472,"Name":"The Mumbles","Lat":51.573,"Lon":-3.9992,"CountryCode":null},{"ID":19171,"Name":"Thetford","Lat":52.41,"Lon":0.74,"CountryCode":null},{"ID":20729,"Name":"Thornaby on Tees","Lat":54.5585,"Lon":-1.3025,"CountryCode":null},{"ID":31494,"Name":"Thornbury","Lat":51.6094,"Lon":-2.5249,"CountryCode":null},{"ID":27594,"Name":"Thorne","Lat":53.6083,"Lon":-0.9583,"CountryCode":null},{"ID":27618,"Name":"Thornton","Lat":53.7898,"Lon":-1.8504,"CountryCode":null},{"ID":8856,"Name":"Thornton Heath","Lat":51.4002,"Lon":-0.1086,"CountryCode":null},{"ID":31396,"Name":"Thorpe Saint Andrew","Lat":52.6354,"Lon":1.3431,"CountryCode":null},{"ID":20686,"Name":"Thundersley","Lat":51.57,"Lon":0.59,"CountryCode":null},{"ID":35195,"Name":"Tilbury","Lat":51.4606,"Lon":0.3582,"CountryCode":null},{"ID":43945,"Name":"Tilehurst","Lat":51.4579,"Lon":-1.0406,"CountryCode":null},{"ID":38280,"Name":"Timperley","Lat":53.387,"Lon":-2.328,"CountryCode":null},{"ID":14052,"Name":"Tipton","Lat":52.5259,"Lon":-2.0751,"CountryCode":null},{"ID":43958,"Name":"Tiptree","Lat":51.81,"Lon":0.75,"CountryCode":null},{"ID":22568,"Name":"Tiverton","Lat":50.903,"Lon":-3.488,"CountryCode":null},{"ID":29966,"Name":"Todmorden","Lat":53.713,"Lon":-2.096,"CountryCode":null},{"ID":14088,"Name":"Tonbridge","Lat":51.1987,"Lon":0.2764,"CountryCode":null},{"ID":35486,"Name":"Tonyrefail","Lat":51.584,"Lon":-3.4306,"CountryCode":null},{"ID":8935,"Name":"Torquay","Lat":50.47,"Lon":-3.53,"CountryCode":null},{"ID":36485,"Name":"Torton","Lat":52.4522,"Lon":-2.1606,"CountryCode":null},{"ID":43859,"Name":"Totnes","Lat":50.432,"Lon":-3.684,"CountryCode":null},{"ID":4863,"Name":"Tottenham","Lat":51.5975,"Lon":-0.0681,"CountryCode":null},{"ID":30404,"Name":"Totteridge","Lat":51.6354,"Lon":-0.2,"CountryCode":null},{"ID":42136,"Name":"Tottington","Lat":53.613,"Lon":-2.339,"CountryCode":null},{"ID":43726,"Name":"Towcester","Lat":52.13,"Lon":-0.99,"CountryCode":null},{"ID":35811,"Name":"Tranent","Lat":55.945,"Lon":-2.954,"CountryCode":null},{"ID":30475,"Name":"Tredegar","Lat":51.7776,"Lon":-3.2407,"CountryCode":null},{"ID":36494,"Name":"Trentham","Lat":52.9663,"Lon":-2.1899,"CountryCode":null},{"ID":35893,"Name":"Tring","Lat":51.7962,"Lon":-0.6592,"CountryCode":null},{"ID":31168,"Name":"Troon","Lat":55.54,"Lon":-4.66,"CountryCode":null},{"ID":16169,"Name":"Trowbridge","Lat":51.32,"Lon":-2.208,"CountryCode":null},{"ID":23216,"Name":"Truro","Lat":50.26,"Lon":-5.051,"CountryCode":null},{"ID":9310,"Name":"Twickenham","Lat":51.449,"Lon":-0.337,"CountryCode":null},{"ID":29046,"Name":"Tyldesley","Lat":53.5166,"Lon":-2.4667,"CountryCode":null},{"ID":8599,"Name":"Tynemouth","Lat":55.017,"Lon":-1.423,"CountryCode":null},{"ID":31499,"Name":"Uckfield","Lat":50.97,"Lon":0.1,"CountryCode":null},{"ID":36837,"Name":"Ulverston","Lat":54.193,"Lon":-3.09,"CountryCode":null},{"ID":20267,"Name":"Upminster","Lat":51.5557,"Lon":0.2512,"CountryCode":null},{"ID":29067,"Name":"Upton","Lat":53.385,"Lon":-3.099,"CountryCode":null},{"ID":13105,"Name":"Urmston","Lat":53.4487,"Lon":-2.3747,"CountryCode":null},{"ID":44235,"Name":"Usworth","Lat":54.94,"Lon":-1.55,"CountryCode":null},{"ID":32269,"Name":"Uttoxeter","Lat":52.898,"Lon":-1.86,"CountryCode":null},{"ID":8329,"Name":"Uxbridge","Lat":51.5404,"Lon":-0.4778,"CountryCode":null},{"ID":41163,"Name":"Vange","Lat":51.55,"Lon":0.4667,"CountryCode":null},{"ID":30353,"Name":"Verwood","Lat":50.8815,"Lon":-1.8785,"CountryCode":null},{"ID":6199,"Name":"Wakefield","Lat":53.6825,"Lon":-1.4975,"CountryCode":null},{"ID":15119,"Name":"Walkden","Lat":53.5239,"Lon":-2.3991,"CountryCode":null},{"ID":9549,"Name":"Wallasey","Lat":53.4158,"Lon":-3.0233,"CountryCode":null},{"ID":37005,"Name":"Wallingford","Lat":51.599,"Lon":-1.125,"CountryCode":null},{"ID":23845,"Name":"Wallington","Lat":51.3647,"Lon":-0.1403,"CountryCode":null},{"ID":12606,"Name":"Wallsend","Lat":54.991,"Lon":-1.534,"CountryCode":null},{"ID":8663,"Name":"Walsall","Lat":52.58,"Lon":-1.98,"CountryCode":null},{"ID":33691,"Name":"Walsall Wood","Lat":52.6277,"Lon":-1.9301,"CountryCode":null},{"ID":22153,"Name":"Waltham Abbey","Lat":51.6846,"Lon":0.0004,"CountryCode":null},{"ID":46067,"Name":"Waltham Cross","Lat":51.686,"Lon":-0.0331,"CountryCode":null},{"ID":5655,"Name":"Walthamstow","Lat":51.584,"Lon":-0.021,"CountryCode":null},{"ID":8776,"Name":"Walton upon Thames","Lat":51.3868,"Lon":-0.4133,"CountryCode":null},{"ID":35995,"Name":"Walton-on-the-Naze","Lat":51.848,"Lon":1.268,"CountryCode":null},{"ID":26671,"Name":"Wandsworth","Lat":51.455,"Lon":-0.192,"CountryCode":null},{"ID":37137,"Name":"Wanstead","Lat":51.5778,"Lon":0.0286,"CountryCode":null},{"ID":33868,"Name":"Wantage","Lat":51.589,"Lon":-1.427,"CountryCode":null},{"ID":25901,"Name":"Ware","Lat":51.8108,"Lon":-0.0314,"CountryCode":null},{"ID":41026,"Name":"Warfield","Lat":51.442,"Lon":-0.737,"CountryCode":null},{"ID":26565,"Name":"Warminster","Lat":51.205,"Lon":-2.181,"CountryCode":null},{"ID":3895,"Name":"Warrington","Lat":53.39,"Lon":-2.59,"CountryCode":null},{"ID":34785,"Name":"Warsop","Lat":53.2,"Lon":-1.15,"CountryCode":null},{"ID":16332,"Name":"Warwick","Lat":52.28,"Lon":-1.59,"CountryCode":null},{"ID":8710,"Name":"Washington","Lat":54.9,"Lon":-1.52,"CountryCode":null},{"ID":9041,"Name":"Waterlooville","Lat":50.88,"Lon":-1.03,"CountryCode":null},{"ID":6695,"Name":"Watford","Lat":51.655,"Lon":-0.3957,"CountryCode":null},{"ID":36540,"Name":"Wath upon Dearne","Lat":53.5022,"Lon":-1.3402,"CountryCode":null},{"ID":37479,"Name":"Wealdstone","Lat":51.5957,"Lon":-0.3352,"CountryCode":null},{"ID":22329,"Name":"Wednesfield","Lat":52.5998,"Lon":-2.0827,"CountryCode":null},{"ID":13359,"Name":"Welling","Lat":51.4594,"Lon":0.1097,"CountryCode":null},{"ID":10126,"Name":"Wellingborough","Lat":52.3028,"Lon":-0.6944,"CountryCode":null},{"ID":20133,"Name":"Wellington","Lat":52.7001,"Lon":-2.5157,"CountryCode":null},{"ID":28381,"Name":"Wellington","Lat":50.9755,"Lon":-3.2243,"CountryCode":null},{"ID":36135,"Name":"Wells","Lat":51.2094,"Lon":-2.645,"CountryCode":null},{"ID":11590,"Name":"Welwyn Garden City","Lat":51.8062,"Lon":-0.1932,"CountryCode":null},{"ID":5987,"Name":"Wembley","Lat":51.5528,"Lon":-0.2979,"CountryCode":null},{"ID":46306,"Name":"West Auckland","Lat":54.6318,"Lon":-1.721,"CountryCode":null},{"ID":33573,"Name":"West Boldon","Lat":54.945,"Lon":-1.441,"CountryCode":null},{"ID":14813,"Name":"West Bridgford","Lat":52.932,"Lon":-1.127,"CountryCode":null},{"ID":4359,"Name":"West Bromwich","Lat":52.519,"Lon":-1.995,"CountryCode":null},{"ID":31692,"Name":"West Derby","Lat":53.4338,"Lon":-2.907,"CountryCode":null},{"ID":31715,"Name":"West Drayton","Lat":51.5043,"Lon":-0.4646,"CountryCode":null},{"ID":29876,"Name":"West Ham","Lat":51.534,"Lon":0.008,"CountryCode":null},{"ID":30895,"Name":"West Wickham","Lat":51.3765,"Lon":-0.0193,"CountryCode":null},{"ID":28686,"Name":"Westbury","Lat":51.26,"Lon":-2.191,"CountryCode":null},{"ID":20573,"Name":"Westhoughton","Lat":53.549,"Lon":-2.529,"CountryCode":null},{"ID":2631,"Name":"Westminster","Lat":51.4947,"Lon":-0.1353,"CountryCode":null},{"ID":31891,"Name":"Weston","Lat":53.413,"Lon":-2.798,"CountryCode":null},{"ID":7774,"Name":"Weston-super-Mare","Lat":51.346,"Lon":-2.977,"CountryCode":null},{"ID":36772,"Name":"Wetherby","Lat":53.9276,"Lon":-1.3839,"CountryCode":null},{"ID":30020,"Name":"Weybridge","Lat":51.362,"Lon":-0.453,"CountryCode":null},{"ID":11061,"Name":"Weymouth","Lat":50.6097,"Lon":-2.4547,"CountryCode":null},{"ID":28400,"Name":"Whickham","Lat":54.946,"Lon":-1.6761,"CountryCode":null},{"ID":38848,"Name":"Whitburn","Lat":55.8621,"Lon":-3.6872,"CountryCode":null},{"ID":33035,"Name":"Whitby","Lat":54.4858,"Lon":-0.6206,"CountryCode":null},{"ID":38281,"Name":"Whitchurch","Lat":51.4064,"Lon":-2.5594,"CountryCode":null},{"ID":40862,"Name":"Whitchurch","Lat":52.969,"Lon":-2.682,"CountryCode":null},{"ID":21799,"Name":"Whitefield","Lat":53.5521,"Lon":-2.2992,"CountryCode":null},{"ID":20486,"Name":"Whitehaven","Lat":54.548,"Lon":-3.5855,"CountryCode":null},{"ID":14765,"Name":"Whitley Bay","Lat":55.0456,"Lon":-1.4443,"CountryCode":null},{"ID":39837,"Name":"Whitnash","Lat":52.268,"Lon":-1.524,"CountryCode":null},{"ID":17444,"Name":"Whitstable","Lat":51.361,"Lon":1.026,"CountryCode":null},{"ID":27118,"Name":"Whittlesey","Lat":52.558,"Lon":-0.13,"CountryCode":null},{"ID":45947,"Name":"Whitwick","Lat":52.7403,"Lon":-1.3556,"CountryCode":null},{"ID":31216,"Name":"Wibsey","Lat":53.7672,"Lon":-1.7728,"CountryCode":null},{"ID":46467,"Name":"Wick","Lat":58.454,"Lon":-3.089,"CountryCode":null},{"ID":16019,"Name":"Wickford","Lat":51.6114,"Lon":0.5207,"CountryCode":null},{"ID":9412,"Name":"Widnes","Lat":53.362,"Lon":-2.7341,"CountryCode":null},{"ID":5948,"Name":"Wigan","Lat":53.5448,"Lon":-2.6318,"CountryCode":null},{"ID":16470,"Name":"Wigston Magna","Lat":52.5812,"Lon":-1.093,"CountryCode":null},{"ID":10990,"Name":"Willenhall","Lat":52.5798,"Lon":-2.0605,"CountryCode":null},{"ID":19683,"Name":"Wilmslow","Lat":53.325,"Lon":-2.239,"CountryCode":null},{"ID":43406,"Name":"Wilnecote","Lat":52.6081,"Lon":-1.6677,"CountryCode":null},{"ID":6553,"Name":"Wimbledon","Lat":51.422,"Lon":-0.208,"CountryCode":null},{"ID":15284,"Name":"Winchester","Lat":51.0632,"Lon":-1.308,"CountryCode":null},{"ID":28263,"Name":"Windlesham","Lat":51.36,"Lon":-0.66,"CountryCode":null},{"ID":16524,"Name":"Windsor","Lat":51.4791,"Lon":-0.6095,"CountryCode":null},{"ID":30725,"Name":"Winkfield","Lat":51.4318,"Lon":-0.7096,"CountryCode":null},{"ID":15383,"Name":"Winsford","Lat":53.194,"Lon":-2.52,"CountryCode":null},{"ID":16809,"Name":"Wisbech","Lat":52.664,"Lon":0.16,"CountryCode":null},{"ID":17408,"Name":"Wishaw","Lat":55.7742,"Lon":-3.9183,"CountryCode":null},{"ID":20148,"Name":"Witham","Lat":51.7978,"Lon":0.6373,"CountryCode":null},{"ID":18911,"Name":"Witney","Lat":51.78,"Lon":-1.49,"CountryCode":null},