[{"ID":40828,"Name":"Akhaltsikhe","Lat":41.6389,"Lon":42.9861,"CountryCode":null},{"ID":47073,"Name":"Ambrolauri","Lat":42.5194,"Lon":43.15,"CountryCode":null},{"ID":3812,"Name":"Batumi","Lat":41.6458,"Lon":41.6417,"CountryCode":null},{"ID":37939,"Name":"Borjomi","Lat":41.8389,"Lon":43.3792,"CountryCode":null},{"ID":34475,"Name":"Chiatura","Lat":42.2903,"Lon":43.2819,"CountryCode":null},{"ID":12451,"Name":"Gori","Lat":41.9667,"Lon":44.1,"CountryCode":null},{"ID":11064,"Name":"Iormughanlo","Lat":41.5961,"Lon":45.5294,"CountryCode":null},{"ID":34662,"Name":"Kaspi","Lat":41.925,"Lon":44.4222,"CountryCode":null},{"ID":20814,"Name":"Khashuri","Lat":41.9975,"Lon":43.5986,"CountryCode":null},{"ID":18896,"Name":"Kobuleti","Lat":41.8111,"Lon":41.7753,"CountryCode":null},{"ID":4320,"Name":"Kutaisi","Lat":42.25,"Lon":42.7,"CountryCode":null},{"ID":20594,"Name":"Marneuli","Lat":41.4969,"Lon":44.8108,"CountryCode":null},{"ID":46417,"Name":"Mtskheta","Lat":41.8464,"Lon":44.7194,"CountryCode":null},{"ID":47280,"Name":"Ozurgeti","Lat":41.9406,"Lon":41.9906,"CountryCode":null},{"ID":13203,"Name":"Poti","Lat":42.15,"Lon":41.6667,"CountryCode":null},{"ID":4763,"Name":"Rustavi","Lat":41.5436,"Lon":45.0117,"CountryCode":null},{"ID":38821,"Name":"Sagarejo","Lat":41.7333,"Lon":45.3333,"CountryCode":null},{"ID":22657,"Name":"Samtredia","Lat":42.1625,"Lon":42.3417,"CountryCode":null},{"ID":23187,"Name":"Senaki","Lat":42.2689,"Lon":42.0792,"CountryCode":null},{"ID":9030,"Name":"Sokhumi","Lat":43,"Lon":41.0167,"CountryCode":null},{"ID":688,"Name":"Tbilisi","Lat":41.7225,"Lon":44.7925,"CountryCode":null},{"ID":25157,"Name":"Telavi","Lat":41.9167,"Lon":45.4833,"CountryCode":null},{"ID":17340,"Name":"Tskhinvali","Lat":42.225,"Lon":43.97,"CountryCode":null},{"ID":24138,"Name":"Zestaponi","Lat":42.1083,"Lon":43.0417,"CountryCode":null},{"ID":13206,"Name":"Zugdidi","Lat":42.5083,"Lon":41.8667,"CountryCode":null}]