[{"ID":9398,"Name":"Cayenne","Lat":4.933,"Lon":-52.33,"CountryCode":null},{"ID":47139,"Name":"Iracoubo","Lat":5.4804,"Lon":-53.22,"CountryCode":null},{"ID":21244,"Name":"Kourou","Lat":5.16,"Lon":-52.6499,"CountryCode":null},{"ID":47033,"Name":"Roura","Lat":4.73,"Lon":-52.33,"CountryCode":null},{"ID":46960,"Name":"Saint-Georges","Lat":3.9105,"Lon":-51.81,"CountryCode":null},{"ID":21049,"Name":"Saint-Laurent-du-Maroni","Lat":5.4976,"Lon":-54.0325,"CountryCode":null},{"ID":46894,"Name":"Sinnamary","Lat":5.38,"Lon":-52.96,"CountryCode":null}]