[{"ID":41638,"Name":"Aboso","Lat":5.3633,"Lon":-1.9478,"CountryCode":null},{"ID":25989,"Name":"Aburi","Lat":5.85,"Lon":-0.1833,"CountryCode":null},{"ID":349,"Name":"Accra","Lat":5.55,"Lon":-0.2,"CountryCode":null},{"ID":8778,"Name":"Aflao","Lat":6.1468,"Lon":1.1799,"CountryCode":null},{"ID":14705,"Name":"Agogo","Lat":6.8,"Lon":-1.0833,"CountryCode":null},{"ID":7354,"Name":"Ahenkro","Lat":7.1164,"Lon":0.3242,"CountryCode":null},{"ID":40137,"Name":"Akim Swedru","Lat":5.894,"Lon":-1.0127,"CountryCode":null},{"ID":32698,"Name":"Akropong","Lat":5.9742,"Lon":-0.0881,"CountryCode":null},{"ID":21450,"Name":"Akwatia","Lat":6.05,"Lon":-0.8,"CountryCode":null},{"ID":15000,"Name":"Anloga","Lat":5.7919,"Lon":0.9003,"CountryCode":null},{"ID":31682,"Name":"Anomabu","Lat":5.1667,"Lon":-1.1167,"CountryCode":null},{"ID":19518,"Name":"Apam","Lat":5.2789,"Lon":-0.7397,"CountryCode":null},{"ID":13847,"Name":"Asamankese","Lat":5.8667,"Lon":-0.6667,"CountryCode":null},{"ID":3183,"Name":"Ashaiman","Lat":5.7,"Lon":-0.0333,"CountryCode":null},{"ID":5826,"Name":"Atebubu","Lat":7.75,"Lon":-0.9833,"CountryCode":null},{"ID":18796,"Name":"Axim","Lat":4.8667,"Lon":-2.2333,"CountryCode":null},{"ID":8460,"Name":"Bawku","Lat":11.05,"Lon":-0.2333,"CountryCode":null},{"ID":27102,"Name":"Bechem","Lat":7.0833,"Lon":-2.0167,"CountryCode":null},{"ID":11568,"Name":"Begoro","Lat":6.3833,"Lon":-0.3833,"CountryCode":null},{"ID":9277,"Name":"Berekum","Lat":7.45,"Lon":-2.5833,"CountryCode":null},{"ID":227,"Name":"Boankra","Lat":6.6944,"Lon":-1.4028,"CountryCode":null},{"ID":11271,"Name":"Bogoso","Lat":5.5686,"Lon":-2.0058,"CountryCode":null},{"ID":8764,"Name":"Bolgatanga","Lat":10.7833,"Lon":-0.85,"CountryCode":null},{"ID":3795,"Name":"Cape Coast","Lat":5.1,"Lon":-1.25,"CountryCode":null},{"ID":45983,"Name":"Chamba","Lat":8.7,"Lon":-0.1333,"CountryCode":null},{"ID":47771,"Name":"Dambai","Lat":8.0689,"Lon":0.1792,"CountryCode":null},{"ID":47074,"Name":"Damongo","Lat":9.0833,"Lon":-1.8167,"CountryCode":null},{"ID":34738,"Name":"Diari","Lat":9.8452,"Lon":-0.8655,"CountryCode":null},{"ID":773,"Name":"Domaa-Ahenkro","Lat":7.2833,"Lon":-2.8833,"CountryCode":null},{"ID":7533,"Name":"Dome","Lat":5.655,"Lon":-0.235,"CountryCode":null},{"ID":18939,"Name":"Duayaw-Nkwanta","Lat":7.1667,"Lon":-2.1,"CountryCode":null},{"ID":6147,"Name":"Dzolokpuita","Lat":6.7862,"Lon":0.4437,"CountryCode":null},{"ID":15327,"Name":"Effia-Kuma","Lat":4.9239,"Lon":-1.7622,"CountryCode":null},{"ID":8293,"Name":"Ejura","Lat":7.3833,"Lon":-1.3667,"CountryCode":null},{"ID":15978,"Name":"Elmina","Lat":5.0833,"Lon":-1.35,"CountryCode":null},{"ID":7932,"Name":"Gbawe","Lat":5.5767,"Lon":-0.3108,"CountryCode":null},{"ID":47770,"Name":"Goaso","Lat":6.8,"Lon":-2.5167,"CountryCode":null},{"ID":35059,"Name":"Gumani","Lat":9.45,"Lon":-0.7667,"CountryCode":null},{"ID":15754,"Name":"Gyapekurom","Lat":7.5833,"Lon":-2.7833,"CountryCode":null},{"ID":7156,"Name":"Ho","Lat":6.6119,"Lon":0.4703,"CountryCode":null},{"ID":10186,"Name":"Hohoe","Lat":7.149,"Lon":0.4746,"CountryCode":null},{"ID":28532,"Name":"Kade","Lat":6.0833,"Lon":-0.8333,"CountryCode":null},{"ID":41416,"Name":"Karaga","Lat":9.925,"Lon":-0.4297,"CountryCode":null},{"ID":22255,"Name":"Keta","Lat":5.9167,"Lon":0.9833,"CountryCode":null},{"ID":36606,"Name":"Kete Krachi","Lat":7.8,"Lon":-0.0167,"CountryCode":null},{"ID":36842,"Name":"Kibi","Lat":6.1667,"Lon":-0.55,"CountryCode":null},{"ID":5590,"Name":"Kintampo","Lat":8.0522,"Lon":-1.7347,"CountryCode":null},{"ID":4933,"Name":"Koforidua","Lat":6.0833,"Lon":-0.25,"CountryCode":null},{"ID":8248,"Name":"Konongo","Lat":6.6167,"Lon":-1.2167,"CountryCode":null},{"ID":37831,"Name":"Kpandae","Lat":8.47,"Lon":-0.02,"CountryCode":null},{"ID":18450,"Name":"Kpandu","Lat":7,"Lon":0.3,"CountryCode":null},{"ID":216,"Name":"Kumasi","Lat":6.7,"Lon":-1.625,"CountryCode":null},{"ID":13048,"Name":"Mampong","Lat":7.0667,"Lon":-1.4,"CountryCode":null},{"ID":4607,"Name":"Medina Estates","Lat":5.6833,"Lon":-0.1667,"CountryCode":null},{"ID":37953,"Name":"Mpraeso","Lat":6.58,"Lon":-0.7297,"CountryCode":null},{"ID":26356,"Name":"Mumford","Lat":5.2625,"Lon":-0.7578,"CountryCode":null},{"ID":30834,"Name":"Nalerigu","Lat":10.5333,"Lon":-0.3667,"CountryCode":null},{"ID":19018,"Name":"Navrongo","Lat":10.8847,"Lon":-1.0903,"CountryCode":null},{"ID":9362,"Name":"Nkawkaw","Lat":6.55,"Lon":-0.7667,"CountryCode":null},{"ID":12452,"Name":"Nsawam","Lat":5.8,"Lon":-0.35,"CountryCode":null},{"ID":22106,"Name":"Nyakrom","Lat":5.6167,"Lon":-0.7833,"CountryCode":null},{"ID":3592,"Name":"Obuase","Lat":6.2,"Lon":-1.6833,"CountryCode":null},{"ID":9515,"Name":"Oda","Lat":5.9236,"Lon":-0.9883,"CountryCode":null},{"ID":28533,"Name":"Odumase","Lat":7.3667,"Lon":-2.3167,"CountryCode":null},{"ID":25988,"Name":"Peduasi","Lat":5.85,"Lon":-0.1833,"CountryCode":null},{"ID":15064,"Name":"Prestea","Lat":5.4333,"Lon":-2.15,"CountryCode":null},{"ID":20188,"Name":"Salaga","Lat":8.55,"Lon":-0.5167,"CountryCode":null},{"ID":20763,"Name":"Saltpond","Lat":5.2,"Lon":-1.0667,"CountryCode":null},{"ID":14270,"Name":"Savelugu","Lat":9.6167,"Lon":-0.8333,"CountryCode":null},{"ID":39641,"Name":"Sawla","Lat":9.2833,"Lon":-2.4167,"CountryCode":null},{"ID":47772,"Name":"Sefwi Wiawso","Lat":6.2158,"Lon":-2.485,"CountryCode":null},{"ID":2399,"Name":"Sekondi","Lat":4.9433,"Lon":-1.704,"CountryCode":null},{"ID":22256,"Name":"Seva","Lat":5.9845,"Lon":0.9414,"CountryCode":null},{"ID":21503,"Name":"Shama","Lat":5.0167,"Lon":-1.6333,"CountryCode":null},{"ID":24089,"Name":"Somanya","Lat":6.1039,"Lon":-0.015,"CountryCode":null},{"ID":4964,"Name":"Suhum","Lat":6.0333,"Lon":-0.45,"CountryCode":null},{"ID":3181,"Name":"Sunyani","Lat":7.3333,"Lon":-2.3333,"CountryCode":null},{"ID":8597,"Name":"Swedru","Lat":5.5306,"Lon":-0.7028,"CountryCode":null},{"ID":9477,"Name":"Tafo","Lat":6.7358,"Lon":-1.6081,"CountryCode":null},{"ID":700,"Name":"Tamale","Lat":9.4075,"Lon":-0.8533,"CountryCode":null},{"ID":15420,"Name":"Tarkwa","Lat":5.3,"Lon":-1.9833,"CountryCode":null},{"ID":5913,"Name":"Techiman","Lat":7.5772,"Lon":-1.9292,"CountryCode":null},{"ID":3970,"Name":"Tema","Lat":5.6667,"Lon":-0.0167,"CountryCode":null},{"ID":5764,"Name":"Wa","Lat":10.0667,"Lon":-2.5,"CountryCode":null},{"ID":10327,"Name":"Winneba","Lat":5.35,"Lon":-0.625,"CountryCode":null},{"ID":10886,"Name":"Yendi","Lat":9.4324,"Lon":-0.0043,"CountryCode":null}]