[{"ID":22424,"Name":"Bafata","Lat":12.1719,"Lon":-14.6575,"CountryCode":null},{"ID":16500,"Name":"Bambadinca","Lat":12.0333,"Lon":-14.8667,"CountryCode":null},{"ID":1503,"Name":"Bissau","Lat":11.85,"Lon":-15.5667,"CountryCode":null},{"ID":36230,"Name":"Bissora","Lat":12.04,"Lon":-15.4281,"CountryCode":null},{"ID":46704,"Name":"Bolama","Lat":11.5767,"Lon":-15.4828,"CountryCode":null},{"ID":46141,"Name":"Buba","Lat":11.5833,"Lon":-15,"CountryCode":null},{"ID":46606,"Name":"Cacheu","Lat":12.2667,"Lon":-16.1667,"CountryCode":null},{"ID":34682,"Name":"Caio","Lat":11.9278,"Lon":-16.2028,"CountryCode":null},{"ID":19202,"Name":"Catio","Lat":11.2833,"Lon":-15.25,"CountryCode":null},{"ID":12017,"Name":"Farim","Lat":12.4833,"Lon":-15.2167,"CountryCode":null},{"ID":47182,"Name":"Fulacunda","Lat":11.773,"Lon":-15.195,"CountryCode":null},{"ID":14460,"Name":"Gabu","Lat":12.2833,"Lon":-14.2167,"CountryCode":null},{"ID":36136,"Name":"Madina do Boe","Lat":11.75,"Lon":-14.2167,"CountryCode":null},{"ID":12873,"Name":"Quinhamel","Lat":11.8833,"Lon":-15.85,"CountryCode":null}]