[{"ID":44996,"Name":"Belisce","Lat":45.6833,"Lon":18.4,"CountryCode":null},{"ID":42447,"Name":"Benkovac","Lat":44.0344,"Lon":15.6128,"CountryCode":null},{"ID":14848,"Name":"Bjelovar","Lat":45.9,"Lon":16.8333,"CountryCode":null},{"ID":39149,"Name":"Brdovec","Lat":45.8667,"Lon":15.7667,"CountryCode":null},{"ID":19103,"Name":"Cakovec","Lat":46.3858,"Lon":16.4333,"CountryCode":null},{"ID":42505,"Name":"Cepin","Lat":45.5167,"Lon":18.5667,"CountryCode":null},{"ID":41516,"Name":"Crikvenica","Lat":45.1833,"Lon":14.7,"CountryCode":null},{"ID":21576,"Name":"Dakovo","Lat":45.31,"Lon":18.41,"CountryCode":null},{"ID":40981,"Name":"Daruvar","Lat":45.5929,"Lon":17.2237,"CountryCode":null},{"ID":13178,"Name":"Dubrovnik","Lat":42.6403,"Lon":18.1083,"CountryCode":null},{"ID":40660,"Name":"Duga Resa","Lat":45.4472,"Lon":15.4958,"CountryCode":null},{"ID":27103,"Name":"Dugo Selo","Lat":45.8058,"Lon":16.2331,"CountryCode":null},{"ID":45907,"Name":"Garesnica","Lat":45.5667,"Lon":16.9333,"CountryCode":null},{"ID":37231,"Name":"Gospic","Lat":44.546,"Lon":15.375,"CountryCode":null},{"ID":44052,"Name":"Imotski","Lat":43.45,"Lon":17.2167,"CountryCode":null},{"ID":34634,"Name":"Ivanec","Lat":46.2264,"Lon":16.1253,"CountryCode":null},{"ID":34142,"Name":"Ivanic-Grad","Lat":45.7081,"Lon":16.3947,"CountryCode":null},{"ID":31384,"Name":"Jastrebarsko","Lat":45.6719,"Lon":15.6511,"CountryCode":null},{"ID":11397,"Name":"Karlovac","Lat":45.4833,"Lon":15.55,"CountryCode":null},{"ID":40691,"Name":"Kastav","Lat":45.375,"Lon":14.349,"CountryCode":null},{"ID":14359,"Name":"Kastel Stari","Lat":43.55,"Lon":16.35,"CountryCode":null},{"ID":36936,"Name":"Knin","Lat":44.0414,"Lon":16.1986,"CountryCode":null},{"ID":18321,"Name":"Koprivnica","Lat":46.15,"Lon":16.8167,"CountryCode":null},{"ID":37160,"Name":"Krapina","Lat":46.16,"Lon":15.87,"CountryCode":null},{"ID":25744,"Name":"Krizevci","Lat":46.0258,"Lon":16.5425,"CountryCode":null},{"ID":25069,"Name":"Kutina","Lat":45.4667,"Lon":16.7833,"CountryCode":null},{"ID":39997,"Name":"Labin","Lat":45.0833,"Lon":14.1167,"CountryCode":null},{"ID":33510,"Name":"Makarska","Lat":43.3,"Lon":17.0333,"CountryCode":null},{"ID":39054,"Name":"Matulji","Lat":45.3667,"Lon":14.3167,"CountryCode":null},{"ID":30295,"Name":"Metkovic","Lat":43.05,"Lon":17.65,"CountryCode":null},{"ID":31844,"Name":"Nasice","Lat":45.4833,"Lon":18.1,"CountryCode":null},{"ID":38396,"Name":"Nedelisce","Lat":46.3833,"Lon":16.3833,"CountryCode":null},{"ID":36810,"Name":"Nova Gradiska","Lat":45.25,"Lon":17.3833,"CountryCode":null},{"ID":36588,"Name":"Novi Marof","Lat":46.1667,"Lon":16.3333,"CountryCode":null},{"ID":38087,"Name":"Novska","Lat":45.3333,"Lon":16.9833,"CountryCode":null},{"ID":35605,"Name":"Ogulin","Lat":45.2669,"Lon":15.2248,"CountryCode":null},{"ID":32087,"Name":"Omis","Lat":43.4333,"Lon":16.6833,"CountryCode":null},{"ID":39465,"Name":"Opatija","Lat":45.3333,"Lon":14.3,"CountryCode":null},{"ID":6348,"Name":"Osijek","Lat":45.5556,"Lon":18.6944,"CountryCode":null},{"ID":46356,"Name":"Pazin","Lat":45.2403,"Lon":13.9367,"CountryCode":null},{"ID":24752,"Name":"Petrinja","Lat":45.4406,"Lon":16.2783,"CountryCode":null},{"ID":44099,"Name":"Pleternica","Lat":45.2833,"Lon":17.8,"CountryCode":null},{"ID":40061,"Name":"Podstrana","Lat":43.48,"Lon":16.58,"CountryCode":null},{"ID":40538,"Name":"Popovaca","Lat":45.5697,"Lon":16.625,"CountryCode":null},{"ID":28455,"Name":"Porec","Lat":45.2272,"Lon":13.5958,"CountryCode":null},{"ID":22565,"Name":"Pozega","Lat":45.3331,"Lon":17.6736,"CountryCode":null},{"ID":10850,"Name":"Pula","Lat":44.8703,"Lon":13.8456,"CountryCode":null},{"ID":5732,"Name":"Rijeka","Lat":45.3272,"Lon":14.4411,"CountryCode":null},{"ID":34171,"Name":"Rovinj","Lat":45.0833,"Lon":13.6333,"CountryCode":null},{"ID":14500,"Name":"Samobor","Lat":45.8,"Lon":15.7167,"CountryCode":null},{"ID":8295,"Name":"Sesvete","Lat":45.8269,"Lon":16.1111,"CountryCode":null},{"ID":12897,"Name":"Sibenik","Lat":43.735,"Lon":15.8906,"CountryCode":null},{"ID":21676,"Name":"Sinj","Lat":43.7,"Lon":16.6333,"CountryCode":null},{"ID":13629,"Name":"Sisak","Lat":45.4872,"Lon":16.3761,"CountryCode":null},{"ID":37228,"Name":"Slatina","Lat":45.7022,"Lon":17.7011,"CountryCode":null},{"ID":12299,"Name":"Slavonski Brod","Lat":45.1667,"Lon":18.0167,"CountryCode":null},{"ID":21319,"Name":"Solin","Lat":43.5394,"Lon":16.4831,"CountryCode":null},{"ID":3998,"Name":"Split","Lat":43.51,"Lon":16.44,"CountryCode":null},{"ID":31323,"Name":"Sveti Ivan Zelina","Lat":45.9596,"Lon":16.2431,"CountryCode":null},{"ID":35293,"Name":"Trogir","Lat":43.5169,"Lon":16.2514,"CountryCode":null},{"ID":34676,"Name":"Umag","Lat":45.4333,"Lon":13.5167,"CountryCode":null},{"ID":42132,"Name":"Valpovo","Lat":45.6667,"Lon":18.4167,"CountryCode":null},{"ID":12615,"Name":"Varazdin","Lat":46.3081,"Lon":16.3378,"CountryCode":null},{"ID":9460,"Name":"Velika Gorica","Lat":45.7,"Lon":16.0667,"CountryCode":null},{"ID":17149,"Name":"Vinkovci","Lat":45.2911,"Lon":18.8011,"CountryCode":null},{"ID":25351,"Name":"Virovitica","Lat":45.8333,"Lon":17.3833,"CountryCode":null},{"ID":29131,"Name":"Viskovo","Lat":45.3778,"Lon":14.3861,"CountryCode":null},{"ID":45822,"Name":"Vodice","Lat":43.75,"Lon":15.7667,"CountryCode":null},{"ID":34144,"Name":"Vrbovec","Lat":45.8833,"Lon":16.4333,"CountryCode":null},{"ID":21870,"Name":"Vukovar","Lat":45.3444,"Lon":19.0025,"CountryCode":null},{"ID":45798,"Name":"Zabok","Lat":46.0333,"Lon":15.9167,"CountryCode":null},{"ID":8297,"Name":"Zadar","Lat":44.1194,"Lon":15.2319,"CountryCode":null},{"ID":978,"Name":"Zagreb","Lat":45.8131,"Lon":15.9775,"CountryCode":null},{"ID":21171,"Name":"Zapresic","Lat":45.8572,"Lon":15.805,"CountryCode":null},{"ID":44051,"Name":"Zupanja","Lat":45.07,"Lon":18.7,"CountryCode":null}]