[{"ID":4761,"Name":"Adonara","Lat":-8.25,"Lon":123.15,"CountryCode":null},{"ID":16856,"Name":"Airmadidi","Lat":1.4333,"Lon":124.9833,"CountryCode":null},{"ID":11725,"Name":"Amahai","Lat":-3.3331,"Lon":128.919,"CountryCode":null},{"ID":9052,"Name":"Ambarawa","Lat":-7.2667,"Lon":110.4,"CountryCode":null},{"ID":2020,"Name":"Ambon","Lat":-3.7,"Lon":128.1667,"CountryCode":null},{"ID":13563,"Name":"Ampana","Lat":-0.8667,"Lon":121.5833,"CountryCode":null},{"ID":13182,"Name":"Amuntai","Lat":-2.4177,"Lon":115.2494,"CountryCode":null},{"ID":7175,"Name":"Atambua","Lat":-9.1061,"Lon":124.8925,"CountryCode":null},{"ID":602,"Name":"Bagam","Lat":1.13,"Lon":104.0531,"CountryCode":null},{"ID":8036,"Name":"Bagan Si Api-api","Lat":2.1667,"Lon":100.8167,"CountryCode":null},{"ID":5573,"Name":"Baleraja","Lat":-6.5167,"Lon":107.9169,"CountryCode":null},{"ID":1255,"Name":"Balikpapan","Lat":-1.2768,"Lon":116.8277,"CountryCode":null},{"ID":36443,"Name":"Ban","Lat":-8.2333,"Lon":115.4833,"CountryCode":null},{"ID":2854,"Name":"Banda Aceh","Lat":5.55,"Lon":95.3175,"CountryCode":null},{"ID":660,"Name":"Bandar Lampung","Lat":-5.45,"Lon":105.2667,"CountryCode":null},{"ID":1668,"Name":"Bandung","Lat":-6.912,"Lon":107.6097,"CountryCode":null},{"ID":6975,"Name":"Bangkalan","Lat":-7.0253,"Lon":112.7519,"CountryCode":null},{"ID":14340,"Name":"Bangkinang","Lat":0.35,"Lon":101.0333,"CountryCode":null},{"ID":3205,"Name":"Banjar","Lat":-7.3695,"Lon":108.5414,"CountryCode":null},{"ID":3074,"Name":"Banjarbaru","Lat":-3.4425,"Lon":114.8325,"CountryCode":null},{"ID":1132,"Name":"Banjarmasin","Lat":-3.32,"Lon":114.5925,"CountryCode":null},{"ID":5295,"Name":"Banyuwangi","Lat":-8.2186,"Lon":114.3669,"CountryCode":null},{"ID":10112,"Name":"Barabai","Lat":-2.5833,"Lon":115.3833,"CountryCode":null},{"ID":12373,"Name":"Barru","Lat":-4.3587,"Lon":119.6399,"CountryCode":null},{"ID":643,"Name":"Batam Centre","Lat":1.13,"Lon":104.0531,"CountryCode":null},{"ID":4638,"Name":"Batang","Lat":-6.9081,"Lon":109.7304,"CountryCode":null},{"ID":3070,"Name":"Batu","Lat":-7.872,"Lon":112.525,"CountryCode":null},{"ID":3921,"Name":"Baubau","Lat":-5.4667,"Lon":122.633,"CountryCode":null},{"ID":14521,"Name":"Bayur","Lat":-0.261,"Lon":100.222,"CountryCode":null},{"ID":10094,"Name":"Bebandem","Lat":-8.4046,"Lon":115.5395,"CountryCode":null},{"ID":2999,"Name":"Beji","Lat":-6.3704,"Lon":106.8176,"CountryCode":null},{"ID":311,"Name":"Bekasi","Lat":-6.2349,"Lon":106.9923,"CountryCode":null},{"ID":351,"Name":"Bekasi Kota","Lat":-6.2333,"Lon":107,"CountryCode":null},{"ID":8806,"Name":"Bengkalis","Lat":1.4897,"Lon":102.0797,"CountryCode":null},{"ID":1946,"Name":"Bengkulu","Lat":-3.7956,"Lon":102.2592,"CountryCode":null},{"ID":11616,"Name":"Berastagi","Lat":3.1833,"Lon":98.5167,"CountryCode":null},{"ID":13395,"Name":"Betun","Lat":-9.4953,"Lon":124.9603,"CountryCode":null},{"ID":5947,"Name":"Biak","Lat":-1.18,"Lon":136.08,"CountryCode":null},{"ID":4071,"Name":"Bima","Lat":-8.46,"Lon":118.7267,"CountryCode":null},{"ID":2297,"Name":"Binjai","Lat":3.5986,"Lon":98.4803,"CountryCode":null},{"ID":20728,"Name":"Bintuni","Lat":-2.1167,"Lon":133.5333,"CountryCode":null},{"ID":3048,"Name":"Bitung","Lat":1.4472,"Lon":125.1978,"CountryCode":null},{"ID":22164,"Name":"Blangmangat","Lat":5.1881,"Lon":97.1403,"CountryCode":null},{"ID":4768,"Name":"Blitar","Lat":-8.1,"Lon":112.15,"CountryCode":null},{"ID":686,"Name":"Bogor","Lat":-6.5966,"Lon":106.7972,"CountryCode":null},{"ID":3978,"Name":"Bontang","Lat":0.1333,"Lon":117.5,"CountryCode":null},{"ID":5487,"Name":"Bukittinggi","Lat":-0.3056,"Lon":100.3692,"CountryCode":null},{"ID":20180,"Name":"Bungku","Lat":-2.5333,"Lon":121.9667,"CountryCode":null},{"ID":28266,"Name":"Buntok","Lat":-1.719,"Lon":114.8448,"CountryCode":null},{"ID":47495,"Name":"Buton","Lat":4.217,"Lon":108.2,"CountryCode":null},{"ID":13941,"Name":"Cakung","Lat":-6.2138,"Lon":106.9473,"CountryCode":null},{"ID":6169,"Name":"Ciamis","Lat":-7.3281,"Lon":108.3336,"CountryCode":null},{"ID":3661,"Name":"Cianjur","Lat":-6.82,"Lon":107.1408,"CountryCode":null},{"ID":1903,"Name":"Cibinong","Lat":-6.485,"Lon":106.842,"CountryCode":null},{"ID":2967,"Name":"Cikupa","Lat":-6.4947,"Lon":106.6511,"CountryCode":null},{"ID":654,"Name":"Cilacap","Lat":-7.7167,"Lon":109.017,"CountryCode":null},{"ID":1839,"Name":"Cilegon","Lat":-6.0027,"Lon":106.0112,"CountryCode":null},{"ID":1272,"Name":"Cimahi","Lat":-6.8712,"Lon":107.5548,"CountryCode":null},{"ID":2152,"Name":"Cimanggis","Lat":-6.3645,"Lon":106.8591,"CountryCode":null},{"ID":12676,"Name":"Cimerak","Lat":-7.7422,"Lon":108.4244,"CountryCode":null},{"ID":4418,"Name":"Cinere","Lat":-6.3333,"Lon":106.7833,"CountryCode":null},{"ID":30036,"Name":"Cipanas","Lat":-6.733,"Lon":107.041,"CountryCode":null},{"ID":3176,"Name":"Ciputat","Lat":-6.3111,"Lon":106.7619,"CountryCode":null},{"ID":2328,"Name":"Cirebon","Lat":-6.7071,"Lon":108.5574,"CountryCode":null},{"ID":6660,"Name":"Cisauk","Lat":-6.3333,"Lon":106.65,"CountryCode":null},{"ID":3695,"Name":"Curug","Lat":-6.3711,"Lon":106.8,"CountryCode":null},{"ID":921,"Name":"Denpasar","Lat":-8.65,"Lon":115.2167,"CountryCode":null},{"ID":390,"Name":"Depok","Lat":-6.394,"Lon":106.8225,"CountryCode":null},{"ID":10392,"Name":"Dompu","Lat":-8.5364,"Lon":118.4633,"CountryCode":null},{"ID":2108,"Name":"Dumai","Lat":1.6667,"Lon":101.45,"CountryCode":null},{"ID":6876,"Name":"Ende","Lat":-8.8333,"Lon":121.65,"CountryCode":null},{"ID":25786,"Name":"Fakfak","Lat":-2.9167,"Lon":132.3,"CountryCode":null},{"ID":45434,"Name":"Galela","Lat":1.8236,"Lon":127.8431,"CountryCode":null},{"ID":4907,"Name":"Garut","Lat":-7.2167,"Lon":107.9,"CountryCode":null},{"ID":11203,"Name":"Gombong","Lat":-7.6,"Lon":109.5167,"CountryCode":null},{"ID":3423,"Name":"Gorontalo","Lat":0.5333,"Lon":123.0667,"CountryCode":null},{"ID":4698,"Name":"Gubeng","Lat":-7.2729,"Lon":112.7493,"CountryCode":null},{"ID":4589,"Name":"Gunungsitoli","Lat":1.2833,"Lon":97.6167,"CountryCode":null},{"ID":41419,"Name":"Haria","Lat":-3.5833,"Lon":128.6167,"CountryCode":null},{"ID":5096,"Name":"Indramayu","Lat":-6.3528,"Lon":108.3242,"CountryCode":null},{"ID":2,"Name":"Jakarta","Lat":-6.175,"Lon":106.8275,"CountryCode":null},{"ID":13600,"Name":"Jambe","Lat":-6.316,"Lon":106.4853,"CountryCode":null},{"ID":1206,"Name":"Jambi","Lat":-1.59,"Lon":103.61,"CountryCode":null},{"ID":43159,"Name":"Jantho","Lat":5.3,"Lon":95.6333,"CountryCode":null},{"ID":1743,"Name":"Jayapura","Lat":-2.533,"Lon":140.717,"CountryCode":null},{"ID":2314,"Name":"Jember","Lat":-8.1727,"Lon":113.6873,"CountryCode":null},{"ID":7271,"Name":"Jepara","Lat":-6.5333,"Lon":110.6667,"CountryCode":null},{"ID":12495,"Name":"Kaimana","Lat":-3.6444,"Lon":133.6953,"CountryCode":null},{"ID":25891,"Name":"Kalabahi","Lat":-8.2167,"Lon":124.5167,"CountryCode":null},{"ID":8805,"Name":"Kampung Tengah","Lat":1.4836,"Lon":101.9561,"CountryCode":null},{"ID":11348,"Name":"Kandangan","Lat":-2.7833,"Lon":115.2667,"CountryCode":null},{"ID":10756,"Name":"Karak","Lat":-0.5298,"Lon":101.5721,"CountryCode":null},{"ID":6966,"Name":"Karanganyar","Lat":-7.6033,"Lon":110.9778,"CountryCode":null},{"ID":2252,"Name":"Karawang","Lat":-6.3125,"Lon":107.295,"CountryCode":null},{"ID":41696,"Name":"Karimunjawa","Lat":-5.8192,"Lon":110.459,"CountryCode":null},{"ID":26131,"Name":"Kasongan","Lat":-1.8959,"Lon":113.3878,"CountryCode":null},{"ID":2660,"Name":"Kediri","Lat":-7.8111,"Lon":112.0047,"CountryCode":null},{"ID":11451,"Name":"Kefamenanu","Lat":-9.4467,"Lon":124.4781,"CountryCode":null},{"ID":36623,"Name":"Kehen","Lat":-8.5589,"Lon":115.2869,"CountryCode":null},{"ID":40212,"Name":"Kelandis","Lat":-8.6595,"Lon":115.227,"CountryCode":null},{"ID":2112,"Name":"Kendari","Lat":-3.9907,"Lon":122.5086,"CountryCode":null},{"ID":4396,"Name":"Kisaran","Lat":2.9833,"Lon":99.6125,"CountryCode":null},{"ID":26784,"Name":"Kolonodale","Lat":-1.9833,"Lon":121.3333,"CountryCode":null},{"ID":12959,"Name":"Kotabumi","Lat":-4.8333,"Lon":104.9,"CountryCode":null},{"ID":5166,"Name":"Kotamobagu","Lat":0.7333,"Lon":124.3167,"CountryCode":null},{"ID":9501,"Name":"Kresek","Lat":-6.1314,"Lon":106.38,"CountryCode":null},{"ID":10354,"Name":"Kronjo","Lat":-6.0667,"Lon":106.4167,"CountryCode":null},{"ID":10279,"Name":"Kuala Kapuas","Lat":-3.0013,"Lon":114.3916,"CountryCode":null},{"ID":34356,"Name":"Kuala Kurun","Lat":-1.1016,"Lon":113.8664,"CountryCode":null},{"ID":24270,"Name":"Kuala Pembuang","Lat":-3.3871,"Lon":112.5434,"CountryCode":null},{"ID":13554,"Name":"Kualaserba","Lat":4.2333,"Lon":97.8667,"CountryCode":null},{"ID":17519,"Name":"Kulat","Lat":-8.8243,"Lon":115.0983,"CountryCode":null},{"ID":5467,"Name":"Kuningan","Lat":-6.9764,"Lon":108.4844,"CountryCode":null},{"ID":1575,"Name":"Kupang","Lat":-10.1702,"Lon":123.6077,"CountryCode":null},{"ID":8843,"Name":"Lahat","Lat":-3.8,"Lon":103.5333,"CountryCode":null},{"ID":3637,"Name":"Langsa","Lat":4.48,"Lon":97.9633,"CountryCode":null},{"ID":13092,"Name":"Larantuka","Lat":-8.3133,"Lon":123.0042,"CountryCode":null},{"ID":6507,"Name":"Lawang","Lat":-7.83,"Lon":112.7,"CountryCode":null},{"ID":1496,"Name":"Lembok","Lat":-8.565,"Lon":116.351,"CountryCode":null},{"ID":13590,"Name":"Leramatang","Lat":-8.4,"Lon":123.57,"CountryCode":null},{"ID":5009,"Name":"Leuwiliang","Lat":-6.5742,"Lon":106.632,"CountryCode":null},{"ID":3599,"Name":"Lhokseumawe","Lat":5.1881,"Lon":97.1403,"CountryCode":null},{"ID":12624,"Name":"Lubuk Sikaping","Lat":0.15,"Lon":100.1667,"CountryCode":null},{"ID":3182,"Name":"Lubuklinggau","Lat":-3.2967,"Lon":102.8617,"CountryCode":null},{"ID":11702,"Name":"Luwuk","Lat":-0.9396,"Lon":122.79,"CountryCode":null},{"ID":34959,"Name":"Maba","Lat":0.7,"Lon":128.3,"CountryCode":null},{"ID":3319,"Name":"Madiun","Lat":-7.63,"Lon":111.5231,"CountryCode":null},{"ID":5002,"Name":"Magelang","Lat":-7.4667,"Lon":110.2167,"CountryCode":null},{"ID":7975,"Name":"Majalengka","Lat":-6.8353,"Lon":108.2278,"CountryCode":null},{"ID":2495,"Name":"Majene","Lat":-3.5403,"Lon":118.9707,"CountryCode":null},{"ID":41588,"Name":"Makale","Lat":-3.1,"Lon":119.85,"CountryCode":null},{"ID":571,"Name":"Makassar","Lat":-5.1619,"Lon":119.4362,"CountryCode":null},{"ID":285,"Name":"Malang","Lat":-7.98,"Lon":112.62,"CountryCode":null},{"ID":2450,"Name":"Mamuju","Lat":-2.6833,"Lon":118.9,"CountryCode":null},{"ID":1607,"Name":"Manado","Lat":1.4931,"Lon":124.8413,"CountryCode":null},{"ID":1587,"Name":"Manado Light","Lat":1.4931,"Lon":124.8413,"CountryCode":null},{"ID":7606,"Name":"Mandiraja Kulon","Lat":-7.4722,"Lon":109.5133,"CountryCode":null},{"ID":13937,"Name":"Manggar","Lat":-2.89,"Lon":108.27,"CountryCode":null},{"ID":5760,"Name":"Manokwari","Lat":-0.8667,"Lon":134.0833,"CountryCode":null},{"ID":14275,"Name":"Mantingan","Lat":-7.3682,"Lon":111.1644,"CountryCode":null},{"ID":3332,"Name":"Martapura","Lat":-3.45,"Lon":114.8333,"CountryCode":null},{"ID":13931,"Name":"Masamba","Lat":-2.5531,"Lon":120.3275,"CountryCode":null},{"ID":1762,"Name":"Mataram","Lat":-8.5833,"Lon":116.1167,"CountryCode":null},{"ID":6774,"Name":"Maumere","Lat":-8.6222,"Lon":122.2122,"CountryCode":null},{"ID":207,"Name":"Medan","Lat":3.5894,"Lon":98.6739,"CountryCode":null},{"ID":29720,"Name":"Melonguane","Lat":4.0045,"Lon":126.6827,"CountryCode":null},{"ID":10965,"Name":"Menggala","Lat":-4.475,"Lon":105.2414,"CountryCode":null},{"ID":15629,"Name":"Merauke","Lat":-8.4932,"Lon":140.4018,"CountryCode":null},{"ID":3767,"Name":"Metro","Lat":-5.1167,"Lon":105.3,"CountryCode":null},{"ID":9002,"Name":"Meulaboh","Lat":4.1333,"Lon":96.1167,"CountryCode":null},{"ID":4825,"Name":"Mojokerto","Lat":-7.4722,"Lon":112.4336,"CountryCode":null},{"ID":11946,"Name":"Muara Teweh","Lat":-0.9535,"Lon":114.8981,"CountryCode":null},{"ID":6165,"Name":"Nabire","Lat":-3.3682,"Lon":135.4964,"CountryCode":null},{"ID":14331,"Name":"Namlea","Lat":-3.25,"Lon":127.0833,"CountryCode":null},{"ID":3534,"Name":"Padalarang","Lat":-6.8435,"Lon":107.4779,"CountryCode":null},{"ID":846,"Name":"Padang","Lat":-0.95,"Lon":100.3531,"CountryCode":null},{"ID":10816,"Name":"Padangpanjang","Lat":-0.45,"Lon":100.4167,"CountryCode":null},{"ID":2956,"Name":"Padangsidempuan","Lat":1.3786,"Lon":99.2722,"CountryCode":null},{"ID":4344,"Name":"Pageralam","Lat":-4.0167,"Lon":103.25,"CountryCode":null},{"ID":31615,"Name":"Painan","Lat":-1.3511,"Lon":100.5756,"CountryCode":null},{"ID":34982,"Name":"Pajo","Lat":-8.5167,"Lon":120.3333,"CountryCode":null},{"ID":2703,"Name":"Palangkaraya","Lat":-2.21,"Lon":113.92,"CountryCode":null},{"ID":509,"Name":"Palembang","Lat":-2.9861,"Lon":104.7556,"CountryCode":null},{"ID":5051,"Name":"Paleng","Lat":-1.4,"Lon":123.1667,"CountryCode":null},{"ID":3603,"Name":"Palopo","Lat":-3,"Lon":120.2,"CountryCode":null},{"ID":1868,"Name":"Palu","Lat":-0.895,"Lon":119.8594,"CountryCode":null},{"ID":6768,"Name":"Pamekasan","Lat":-7.1574,"Lon":113.4718,"CountryCode":null},{"ID":14750,"Name":"Pande","Lat":-8.684,"Lon":115.2264,"CountryCode":null},{"ID":3046,"Name":"Pangkalpinang","Lat":-2.1333,"Lon":106.1167,"CountryCode":null},{"ID":15710,"Name":"Pangururan","Lat":2.6075,"Lon":98.6959,"CountryCode":null},{"ID":4857,"Name":"Parepare","Lat":-4.0167,"Lon":119.6236,"CountryCode":null},{"ID":7028,"Name":"Pariaman","Lat":-0.6264,"Lon":100.1178,"CountryCode":null},{"ID":12362,"Name":"Parigi","Lat":-7.6914,"Lon":108.5372,"CountryCode":null},{"ID":2483,"Name":"Pasarkemis","Lat":-6.1703,"Lon":106.53,"CountryCode":null},{"ID":3505,"Name":"Pasuruan","Lat":-7.6406,"Lon":112.9065,"CountryCode":null},{"ID":5080,"Name":"Pati","Lat":-6.7415,"Lon":111.0347,"CountryCode":null},{"ID":4983,"Name":"Payakumbuh","Lat":-0.2333,"Lon":100.6333,"CountryCode":null},{"ID":2316,"Name":"Pekalongan","Lat":-6.8833,"Lon":109.6667,"CountryCode":null},{"ID":785,"Name":"Pekanbaru","Lat":0.5092,"Lon":101.4453,"CountryCode":null},{"ID":5197,"Name":"Pelabuhanratu","Lat":-6.9878,"Lon":106.5439,"CountryCode":null},{"ID":12384,"Name":"Pemangkat","Lat":1.1768,"Lon":108.9624,"CountryCode":null},{"ID":2458,"Name":"Pematangsiantar","Lat":2.96,"Lon":99.06,"CountryCode":null},{"ID":3604,"Name":"Petarukan","Lat":-6.8961,"Lon":109.4514,"CountryCode":null},{"ID":3553,"Name":"Pinrang","Lat":-3.7857,"Lon":119.6522,"CountryCode":null},{"ID":28796,"Name":"Piru","Lat":-3.0811,"Lon":128.1411,"CountryCode":null},{"ID":2339,"Name":"Pondokaren","Lat":-6.2811,"Lon":106.7019,"CountryCode":null},{"ID":1211,"Name":"Pontianak","Lat":-0.0206,"Lon":109.3414,"CountryCode":null},{"ID":11768,"Name":"Poso","Lat":-1.4,"Lon":120.75,"CountryCode":null},{"ID":3478,"Name":"Prabumulih","Lat":-3.4328,"Lon":104.2356,"CountryCode":null},{"ID":15293,"Name":"Praya","Lat":-8.7223,"Lon":116.2923,"CountryCode":null},{"ID":2988,"Name":"Probolinggo","Lat":-7.75,"Lon":113.2167,"CountryCode":null},{"ID":23021,"Name":"Puruk Cahu","Lat":-0.6384,"Lon":114.5677,"CountryCode":null},{"ID":3627,"Name":"Purwakarta","Lat":-6.5533,"Lon":107.4472,"CountryCode":null},{"ID":2888,"Name":"Purwokerto","Lat":-7.4278,"Lon":109.2417,"CountryCode":null},{"ID":35176,"Name":"Putussibau","Lat":0.8575,"Lon":112.925,"CountryCode":null},{"ID":5816,"Name":"Raba","Lat":-8.4614,"Lon":118.7469,"CountryCode":null},{"ID":8411,"Name":"Raha","Lat":-4.838,"Lon":122.7209,"CountryCode":null},{"ID":8410,"Name":"Raha Tiga","Lat":-4.8311,"Lon":122.7239,"CountryCode":null},{"ID":17685,"Name":"Ranai","Lat":3.9333,"Lon":108.3833,"CountryCode":null},{"ID":4610,"Name":"Rangkasbitung","Lat":-6.3667,"Lon":106.25,"CountryCode":null},{"ID":28905,"Name":"Ransiki","Lat":-1.5,"Lon":134.1667,"CountryCode":null},{"ID":3673,"Name":"Rantau Prapat","Lat":2.3333,"Lon":100.05,"CountryCode":null},{"ID":12767,"Name":"Rantepao","Lat":-2.969,"Lon":119.9,"CountryCode":null},{"ID":19110,"Name":"Rappang","Lat":-3.8447,"Lon":119.8205,"CountryCode":null},{"ID":5426,"Name":"Rawajaya","Lat":-7.58,"Lon":108.8828,"CountryCode":null},{"ID":5427,"Name":"Rawasari","Lat":-7.5733,"Lon":108.8833,"CountryCode":null},{"ID":13195,"Name":"Ruteng","Lat":-8.6127,"Lon":120.463,"CountryCode":null},{"ID":14268,"Name":"Sabang","Lat":5.8942,"Lon":95.3192,"CountryCode":null},{"ID":3682,"Name":"Salatiga","Lat":-7.3247,"Lon":110.5444,"CountryCode":null},{"ID":924,"Name":"Samarinda","Lat":-0.5,"Lon":117.1378,"CountryCode":null},{"ID":3869,"Name":"Sampit","Lat":-2.5333,"Lon":112.95,"CountryCode":null},{"ID":16282,"Name":"Sanana","Lat":-2.0545,"Lon":125.9754,"CountryCode":null},{"ID":560,"Name":"Sangereng","Lat":-6.2889,"Lon":106.7181,"CountryCode":null},{"ID":14967,"Name":"Saparua","Lat":-3.5749,"Lon":128.647,"CountryCode":null},{"ID":4266,"Name":"Saumlaki","Lat":-7.975,"Lon":131.3075,"CountryCode":null},{"ID":9420,"Name":"Sawahlunto","Lat":-0.6667,"Lon":100.7833,"CountryCode":null},{"ID":3890,"Name":"Sawangan","Lat":-6.4086,"Lon":106.7647,"CountryCode":null},{"ID":485,"Name":"Semarang","Lat":-6.99,"Lon":110.4225,"CountryCode":null},{"ID":7810,"Name":"Sentani","Lat":-2.5636,"Lon":140.5146,"CountryCode":null},{"ID":6578,"Name":"Sepatan","Lat":-6.1143,"Lon":106.5784,"CountryCode":null},{"ID":1228,"Name":"Serang","Lat":-6.12,"Lon":106.1503,"CountryCode":null},{"ID":33073,"Name":"Serui","Lat":-1.878,"Lon":136.237,"CountryCode":null},{"ID":6436,"Name":"Sibolga","Lat":1.74,"Lon":98.78,"CountryCode":null},{"ID":6497,"Name":"Simeulu","Lat":2.63,"Lon":96.09,"CountryCode":null},{"ID":8903,"Name":"Singaparna","Lat":-7.3497,"Lon":108.1106,"CountryCode":null},{"ID":4150,"Name":"Singaraja","Lat":-8.1167,"Lon":115.0833,"CountryCode":null},{"ID":2902,"Name":"Singkawang","Lat":0.9,"Lon":108.9833,"CountryCode":null},{"ID":3606,"Name":"Singosari","Lat":-7.8925,"Lon":112.6658,"CountryCode":null},{"ID":45880,"Name":"Slateng Dua","Lat":-8.1324,"Lon":113.9836,"CountryCode":null},{"ID":5259,"Name":"Soasio","Lat":0.6833,"Lon":127.4,"CountryCode":null},{"ID":13404,"Name":"Soe","Lat":-9.8667,"Lon":124.2833,"CountryCode":null},{"ID":47079,"Name":"Sofifi","Lat":0.7244,"Lon":127.5806,"CountryCode":null},{"ID":7803,"Name":"Solok","Lat":-0.7997,"Lon":100.6661,"CountryCode":null},{"ID":36561,"Name":"Sonosari","Lat":-7.8014,"Lon":110.3644,"CountryCode":null},{"ID":5324,"Name":"Soreang","Lat":-7.0372,"Lon":107.5167,"CountryCode":null},{"ID":2334,"Name":"Sorong","Lat":-0.8667,"Lon":131.25,"CountryCode":null},{"ID":4500,"Name":"Subang","Lat":-6.5714,"Lon":107.7614,"CountryCode":null},{"ID":7531,"Name":"Subulussalam","Lat":2.6422,"Lon":98.0042,"CountryCode":null},{"ID":2175,"Name":"Sukabumi","Lat":-6.9181,"Lon":106.9315,"CountryCode":null},{"ID":8967,"Name":"Sumbawa Besar","Lat":-8.5,"Lon":117.4167,"CountryCode":null},{"ID":6328,"Name":"Sumber","Lat":-6.7544,"Lon":108.4858,"CountryCode":null},{"ID":618,"Name":"Sumedang","Lat":-6.84,"Lon":107.9208,"CountryCode":null},{"ID":7092,"Name":"Sumenep","Lat":-7.0049,"Lon":113.8496,"CountryCode":null},{"ID":32166,"Name":"Sungai Guntung","Lat":0.2956,"Lon":103.6114,"CountryCode":null},{"ID":6069,"Name":"Sungai Penuh","Lat":-2.0589,"Lon":101.3914,"CountryCode":null},{"ID":6103,"Name":"Sungailiat","Lat":-1.8561,"Lon":106.1192,"CountryCode":null},{"ID":15163,"Name":"Sungaiselam","Lat":-2.3839,"Lon":105.98,"CountryCode":null},{"ID":75,"Name":"Surabaya","Lat":-7.2458,"Lon":112.7378,"CountryCode":null},{"ID":1334,"Name":"Surakarta","Lat":-7.5667,"Lon":110.8167,"CountryCode":null},{"ID":15242,"Name":"Tahuna","Lat":3.6119,"Lon":125.5008,"CountryCode":null},{"ID":10324,"Name":"Taliwang","Lat":-8.7336,"Lon":116.8667,"CountryCode":null},{"ID":15054,"Name":"Tambolaka","Lat":-9.4333,"Lon":119.2333,"CountryCode":null},{"ID":39042,"Name":"Tamiang Layang","Lat":-2.116,"Lon":115.1691,"CountryCode":null},{"ID":372,"Name":"Tangerang","Lat":-6.1703,"Lon":106.6403,"CountryCode":null},{"ID":47775,"Name":"Tanjung Selor","Lat":2.85,"Lon":117.3833,"CountryCode":null},{"ID":3616,"Name":"Tanjungbalai","Lat":2.97,"Lon":99.8,"CountryCode":null},{"ID":5976,"Name":"Tanjungpandan","Lat":-2.75,"Lon":107.75,"CountryCode":null},{"ID":3254,"Name":"Tanjungpinang","Lat":0.9188,"Lon":104.4554,"CountryCode":null},{"ID":21672,"Name":"Tapaktuan","Lat":3.25,"Lon":97.1667,"CountryCode":null},{"ID":3274,"Name":"Tarakan","Lat":3.3,"Lon":117.6333,"CountryCode":null},{"ID":5386,"Name":"Tarogong","Lat":-7.215,"Lon":107.8856,"CountryCode":null},{"ID":47186,"Name":"Tarutung","Lat":2.0167,"Lon":98.9667,"CountryCode":null},{"ID":1102,"Name":"Tasikmalaya","Lat":-7.3161,"Lon":108.1975,"CountryCode":null},{"ID":6577,"Name":"Tatakan","Lat":-6.1116,"Lon":106.1036,"CountryCode":null},{"ID":3641,"Name":"Tebingtinggi","Lat":3.3194,"Lon":99.1522,"CountryCode":null},{"ID":2366,"Name":"Tegal","Lat":-6.8675,"Lon":109.1375,"CountryCode":null},{"ID":20543,"Name":"Tegalbuleud","Lat":-7.3578,"Lon":106.622,"CountryCode":null},{"ID":4569,"Name":"Teluknaga","Lat":-6.0989,"Lon":106.6381,"CountryCode":null},{"ID":22000,"Name":"Tembagapura","Lat":-4.1428,"Lon":137.0906,"CountryCode":null},{"ID":25175,"Name":"Teminabuan","Lat":-1.4333,"Lon":132.0167,"CountryCode":null},{"ID":5786,"Name":"Tenggarong","Lat":-0.4,"Lon":116.9667,"CountryCode":null},{"ID":37847,"Name":"Tentena","Lat":-1.7822,"Lon":120.6494,"CountryCode":null},{"ID":3230,"Name":"Ternate","Lat":0.78,"Lon":127.3819,"CountryCode":null},{"ID":38702,"Name":"Tibubeneng","Lat":-8.6469,"Lon":115.1503,"CountryCode":null},{"ID":4110,"Name":"Tigaraksa","Lat":-6.2667,"Lon":106.4667,"CountryCode":null},{"ID":4449,"Name":"Tinipuka","Lat":-4.55,"Lon":136.89,"CountryCode":null},{"ID":45339,"Name":"Tlagasana","Lat":-7.1786,"Lon":109.5057,"CountryCode":null},{"ID":15734,"Name":"Tobelo","Lat":1.7319,"Lon":128.0078,"CountryCode":null},{"ID":7535,"Name":"Toboali","Lat":-2.9997,"Lon":106.4656,"CountryCode":null},{"ID":6345,"Name":"Tomohon","Lat":1.325,"Lon":124.8389,"CountryCode":null},{"ID":6527,"Name":"Tual","Lat":-5.6368,"Lon":132.7508,"CountryCode":null},{"ID":7761,"Name":"Tuban","Lat":-6.9,"Lon":112.05,"CountryCode":null},{"ID":11522,"Name":"Tunglangan","Lat":-8.4167,"Lon":115.3,"CountryCode":null},{"ID":7903,"Name":"Ubud","Lat":-8.5069,"Lon":115.2624,"CountryCode":null},{"ID":3943,"Name":"Ungaran","Lat":-7.1381,"Lon":110.405,"CountryCode":null},{"ID":15886,"Name":"Waikabubak","Lat":-9.6358,"Lon":119.4131,"CountryCode":null},{"ID":8386,"Name":"Waingapu","Lat":-9.65,"Lon":120.2667,"CountryCode":null},{"ID":8863,"Name":"Wamena","Lat":-4.0975,"Lon":138.9511,"CountryCode":null},{"ID":7291,"Name":"Watampone","Lat":-4.5386,"Lon":120.3297,"CountryCode":null},{"ID":1699,"Name":"Yogyakarta","Lat":-7.8014,"Lon":110.3644,"CountryCode":null}]