[{"ID":6153,"Name":"Abbigeri","Lat":13.0767,"Lon":77.525,"CountryCode":null},{"ID":38987,"Name":"Abbigeri","Lat":15.5862,"Lon":75.7502,"CountryCode":null},{"ID":27415,"Name":"Abdullahnagar","Lat":25.7683,"Lon":87.5557,"CountryCode":null},{"ID":25277,"Name":"Abhayapuri","Lat":26.3225,"Lon":90.6853,"CountryCode":null},{"ID":36699,"Name":"Abhia","Lat":25.3499,"Lon":87.1427,"CountryCode":null},{"ID":33355,"Name":"Abhwar","Lat":26.174,"Lon":86.6324,"CountryCode":null},{"ID":45427,"Name":"Abiramam","Lat":9.4423,"Lon":78.4399,"CountryCode":null},{"ID":45190,"Name":"Ablu","Lat":30.3391,"Lon":74.7879,"CountryCode":null},{"ID":4386,"Name":"Abohar","Lat":30.1334,"Lon":74.2001,"CountryCode":null},{"ID":22085,"Name":"Abu","Lat":24.5925,"Lon":72.7083,"CountryCode":null},{"ID":28201,"Name":"Achaljamu","Lat":24.0243,"Lon":85.8306,"CountryCode":null},{"ID":23962,"Name":"Achampet","Lat":16.6299,"Lon":80.1213,"CountryCode":null},{"ID":38103,"Name":"Achankovil","Lat":8.9667,"Lon":77.1431,"CountryCode":null},{"ID":28189,"Name":"Acharipallam","Lat":8.17,"Lon":77.3698,"CountryCode":null},{"ID":45966,"Name":"Achchampeta","Lat":17.0941,"Lon":82.3099,"CountryCode":null},{"ID":41928,"Name":"Achchippatti","Lat":10.6989,"Lon":77.015,"CountryCode":null},{"ID":22219,"Name":"Achhnera","Lat":27.18,"Lon":77.77,"CountryCode":null},{"ID":36245,"Name":"Adalaj","Lat":23.17,"Lon":72.58,"CountryCode":null},{"ID":22667,"Name":"Adalhat","Lat":25.282,"Lon":82.9563,"CountryCode":null},{"ID":39823,"Name":"Adalpur","Lat":26.191,"Lon":86.0239,"CountryCode":null},{"ID":42572,"Name":"Adamankottai","Lat":12.0742,"Lon":78.1237,"CountryCode":null},{"ID":22787,"Name":"Adampur","Lat":31.4322,"Lon":75.7148,"CountryCode":null},{"ID":12603,"Name":"Addanki","Lat":15.8167,"Lon":79.9833,"CountryCode":null},{"ID":42801,"Name":"Adesar","Lat":23.5589,"Lon":70.9833,"CountryCode":null},{"ID":40961,"Name":"Adigappadi","Lat":12.1459,"Lon":78.0946,"CountryCode":null},{"ID":23584,"Name":"Adigaratti","Lat":11.3357,"Lon":76.6971,"CountryCode":null},{"ID":45233,"Name":"Adigoppula","Lat":16.4402,"Lon":79.6235,"CountryCode":null},{"ID":5311,"Name":"Adilabad","Lat":19.6667,"Lon":78.5333,"CountryCode":null},{"ID":42960,"Name":"Adivala","Lat":13.9131,"Lon":76.6619,"CountryCode":null},{"ID":45377,"Name":"Adiyakkamangalam","Lat":10.7626,"Lon":79.6775,"CountryCode":null},{"ID":3872,"Name":"Adoni","Lat":15.6279,"Lon":77.2749,"CountryCode":null},{"ID":30792,"Name":"Adra","Lat":23.5,"Lon":86.67,"CountryCode":null},{"ID":34808,"Name":"Adukam","Lat":9.7954,"Lon":76.8456,"CountryCode":null},{"ID":37011,"Name":"Aduru","Lat":12.5583,"Lon":75.1357,"CountryCode":null},{"ID":41028,"Name":"Advi Devalpalli","Lat":16.6631,"Lon":79.5139,"CountryCode":null},{"ID":33209,"Name":"Afzala","Lat":25.9319,"Lon":86.2293,"CountryCode":null},{"ID":19124,"Name":"Afzalpur","Lat":17.2011,"Lon":76.3611,"CountryCode":null},{"ID":45040,"Name":"Agadallanka","Lat":16.7123,"Lon":81.2732,"CountryCode":null},{"ID":36690,"Name":"Agadi","Lat":14.819,"Lon":75.469,"CountryCode":null},{"ID":13297,"Name":"Agar","Lat":23.7118,"Lon":76.0157,"CountryCode":null},{"ID":28130,"Name":"Agaram","Lat":10.4433,"Lon":77.9485,"CountryCode":null},{"ID":26360,"Name":"Agarpur","Lat":25.1957,"Lon":87.0423,"CountryCode":null},{"ID":1413,"Name":"Agartala","Lat":23.8314,"Lon":91.2869,"CountryCode":null},{"ID":33547,"Name":"Aginiparru","Lat":16.6817,"Lon":80.7839,"CountryCode":null},{"ID":29032,"Name":"Agiripalle","Lat":16.6833,"Lon":80.65,"CountryCode":null},{"ID":494,"Name":"Agra","Lat":27.18,"Lon":78.02,"CountryCode":null},{"ID":35199,"Name":"Ahirauliya","Lat":26.5091,"Lon":84.7999,"CountryCode":null},{"ID":40630,"Name":"Ahiro","Lat":24.9192,"Lon":87.1054,"CountryCode":null},{"ID":19492,"Name":"Ahmadabad","Lat":25.3019,"Lon":87.7938,"CountryCode":null},{"ID":2002,"Name":"Ahmadnagar","Lat":19.08,"Lon":74.73,"CountryCode":null},{"ID":12577,"Name":"Ahmadpur","Lat":18.7,"Lon":76.9333,"CountryCode":null},{"ID":43762,"Name":"Ahmadpur","Lat":23.8365,"Lon":87.6912,"CountryCode":null},{"ID":62,"Name":"Ahmedabad","Lat":23.0225,"Lon":72.5714,"CountryCode":null},{"ID":2800,"Name":"Ahor","Lat":25.367,"Lon":72.783,"CountryCode":null},{"ID":22181,"Name":"Ahwa","Lat":20.75,"Lon":73.6833,"CountryCode":null},{"ID":25756,"Name":"Aikaranad","Lat":10.0002,"Lon":76.455,"CountryCode":null},{"ID":45067,"Name":"Ainapur","Lat":16.48,"Lon":74.78,"CountryCode":null},{"ID":30704,"Name":"Aivanallur","Lat":11.2161,"Lon":79.5392,"CountryCode":null},{"ID":30872,"Name":"Aiyampuzha","Lat":10.25,"Lon":76.4667,"CountryCode":null},{"ID":15682,"Name":"Aiyappan Kovil","Lat":9.7158,"Lon":77.0333,"CountryCode":null},{"ID":2351,"Name":"Aizawl","Lat":23.7272,"Lon":92.7178,"CountryCode":null},{"ID":26236,"Name":"Ajaigarh","Lat":24.8988,"Lon":80.2592,"CountryCode":null},{"ID":34007,"Name":"Ajas","Lat":34.3316,"Lon":74.6801,"CountryCode":null},{"ID":32920,"Name":"Ajjampur","Lat":13.7279,"Lon":76.0068,"CountryCode":null},{"ID":36362,"Name":"Ajjanahalli","Lat":12.0376,"Lon":77.8138,"CountryCode":null},{"ID":40780,"Name":"Ajjipuram","Lat":12.0457,"Lon":77.3532,"CountryCode":null},{"ID":1336,"Name":"Ajmer","Lat":26.4499,"Lon":74.6399,"CountryCode":null},{"ID":26095,"Name":"Ajnala","Lat":31.84,"Lon":74.76,"CountryCode":null},{"ID":10226,"Name":"Ajodhya","Lat":26.7992,"Lon":82.2044,"CountryCode":null},{"ID":41686,"Name":"Akalapura","Lat":13.4852,"Lon":77.4621,"CountryCode":null},{"ID":45592,"Name":"Akalgarh","Lat":30.8019,"Lon":75.8582,"CountryCode":null},{"ID":29615,"Name":"Akambadam","Lat":11.1,"Lon":76.3167,"CountryCode":null},{"ID":25161,"Name":"Akanavaritota","Lat":16.4141,"Lon":81.6367,"CountryCode":null},{"ID":12989,"Name":"Akbarpur","Lat":26.4333,"Lon":82.5403,"CountryCode":null},{"ID":39528,"Name":"Akbarpur","Lat":24.6351,"Lon":83.9642,"CountryCode":null},{"ID":39062,"Name":"Akhnur","Lat":32.87,"Lon":74.73,"CountryCode":null},{"ID":16606,"Name":"Akividu","Lat":16.5823,"Lon":81.3811,"CountryCode":null},{"ID":18315,"Name":"Akkattettar","Lat":10.8167,"Lon":76.65,"CountryCode":null},{"ID":14396,"Name":"Aklera","Lat":24.42,"Lon":76.57,"CountryCode":null},{"ID":20878,"Name":"Aklvidu","Lat":16.6,"Lon":81.3833,"CountryCode":null},{"ID":1689,"Name":"Akola","Lat":20.7,"Lon":77,"CountryCode":null},{"ID":37598,"Name":"Akola","Lat":27.0656,"Lon":77.8808,"CountryCode":null},{"ID":31376,"Name":"Akora","Lat":26.4721,"Lon":78.7989,"CountryCode":null},{"ID":6557,"Name":"Akot","Lat":21.1,"Lon":77.06,"CountryCode":null},{"ID":39209,"Name":"Alagappapuram","Lat":8.1468,"Lon":77.5413,"CountryCode":null},{"ID":42142,"Name":"Alagarai","Lat":10.9826,"Lon":78.3891,"CountryCode":null},{"ID":2034,"Name":"Alamadi","Lat":13.1097,"Lon":80.0972,"CountryCode":null},{"ID":16707,"Name":"Alamnagar","Lat":25.561,"Lon":86.9014,"CountryCode":null},{"ID":24513,"Name":"Alampalaiyam","Lat":11.3635,"Lon":77.7677,"CountryCode":null},{"ID":30913,"Name":"Alampur","Lat":15.8793,"Lon":78.1334,"CountryCode":null},{"ID":35398,"Name":"Alampur","Lat":26.0251,"Lon":78.797,"CountryCode":null},{"ID":44345,"Name":"Alampur","Lat":24.8721,"Lon":83.8829,"CountryCode":null},{"ID":34698,"Name":"Alampur Gonpura","Lat":25.5404,"Lon":85.0511,"CountryCode":null},{"ID":12319,"Name":"Alamuru","Lat":16.7833,"Lon":81.9,"CountryCode":null},{"ID":11965,"Name":"Aland","Lat":17.5642,"Lon":76.5685,"CountryCode":null},{"ID":15456,"Name":"Alandatte","Lat":12.191,"Lon":75.4673,"CountryCode":null},{"ID":31290,"Name":"Alanganallur","Lat":10.047,"Lon":78.0903,"CountryCode":null},{"ID":22618,"Name":"Alangayam","Lat":12.6223,"Lon":78.7521,"CountryCode":null},{"ID":31983,"Name":"Alangudi","Lat":10.3604,"Lon":78.9779,"CountryCode":null},{"ID":21533,"Name":"Alangulam","Lat":8.864,"Lon":77.4994,"CountryCode":null},{"ID":3873,"Name":"Alasandigutta","Lat":15.6244,"Lon":77.2731,"CountryCode":null},{"ID":19358,"Name":"Alattur","Lat":10.6481,"Lon":76.5383,"CountryCode":null},{"ID":27981,"Name":"Alauli","Lat":25.644,"Lon":86.4065,"CountryCode":null},{"ID":43092,"Name":"Alawalpur","Lat":31.4316,"Lon":75.6561,"CountryCode":null},{"ID":44168,"Name":"Alawandi","Lat":15.2303,"Lon":75.9801,"CountryCode":null},{"ID":34359,"Name":"Alayaman","Lat":8.8843,"Lon":76.9653,"CountryCode":null},{"ID":16681,"Name":"Alengad","Lat":10.1,"Lon":76.3,"CountryCode":null},{"ID":32288,"Name":"Alewah","Lat":29.4767,"Lon":76.4522,"CountryCode":null},{"ID":43733,"Name":"Algun","Lat":31.2795,"Lon":74.6517,"CountryCode":null},{"ID":40755,"Name":"Aliganj","Lat":24.9365,"Lon":85.925,"CountryCode":null},{"ID":684,"Name":"Aligarh","Lat":27.88,"Lon":78.08,"CountryCode":null},{"ID":38962,"Name":"Alipur","Lat":18.8621,"Lon":78.8754,"CountryCode":null},{"ID":8937,"Name":"Alipur Duar","Lat":26.489,"Lon":89.527,"CountryCode":null},{"ID":27287,"Name":"Aliyabad","Lat":12.6317,"Lon":79.2164,"CountryCode":null},{"ID":15472,"Name":"Allagadda","Lat":15.1322,"Lon":78.5138,"CountryCode":null},{"ID":38393,"Name":"Allahdurg","Lat":17.9667,"Lon":77.9167,"CountryCode":null},{"ID":44984,"Name":"Allahpur","Lat":26.3434,"Lon":77.8195,"CountryCode":null},{"ID":3703,"Name":"Alleppey","Lat":9.49,"Lon":76.33,"CountryCode":null},{"ID":6462,"Name":"Allinagaram","Lat":10.0119,"Lon":77.4786,"CountryCode":null},{"ID":36649,"Name":"Allur","Lat":14.68,"Lon":80.06,"CountryCode":null},{"ID":12914,"Name":"Alluru","Lat":15.1336,"Lon":78.4975,"CountryCode":null},{"ID":26024,"Name":"Almel","Lat":16.92,"Lon":76.24,"CountryCode":null},{"ID":15745,"Name":"Almora","Lat":29.5971,"Lon":79.6591,"CountryCode":null},{"ID":23254,"Name":"Alnavar","Lat":15.4273,"Lon":74.7411,"CountryCode":null},{"ID":23903,"Name":"Alta","Lat":17.25,"Lon":74.57,"CountryCode":null},{"ID":43687,"Name":"Alukkuli","Lat":11.4458,"Lon":77.3574,"CountryCode":null},{"ID":31612,"Name":"Alur","Lat":15.3942,"Lon":77.2264,"CountryCode":null},{"ID":45022,"Name":"Alwa Tirunagari","Lat":8.61,"Lon":77.94,"CountryCode":null},{"ID":5068,"Name":"Alwal","Lat":17.5047,"Lon":78.5038,"CountryCode":null},{"ID":2059,"Name":"Alwar","Lat":27.5498,"Lon":76.6355,"CountryCode":null},{"ID":35104,"Name":"Alwarkurichchi","Lat":8.7838,"Lon":77.3952,"CountryCode":null},{"ID":21188,"Name":"Alwaye","Lat":10.1167,"Lon":76.35,"CountryCode":null},{"ID":32409,"Name":"Amaha","Lat":26.1284,"Lon":86.7998,"CountryCode":null},{"ID":37882,"Name":"Amala","Lat":9.859,"Lon":76.8112,"CountryCode":null},{"ID":10657,"Name":"Amalapuram","Lat":16.5787,"Lon":82.0061,"CountryCode":null},{"ID":6368,"Name":"Amalner","Lat":21.05,"Lon":75.05,"CountryCode":null},{"ID":19180,"Name":"Amangal","Lat":16.8499,"Lon":78.5327,"CountryCode":null},{"ID":30179,"Name":"Amanganj","Lat":24.4266,"Lon":80.0358,"CountryCode":null},{"ID":36265,"Name":"Amarapuuram","Lat":14.1333,"Lon":76.9833,"CountryCode":null},{"ID":33336,"Name":"Amaravati","Lat":16.573,"Lon":80.358,"CountryCode":null},{"ID":5981,"Name":"Amaravati","Lat":16.5131,"Lon":80.5165,"CountryCode":null},{"ID":37869,"Name":"Amarchinta","Lat":16.374,"Lon":77.7729,"CountryCode":null},{"ID":32243,"Name":"Amari","Lat":25.7179,"Lon":86.0839,"CountryCode":null},{"ID":23174,"Name":"Amarpatan","Lat":24.3137,"Lon":80.977,"CountryCode":null},{"ID":18818,"Name":"Amarpur","Lat":25.0397,"Lon":86.9025,"CountryCode":null},{"ID":38899,"Name":"Amarpur","Lat":23.53,"Lon":91.64,"CountryCode":null},{"ID":33460,"Name":"Amarpura","Lat":26.3667,"Lon":73.9833,"CountryCode":null},{"ID":34256,"Name":"Amarwa Khurd","Lat":26.8333,"Lon":84.25,"CountryCode":null},{"ID":29350,"Name":"Amarwara","Lat":22.2978,"Lon":79.1694,"CountryCode":null},{"ID":34109,"Name":"Amauna","Lat":25.0531,"Lon":84.5169,"CountryCode":null},{"ID":39423,"Name":"Amayan","Lat":26.3205,"Lon":78.7581,"CountryCode":null},{"ID":28580,"Name":"Amba Icharua","Lat":25.614,"Lon":86.4258,"CountryCode":null},{"ID":7899,"Name":"Ambajogai","Lat":18.73,"Lon":76.38,"CountryCode":null},{"ID":3184,"Name":"Ambala","Lat":30.38,"Lon":76.78,"CountryCode":null},{"ID":26690,"Name":"Ambala","Lat":17.65,"Lon":79.05,"CountryCode":null},{"ID":40189,"Name":"Ambalanur","Lat":16.59,"Lon":75.96,"CountryCode":null},{"ID":27990,"Name":"Ambalavayal","Lat":11.619,"Lon":76.2102,"CountryCode":null},{"ID":44248,"Name":"Ambara","Lat":22.1902,"Lon":78.6708,"CountryCode":null},{"ID":12741,"Name":"Ambasamudram","Lat":8.7037,"Lon":77.4527,"CountryCode":null},{"ID":1576,"Name":"Ambattur","Lat":13.1143,"Lon":80.1548,"CountryCode":null},{"ID":36357,"Name":"Ambatturai","Lat":10.2603,"Lon":77.9303,"CountryCode":null},{"ID":39866,"Name":"Ambhua","Lat":24.5568,"Lon":87.8651,"CountryCode":null},{"ID":4147,"Name":"Ambikapur","Lat":23.12,"Lon":83.2,"CountryCode":null},{"ID":40752,"Name":"Amgachia","Lat":22.4156,"Lon":88.3051,"CountryCode":null},{"ID":38378,"Name":"Amha","Lat":26.0518,"Lon":86.6906,"CountryCode":null},{"ID":45768,"Name":"Amiawar","Lat":25.0405,"Lon":84.3096,"CountryCode":null},{"ID":46001,"Name":"Amingaon","Lat":26.23,"Lon":91.67,"CountryCode":null},{"ID":33036,"Name":"Amingarh","Lat":16.0572,"Lon":75.9489,"CountryCode":null},{"ID":27008,"Name":"Aminpur","Lat":17.5241,"Lon":78.3242,"CountryCode":null},{"ID":42017,"Name":"Amjhar","Lat":25.0641,"Lon":84.5591,"CountryCode":null},{"ID":38836,"Name":"Amjhera","Lat":22.5578,"Lon":75.1185,"CountryCode":null},{"ID":13971,"Name":"Amla","Lat":21.9248,"Lon":78.1279,"CountryCode":null},{"ID":41665,"Name":"Ammanabrolu","Lat":15.5802,"Lon":80.1488,"CountryCode":null},{"ID":35656,"Name":"Ammapettai","Lat":11.6197,"Lon":77.7426,"CountryCode":null},{"ID":26379,"Name":"Ammapettai","Lat":10.7948,"Lon":79.3199,"CountryCode":null},{"ID":35309,"Name":"Ammavarikuppam","Lat":13.1784,"Lon":79.4169,"CountryCode":null},{"ID":30862,"Name":"Ammur","Lat":12.975,"Lon":79.3628,"CountryCode":null},{"ID":23600,"Name":"Amodei","Lat":26.8975,"Lon":84.8182,"CountryCode":null},{"ID":32745,"Name":"Amrabad","Lat":16.3833,"Lon":78.8333,"CountryCode":null},{"ID":1342,"Name":"Amravati","Lat":20.9258,"Lon":77.7647,"CountryCode":null},{"ID":4365,"Name":"Amreli","Lat":21.6006,"Lon":71.2164,"CountryCode":null},{"ID":681,"Name":"Amritsar","Lat":31.64,"Lon":74.86,"CountryCode":null},{"ID":3327,"Name":"Amroha","Lat":28.9044,"Lon":78.4675,"CountryCode":null},{"ID":41425,"Name":"Amsin","Lat":26.5733,"Lon":82.4357,"CountryCode":null},{"ID":25156,"Name":"Amta","Lat":22.5834,"Lon":88.0104,"CountryCode":null},{"ID":45108,"Name":"Amtala","Lat":26.1,"Lon":91.39,"CountryCode":null},{"ID":45416,"Name":"Amtala","Lat":22.3669,"Lon":88.2777,"CountryCode":null},{"ID":46018,"Name":"Amudalapalle","Lat":15.9301,"Lon":80.6899,"CountryCode":null},{"ID":13739,"Name":"Amudalavalasa","Lat":18.4167,"Lon":83.9,"CountryCode":null},{"ID":41293,"Name":"Amwa Majhar","Lat":26.7362,"Lon":84.5818,"CountryCode":null},{"ID":34571,"Name":"Anaikal","Lat":9.6003,"Lon":76.6846,"CountryCode":null},{"ID":11146,"Name":"Anaiyur","Lat":9.9615,"Lon":78.1118,"CountryCode":null},{"ID":6951,"Name":"Anakapalle","Lat":17.6913,"Lon":83.0039,"CountryCode":null},{"ID":13019,"Name":"Anakaputtur","Lat":12.9823,"Lon":80.1282,"CountryCode":null},{"ID":23062,"Name":"Anamalais","Lat":10.583,"Lon":76.9344,"CountryCode":null},{"ID":4812,"Name":"Anand","Lat":22.556,"Lon":72.951,"CountryCode":null},{"ID":34122,"Name":"Anandapuram","Lat":11.09,"Lon":76.9422,"CountryCode":null},{"ID":40952,"Name":"Anandnagar","Lat":27.1,"Lon":83.2833,"CountryCode":null},{"ID":43667,"Name":"Anandpur","Lat":25.6192,"Lon":84.8673,"CountryCode":null},{"ID":26397,"Name":"Anandpur","Lat":31.2393,"Lon":76.5025,"CountryCode":null},{"ID":12021,"Name":"Anandpur","Lat":21.2141,"Lon":86.1249,"CountryCode":null},{"ID":12524,"Name":"Ananipalle","Lat":13.4902,"Lon":79.2895,"CountryCode":null},{"ID":29119,"Name":"Anantapalle","Lat":16.9767,"Lon":81.4442,"CountryCode":null},{"ID":2534,"Name":"Anantapur","Lat":14.68,"Lon":77.599,"CountryCode":null},{"ID":31848,"Name":"Anantarazupeta","Lat":14.0014,"Lon":79.3319,"CountryCode":null},{"ID":46029,"Name":"Anantasagaram","Lat":14.5833,"Lon":79.4167,"CountryCode":null},{"ID":27377,"Name":"Anantavur","Lat":10.8925,"Lon":75.9983,"CountryCode":null},{"ID":42611,"Name":"Anantpur","Lat":16.889,"Lon":75.0146,"CountryCode":null},{"ID":39037,"Name":"Anavatti","Lat":14.5645,"Lon":75.1523,"CountryCode":null},{"ID":24780,"Name":"Andal","Lat":23.6,"Lon":87.2,"CountryCode":null},{"ID":46272,"Name":"Andanappettai","Lat":10.7498,"Lon":79.8226,"CountryCode":null},{"ID":38977,"Name":"Andhana","Lat":25.2574,"Lon":85.4548,"CountryCode":null},{"ID":20884,"Name":"Andhra Tharhi","Lat":26.3771,"Lon":86.3341,"CountryCode":null},{"ID":30753,"Name":"Andipalaiyam","Lat":11.092,"Lon":77.315,"CountryCode":null},{"ID":23326,"Name":"Andippatti","Lat":9.998,"Lon":77.621,"CountryCode":null},{"ID":44307,"Name":"Andiyappanur","Lat":12.5342,"Lon":78.7024,"CountryCode":null},{"ID":31130,"Name":"Andurkonam","Lat":8.5969,"Lon":76.8664,"CountryCode":null},{"ID":12616,"Name":"Anekal","Lat":12.7105,"Lon":77.6967,"CountryCode":null},{"ID":34883,"Name":"Angadikkal Tekkekara","Lat":9.2063,"Lon":76.7835,"CountryCode":null},{"ID":41716,"Name":"Angalakuduru Malepalle","Lat":16.2392,"Lon":80.6117,"CountryCode":null},{"ID":36492,"Name":"Angalakurichchi","Lat":10.5282,"Lon":76.9962,"CountryCode":null},{"ID":45593,"Name":"Angallu","Lat":13.6287,"Lon":78.4857,"CountryCode":null},{"ID":16043,"Name":"Angamali","Lat":10.196,"Lon":76.386,"CountryCode":null},{"ID":24891,"Name":"Anghad","Lat":22.3913,"Lon":72.9946,"CountryCode":null},{"ID":45458,"Name":"Angichettippalaiyam","Lat":11.7742,"Lon":79.5255,"CountryCode":null},{"ID":12474,"Name":"Angul","Lat":20.8381,"Lon":85.0956,"CountryCode":null},{"ID":40754,"Name":"Angwali","Lat":23.7317,"Lon":85.9858,"CountryCode":null},{"ID":17439,"Name":"Anjad","Lat":22.0417,"Lon":75.0552,"CountryCode":null},{"ID":8581,"Name":"Anjangaon","Lat":21.15,"Lon":77.28,"CountryCode":null},{"ID":21993,"Name":"Anjarkandi","Lat":11.8822,"Lon":75.5097,"CountryCode":null},{"ID":43223,"Name":"Anjehalli","Lat":12.1395,"Lon":77.9808,"CountryCode":null},{"ID":42984,"Name":"Anjukulippatti","Lat":10.2444,"Lon":78.0794,"CountryCode":null},{"ID":37503,"Name":"Anjuna","Lat":15.5833,"Lon":73.7333,"CountryCode":null},{"ID":44057,"Name":"Anjur","Lat":10.5992,"Lon":76.1553,"CountryCode":null},{"ID":24707,"Name":"Ankalgi","Lat":16.0333,"Lon":74.7,"CountryCode":null},{"ID":22604,"Name":"Ankireddikuntapalem","Lat":15.9154,"Lon":80.2108,"CountryCode":null},{"ID":37024,"Name":"Ankli","Lat":16.42,"Lon":74.58,"CountryCode":null},{"ID":15583,"Name":"Ankola","Lat":14.6605,"Lon":74.3047,"CountryCode":null},{"ID":36675,"Name":"Annakattumula","Lat":9.8575,"Lon":76.4009,"CountryCode":null},{"ID":26697,"Name":"Annakunnu","Lat":11.7463,"Lon":76.0415,"CountryCode":null},{"ID":33552,"Name":"Annamalainagar","Lat":11.4,"Lon":79.7333,"CountryCode":null},{"ID":32335,"Name":"Annaram","Lat":16.784,"Lon":79.302,"CountryCode":null},{"ID":35906,"Name":"Anndevarapeta","Lat":17.0937,"Lon":81.5799,"CountryCode":null},{"ID":15833,"Name":"Annigeri","Lat":15.4251,"Lon":75.4335,"CountryCode":null},{"ID":21396,"Name":"Annur","Lat":11.2325,"Lon":77.1069,"CountryCode":null},{"ID":39489,"Name":"Antardipa","Lat":24.6442,"Lon":87.9213,"CountryCode":null},{"ID":45955,"Name":"Antargangi","Lat":17.17,"Lon":75.96,"CountryCode":null},{"ID":29809,"Name":"Antarvedi","Lat":16.3333,"Lon":81.7333,"CountryCode":null},{"ID":32055,"Name":"Antarvedipalem","Lat":16.3319,"Lon":81.732,"CountryCode":null},{"ID":35845,"Name":"Antri","Lat":26.0581,"Lon":78.21,"CountryCode":null},{"ID":18509,"Name":"Antur","Lat":11.987,"Lon":75.376,"CountryCode":null},{"ID":38872,"Name":"Anuppampattu","Lat":13.3018,"Lon":80.2258,"CountryCode":null},{"ID":23139,"Name":"Anuppur","Lat":23.1034,"Lon":81.6908,"CountryCode":null},{"ID":21516,"Name":"Anupshahr","Lat":28.37,"Lon":78.27,"CountryCode":null},{"ID":35426,"Name":"Aphaur","Lat":25.8828,"Lon":84.7595,"CountryCode":null},{"ID":40592,"Name":"Apparaopeta","Lat":16.8987,"Lon":81.5684,"CountryCode":null},{"ID":34938,"Name":"Appukkudal","Lat":11.4684,"Lon":77.5766,"CountryCode":null},{"ID":28841,"Name":"Arachchalur","Lat":11.1627,"Lon":77.7007,"CountryCode":null},{"ID":26670,"Name":"Arajpur","Lat":25.5197,"Lon":87.0808,"CountryCode":null},{"ID":34454,"Name":"Arakere","Lat":12.4133,"Lon":76.8168,"CountryCode":null},{"ID":28309,"Name":"Arakkal","Lat":8.948,"Lon":76.8631,"CountryCode":null},{"ID":27015,"Name":"Arakkapadi","Lat":10.0599,"Lon":76.4592,"CountryCode":null},{"ID":17926,"Name":"Aralam","Lat":11.9992,"Lon":75.764,"CountryCode":null},{"ID":42212,"Name":"Aramangalam","Lat":11.5843,"Lon":76.0001,"CountryCode":null},{"ID":8812,"Name":"Arambagh","Lat":22.88,"Lon":87.78,"CountryCode":null},{"ID":37960,"Name":"Arambakkam","Lat":13.5258,"Lon":80.071,"CountryCode":null},{"ID":39506,"Name":"Aranda","Lat":26.085,"Lon":84.3601,"CountryCode":null},{"ID":28406,"Name":"Arani","Lat":13.3346,"Lon":80.0848,"CountryCode":null},{"ID":12285,"Name":"Arantangi","Lat":10.1686,"Lon":78.992,"CountryCode":null},{"ID":43789,"Name":"Aranya Kalan","Lat":23.2448,"Lon":76.7435,"CountryCode":null},{"ID":7515,"Name":"Araria","Lat":26.15,"Lon":87.52,"CountryCode":null},{"ID":37323,"Name":"Arasur","Lat":11.0866,"Lon":77.1146,"CountryCode":null},{"ID":30328,"Name":"Aravakkurichchi","Lat":10.776,"Lon":77.9076,"CountryCode":null},{"ID":15145,"Name":"Aravankara","Lat":11.0745,"Lon":75.9369,"CountryCode":null},{"ID":39695,"Name":"Aravelli","Lat":18.719,"Lon":79.0262,"CountryCode":null},{"ID":4853,"Name":"Arcot","Lat":12.9047,"Lon":79.3238,"CountryCode":null},{"ID":17524,"Name":"Arda","Lat":32.3087,"Lon":76.5772,"CountryCode":null},{"ID":19285,"Name":"Areraj","Lat":26.5527,"Lon":84.6726,"CountryCode":null},{"ID":40318,"Name":"Arimalam","Lat":10.255,"Lon":78.884,"CountryCode":null},{"ID":18154,"Name":"Ariyalur","Lat":11.1372,"Lon":79.0778,"CountryCode":null},{"ID":7567,"Name":"Arkonam","Lat":13.0778,"Lon":79.6667,"CountryCode":null},{"ID":35333,"Name":"Arma","Lat":25.1966,"Lon":86.2468,"CountryCode":null},{"ID":9077,"Name":"Armur","Lat":18.79,"Lon":78.29,"CountryCode":null},{"ID":7397,"Name":"Arni","Lat":12.6677,"Lon":79.2853,"CountryCode":null},{"ID":36147,"Name":"Arni ka Khera","Lat":24.9,"Lon":74.33,"CountryCode":null},{"ID":38714,"Name":"Arniya","Lat":25.715,"Lon":85.5448,"CountryCode":null},{"ID":40944,"Name":"Aroali","Lat":24.043,"Lon":87.9443,"CountryCode":null},{"ID":34496,"Name":"Arohi","Lat":31.8419,"Lon":76.8645,"CountryCode":null},{"ID":18668,"Name":"Aron","Lat":24.3811,"Lon":77.4174,"CountryCode":null},{"ID":2585,"Name":"Arrah","Lat":25.5514,"Lon":84.6603,"CountryCode":null},{"ID":42845,"Name":"Arrapalli","Lat":18.0718,"Lon":79.7386,"CountryCode":null},{"ID":33677,"Name":"Arsali","Lat":24.3754,"Lon":83.5903,"CountryCode":null},{"ID":10665,"Name":"Arsikere","Lat":13.3139,"Lon":76.2369,"CountryCode":null},{"ID":21227,"Name":"Arttuvattala","Lat":9.5167,"Lon":76.3167,"CountryCode":null},{"ID":32724,"Name":"Arugollu","Lat":16.8253,"Lon":81.5775,"CountryCode":null},{"ID":21633,"Name":"Arukutti","Lat":9.8309,"Lon":76.427,"CountryCode":null},{"ID":37570,"Name":"Arumbakkam","Lat":13.5427,"Lon":80.069,"CountryCode":null},{"ID":30034,"Name":"Arumbavur","Lat":11.381,"Lon":78.7296,"CountryCode":null},{"ID":16293,"Name":"Arumuganeri","Lat":8.5717,"Lon":78.0922,"CountryCode":null},{"ID":6867,"Name":"Aruppukkottai","Lat":9.5139,"Lon":78.1002,"CountryCode":null},{"ID":36159,"Name":"Arutla","Lat":17.1346,"Lon":78.7574,"CountryCode":null},{"ID":28992,"Name":"Aruvapalam","Lat":9.1833,"Lon":76.85,"CountryCode":null},{"ID":30601,"Name":"Aruvikkara","Lat":8.3331,"Lon":77.2788,"CountryCode":null},{"ID":10922,"Name":"Arwal","Lat":25.2442,"Lon":84.6631,"CountryCode":null},{"ID":21966,"Name":"Asafabad","Lat":19.365,"Lon":79.274,"CountryCode":null},{"ID":43087,"Name":"Asahni","Lat":26.0079,"Lon":84.4799,"CountryCode":null},{"ID":26479,"Name":"Asakapalle","Lat":17.7364,"Lon":83.3,"CountryCode":null},{"ID":20977,"Name":"Asan","Lat":25.73,"Lon":74.33,"CountryCode":null},{"ID":1316,"Name":"Asansol","Lat":23.68,"Lon":86.99,"CountryCode":null},{"ID":29287,"Name":"Asara","Lat":29.2494,"Lon":77.2915,"CountryCode":null},{"ID":24691,"Name":"Asarganj","Lat":25.15,"Lon":86.68,"CountryCode":null},{"ID":43623,"Name":"Asarhi","Lat":25.2892,"Lon":85.2189,"CountryCode":null},{"ID":7277,"Name":"Ashoknagar","Lat":24.58,"Lon":77.73,"CountryCode":null},{"ID":10600,"Name":"Ashta","Lat":23.0175,"Lon":76.7221,"CountryCode":null},{"ID":20955,"Name":"Ashwaraopeta","Lat":17.25,"Lon":81.1333,"CountryCode":null},{"ID":25343,"Name":"Assamannur","Lat":10.1129,"Lon":76.5517,"CountryCode":null},{"ID":37753,"Name":"Asthal Bohar","Lat":28.873,"Lon":76.642,"CountryCode":null},{"ID":29956,"Name":"Asthanwan","Lat":25.2215,"Lon":85.6262,"CountryCode":null},{"ID":43429,"Name":"Asudapuram","Lat":15.878,"Lon":78.132,"CountryCode":null},{"ID":22800,"Name":"Aswapuram","Lat":17.8348,"Lon":80.8236,"CountryCode":null},{"ID":42934,"Name":"Atari","Lat":31.6008,"Lon":74.6056,"CountryCode":null},{"ID":11779,"Name":"Atarra","Lat":25.28,"Lon":80.57,"CountryCode":null},{"ID":10254,"Name":"Atchampeta","Lat":15.5412,"Lon":78.9503,"CountryCode":null},{"ID":26780,"Name":"Athar","Lat":26.0392,"Lon":86.059,"CountryCode":null},{"ID":37563,"Name":"Atharga","Lat":16.9875,"Lon":75.8863,"CountryCode":null},{"ID":22612,"Name":"Athiringal","Lat":9.0667,"Lon":76.5,"CountryCode":null},{"ID":9128,"Name":"Athni","Lat":16.73,"Lon":75.07,"CountryCode":null},{"ID":42305,"Name":"Atlapadu","Lat":16.8877,"Lon":81.6772,"CountryCode":null},{"ID":37264,"Name":"Atmakur","Lat":18.0712,"Lon":79.736,"CountryCode":null},{"ID":13744,"Name":"Atmakur","Lat":15.8779,"Lon":78.5884,"CountryCode":null},{"ID":17880,"Name":"Atmakur","Lat":14.6167,"Lon":79.6167,"CountryCode":null},{"ID":35503,"Name":"Atmakur","Lat":16.3364,"Lon":77.8056,"CountryCode":null},{"ID":34245,"Name":"Atmakuru","Lat":14.6452,"Lon":77.3554,"CountryCode":null},{"ID":33017,"Name":"Atner","Lat":21.6238,"Lon":77.9152,"CountryCode":null},{"ID":38071,"Name":"Atru","Lat":24.81,"Lon":76.63,"CountryCode":null},{"ID":35321,"Name":"Attanur","Lat":11.5006,"Lon":78.1356,"CountryCode":null},{"ID":28278,"Name":"Attappampatti","Lat":11.482,"Lon":78.0248,"CountryCode":null},{"ID":32432,"Name":"Attibele","Lat":12.7781,"Lon":77.7726,"CountryCode":null},{"ID":20512,"Name":"Attili","Lat":16.7,"Lon":81.6,"CountryCode":null},{"ID":27315,"Name":"Attimarappatti","Lat":8.7297,"Lon":78.1169,"CountryCode":null},{"ID":14428,"Name":"Attingal","Lat":8.68,"Lon":76.83,"CountryCode":null},{"ID":37835,"Name":"Attippattu","Lat":13.2633,"Lon":80.2911,"CountryCode":null},{"ID":28989,"Name":"Attur","Lat":8.3224,"Lon":77.2558,"CountryCode":null},{"ID":42379,"Name":"Atturkuppam","Lat":12.6,"Lon":78.5423,"CountryCode":null},{"ID":40362,"Name":"Auhar Sheikh","Lat":26.7216,"Lon":84.5993,"CountryCode":null},{"ID":4537,"Name":"Aul","Lat":20.67,"Lon":86.64,"CountryCode":null},{"ID":23834,"Name":"Aurad","Lat":18.254,"Lon":77.4176,"CountryCode":null},{"ID":24500,"Name":"Aurad Shahjahani","Lat":18.0958,"Lon":76.8881,"CountryCode":null},{"ID":29125,"Name":"Aurahi","Lat":26.1895,"Lon":87.3372,"CountryCode":null},{"ID":38883,"Name":"Aurahi","Lat":25.5709,"Lon":86.9668,"CountryCode":null},{"ID":42047,"Name":"Aurahi","Lat":26.0355,"Lon":86.7467,"CountryCode":null},{"ID":43212,"Name":"Aurahi","Lat":25.8263,"Lon":87.1365,"CountryCode":null},{"ID":653,"Name":"Aurangabad","Lat":19.88,"Lon":75.32,"CountryCode":null},{"ID":11053,"Name":"Aurangabad","Lat":27.894,"Lon":77.369,"CountryCode":null},{"ID":6015,"Name":"Aurangabad","Lat":24.7,"Lon":84.35,"CountryCode":null},{"ID":33737,"Name":"Auria","Lat":24.8563,"Lon":87.0112,"CountryCode":null},{"ID":36767,"Name":"Auta","Lat":25.3882,"Lon":85.9558,"CountryCode":null},{"ID":36465,"Name":"Avadattur","Lat":11.7014,"Lon":77.8638,"CountryCode":null},{"ID":2035,"Name":"Avadi","Lat":13.1147,"Lon":80.1098,"CountryCode":null},{"ID":32925,"Name":"Avalepalli","Lat":12.7714,"Lon":77.8594,"CountryCode":null},{"ID":30959,"Name":"Avalpundurai","Lat":11.231,"Lon":77.7182,"CountryCode":null},{"ID":42435,"Name":"Avalurpet","Lat":12.38,"Lon":79.3465,"CountryCode":null},{"ID":42741,"Name":"Avanashipalaiyam","Lat":10.9696,"Lon":77.4352,"CountryCode":null},{"ID":21470,"Name":"Avanigadda","Lat":16.0197,"Lon":80.92,"CountryCode":null},{"ID":8415,"Name":"Avaniyapuram","Lat":9.8818,"Lon":78.1125,"CountryCode":null},{"ID":33168,"Name":"Avidha","Lat":21.6651,"Lon":73.0366,"CountryCode":null},{"ID":27937,"Name":"Avitanallur","Lat":11.5002,"Lon":75.8059,"CountryCode":null},{"ID":36238,"Name":"Awankh","Lat":32.1392,"Lon":75.4611,"CountryCode":null},{"ID":34781,"Name":"Awantipur","Lat":33.9233,"Lon":75.0128,"CountryCode":null},{"ID":21066,"Name":"Ayanavelikulangara Tekku","Lat":9.0436,"Lon":76.5199,"CountryCode":null},{"ID":44383,"Name":"Ayanikkad","Lat":10.458,"Lon":76.126,"CountryCode":null},{"ID":44931,"Name":"Ayas","Lat":24.2508,"Lon":87.7784,"CountryCode":null},{"ID":27860,"Name":"Ayikudi","Lat":9.0032,"Lon":77.3449,"CountryCode":null},{"ID":27776,"Name":"Ayinikkad","Lat":11.4974,"Lon":75.72,"CountryCode":null},{"ID":13919,"Name":"Ayirapuram","Lat":9.88,"Lon":76.3,"CountryCode":null},{"ID":20544,"Name":"Ayirurpara","Lat":8.503,"Lon":76.9522,"CountryCode":null},{"ID":22469,"Name":"Aymangala","Lat":12.0333,"Lon":75.7333,"CountryCode":null},{"ID":33833,"Name":"Ayodhyapattanam","Lat":11.6755,"Lon":78.2409,"CountryCode":null},{"ID":18977,"Name":"Ayyagarpet","Lat":17.2197,"Lon":80.8339,"CountryCode":null},{"ID":29177,"Name":"Ayyampalaiyam","Lat":10.2253,"Lon":77.7485,"CountryCode":null},{"ID":25938,"Name":"Ayyampettai","Lat":10.8971,"Lon":79.1915,"CountryCode":null},{"ID":40334,"Name":"Azamnagar","Lat":25.5456,"Lon":87.8294,"CountryCode":null},{"ID":11804,"Name":"Azhikkal","Lat":11.9076,"Lon":75.3446,"CountryCode":null},{"ID":11803,"Name":"Azhikkod","Lat":11.9076,"Lon":75.3446,"CountryCode":null},{"ID":45598,"Name":"Azizpur Chande","Lat":25.7932,"Lon":85.5945,"CountryCode":null},{"ID":44791,"Name":"Baba Bakala","Lat":31.555,"Lon":75.2656,"CountryCode":null},{"ID":25395,"Name":"Babai","Lat":22.7026,"Lon":77.9349,"CountryCode":null},{"ID":44494,"Name":"Babai Kalan","Lat":22.8313,"Lon":78.6774,"CountryCode":null},{"ID":32979,"Name":"Babhanganwa","Lat":26.1398,"Lon":86.8464,"CountryCode":null},{"ID":46095,"Name":"Babhangaon","Lat":25.7897,"Lon":86.9767,"CountryCode":null},{"ID":31519,"Name":"Babhangawan","Lat":25.3674,"Lon":86.9501,"CountryCode":null},{"ID":30490,"Name":"Babhani Bholwa","Lat":26.0876,"Lon":86.7456,"CountryCode":null},{"ID":42622,"Name":"Babhantoli","Lat":26.252,"Lon":87.926,"CountryCode":null},{"ID":40302,"Name":"Babhniyawan","Lat":25.4943,"Lon":84.4815,"CountryCode":null},{"ID":39128,"Name":"Babhnoul","Lat":25.3202,"Lon":84.2128,"CountryCode":null},{"ID":20314,"Name":"Babra","Lat":21.8442,"Lon":71.3042,"CountryCode":null},{"ID":17218,"Name":"Babura","Lat":25.6838,"Lon":84.7825,"CountryCode":null},{"ID":45365,"Name":"Bachchannapet","Lat":17.7883,"Lon":79.0349,"CountryCode":null},{"ID":33474,"Name":"Bachhauta","Lat":25.5242,"Lon":86.4606,"CountryCode":null},{"ID":6365,"Name":"Bachhraon","Lat":28.93,"Lon":78.22,"CountryCode":null},{"ID":34166,"Name":"Bachra","Lat":23.6886,"Lon":85.0703,"CountryCode":null},{"ID":2303,"Name":"Bada Barabil","Lat":22.12,"Lon":85.4,"CountryCode":null},{"ID":43843,"Name":"Badagabettu","Lat":13.3335,"Lon":74.7999,"CountryCode":null},{"ID":17103,"Name":"Badami","Lat":15.92,"Lon":75.6803,"CountryCode":null},{"ID":43881,"Name":"Badanahatti","Lat":15.3176,"Lon":76.8258,"CountryCode":null},{"ID":27712,"Name":"Badantola","Lat":25.2517,"Lon":87.842,"CountryCode":null},{"ID":30860,"Name":"Badarpur","Lat":24.8685,"Lon":92.5961,"CountryCode":null},{"ID":32773,"Name":"Badarwas","Lat":24.9752,"Lon":77.5649,"CountryCode":null},{"ID":13865,"Name":"Badepalli","Lat":16.7549,"Lon":78.1443,"CountryCode":null},{"ID":15712,"Name":"Badiadka","Lat":12.5833,"Lon":75.0667,"CountryCode":null},{"ID":26694,"Name":"Badkulla","Lat":23.3036,"Lon":88.5302,"CountryCode":null},{"ID":21691,"Name":"Badnawar","Lat":23.0218,"Lon":75.2327,"CountryCode":null},{"ID":43852,"Name":"Badnor","Lat":25.8355,"Lon":74.2775,"CountryCode":null},{"ID":40568,"Name":"Badru Khan","Lat":30.2523,"Lon":75.7917,"CountryCode":null},{"ID":29170,"Name":"Badshahpur","Lat":28.393,"Lon":77.048,"CountryCode":null},{"ID":10807,"Name":"Baduria","Lat":22.74,"Lon":88.79,"CountryCode":null},{"ID":34127,"Name":"Baduriatola","Lat":24.0928,"Lon":84.0895,"CountryCode":null},{"ID":11504,"Name":"Badurpalle","Lat":17.5468,"Lon":78.365,"CountryCode":null},{"ID":8312,"Name":"Badvel","Lat":14.75,"Lon":79.05,"CountryCode":null},{"ID":42125,"Name":"Bag","Lat":22.359,"Lon":74.7905,"CountryCode":null},{"ID":5160,"Name":"Bagaha","Lat":27.0992,"Lon":84.09,"CountryCode":null},{"ID":26995,"Name":"Bagahi","Lat":26.7632,"Lon":84.467,"CountryCode":null},{"ID":5537,"Name":"Bagalkot","Lat":16.1817,"Lon":75.6958,"CountryCode":null},{"ID":41108,"Name":"Bagalur","Lat":12.8333,"Lon":77.8667,"CountryCode":null},{"ID":45704,"Name":"Bagalvad","Lat":16.0528,"Lon":76.8877,"CountryCode":null},{"ID":16718,"Name":"Bagasra","Lat":21.4833,"Lon":70.95,"CountryCode":null},{"ID":36881,"Name":"Bagaura","Lat":26.0388,"Lon":84.4624,"CountryCode":null},{"ID":43410,"Name":"Bagchini","Lat":26.4817,"Lon":77.8185,"CountryCode":null},{"ID":19181,"Name":"Bagepalli","Lat":13.78,"Lon":77.79,"CountryCode":null},{"ID":44306,"Name":"Bageshwar","Lat":29.838,"Lon":79.771,"CountryCode":null},{"ID":34315,"Name":"Bagewadi","Lat":16.29,"Lon":74.6,"CountryCode":null},{"ID":18356,"Name":"Bagha Purana","Lat":30.6881,"Lon":75.0984,"CountryCode":null},{"ID":36976,"Name":"Baghambarpur","Lat":26.8075,"Lon":84.4059,"CountryCode":null},{"ID":41800,"Name":"Baghant","Lat":26.1748,"Lon":86.1705,"CountryCode":null},{"ID":36752,"Name":"Baghauni","Lat":25.9338,"Lon":86.0594,"CountryCode":null},{"ID":43022,"Name":"Baghduma","Lat":24.8223,"Lon":87.0116,"CountryCode":null},{"ID":17567,"Name":"Baghmari","Lat":20.2206,"Lon":85.5014,"CountryCode":null},{"ID":37515,"Name":"Baghmaria","Lat":26.44,"Lon":86.43,"CountryCode":null},{"ID":11190,"Name":"Baghpat","Lat":28.95,"Lon":77.22,"CountryCode":null},{"ID":37562,"Name":"Baghra","Lat":25.5597,"Lon":85.5841,"CountryCode":null},{"ID":33393,"Name":"Bagli","Lat":22.6412,"Lon":76.3488,"CountryCode":null},{"ID":38492,"Name":"Bagnan","Lat":22.47,"Lon":87.97,"CountryCode":null},{"ID":43002,"Name":"Bagor","Lat":25.3575,"Lon":74.3731,"CountryCode":null},{"ID":36025,"Name":"Bagra","Lat":25.2,"Lon":72.5833,"CountryCode":null},{"ID":39773,"Name":"Bagrinagar","Lat":25.9,"Lon":73.8,"CountryCode":null},{"ID":22327,"Name":"Bagula","Lat":23.335,"Lon":88.644,"CountryCode":null},{"ID":37068,"Name":"Bahadarpur","Lat":21.2922,"Lon":76.1806,"CountryCode":null},{"ID":14587,"Name":"Bahadurganj","Lat":26.2617,"Lon":87.8244,"CountryCode":null},{"ID":34604,"Name":"Bahadurpur","Lat":25.4522,"Lon":85.6303,"CountryCode":null},{"ID":37166,"Name":"Bahagalpur","Lat":24.5934,"Lon":87.9536,"CountryCode":null},{"ID":3382,"Name":"Baharampur","Lat":24.1,"Lon":88.25,"CountryCode":null},{"ID":29022,"Name":"Baharu","Lat":22.204,"Lon":88.4283,"CountryCode":null},{"ID":21051,"Name":"Baheri","Lat":25.9426,"Lon":86.0471,"CountryCode":null},{"ID":3506,"Name":"Bahraigh","Lat":27.575,"Lon":81.594,"CountryCode":null},{"ID":29352,"Name":"Bahutal","Lat":24.5714,"Lon":87.8971,"CountryCode":null},{"ID":24350,"Name":"Baihar","Lat":22.1013,"Lon":80.5497,"CountryCode":null},{"ID":28067,"Name":"Baikatpur","Lat":25.4939,"Lon":85.3792,"CountryCode":null},{"ID":45307,"Name":"Baikunthapur","Lat":22.9808,"Lon":88.2058,"CountryCode":null},{"ID":35551,"Name":"Baikunthpur","Lat":24.7277,"Lon":81.4098,"CountryCode":null},{"ID":10047,"Name":"Bail-Hongal","Lat":15.8137,"Lon":74.8589,"CountryCode":null},{"ID":20580,"Name":"Baindur","Lat":13.866,"Lon":74.6333,"CountryCode":null},{"ID":12821,"Name":"Bairagnia","Lat":26.7381,"Lon":85.2736,"CountryCode":null},{"ID":17128,"Name":"Bairi Chak","Lat":24.6951,"Lon":84.9913,"CountryCode":null},{"ID":1846,"Name":"Bairia","Lat":25.7583,"Lon":84.1489,"CountryCode":null},{"ID":35238,"Name":"Bairia","Lat":26.7373,"Lon":84.4371,"CountryCode":null},{"ID":34305,"Name":"Bairia","Lat":25.5563,"Lon":85.1835,"CountryCode":null},{"ID":43200,"Name":"Bairiya","Lat":26.3392,"Lon":84.8236,"CountryCode":null},{"ID":36341,"Name":"Bairo","Lat":26.0144,"Lon":86.51,"CountryCode":null},{"ID":43533,"Name":"Baisa","Lat":25.3552,"Lon":86.7246,"CountryCode":null},{"ID":43382,"Name":"Baisuhalli","Lat":12.2064,"Lon":78.1906,"CountryCode":null},{"ID":7704,"Name":"Baj Baj","Lat":22.4828,"Lon":88.1818,"CountryCode":null},{"ID":33802,"Name":"Bajala","Lat":12.8537,"Lon":74.8853,"CountryCode":null},{"ID":39508,"Name":"Bajpe","Lat":12.9803,"Lon":74.8832,"CountryCode":null},{"ID":41712,"Name":"Bajwara","Lat":31.515,"Lon":75.9494,"CountryCode":null},{"ID":29105,"Name":"Bakarpur Ogairah","Lat":25.3294,"Lon":87.5138,"CountryCode":null},{"ID":43356,"Name":"Bakharia","Lat":26.7666,"Lon":84.6619,"CountryCode":null},{"ID":22684,"Name":"Bakhri","Lat":25.5989,"Lon":86.2607,"CountryCode":null},{"ID":34647,"Name":"Bakhtawarpur","Lat":28.821,"Lon":77.166,"CountryCode":null},{"ID":10662,"Name":"Bakhtiyarpur","Lat":25.459,"Lon":85.539,"CountryCode":null},{"ID":39940,"Name":"Bakwa","Lat":26.0601,"Lon":86.4124,"CountryCode":null},{"ID":31154,"Name":"Baladharmaram","Lat":17.4104,"Lon":79.969,"CountryCode":null},{"ID":41451,"Name":"Balagam","Lat":21.3694,"Lon":70.0981,"CountryCode":null},{"ID":45997,"Name":"Balakrishnanpatti","Lat":11.2511,"Lon":78.4736,"CountryCode":null},{"ID":5513,"Name":"Balangir","Lat":20.72,"Lon":83.48,"CountryCode":null},{"ID":15751,"Name":"Balarampur","Lat":26.2432,"Lon":89.5863,"CountryCode":null},{"ID":20934,"Name":"Balarampur","Lat":23.12,"Lon":86.22,"CountryCode":null},{"ID":14923,"Name":"Balarampuram","Lat":8.3833,"Lon":77.0833,"CountryCode":null},{"ID":28909,"Name":"Balasamudram","Lat":10.419,"Lon":77.4992,"CountryCode":null},{"ID":4411,"Name":"Balasore","Lat":21.5033,"Lon":86.925,"CountryCode":null},{"ID":40419,"Name":"Balaungi","Lat":30.7306,"Lon":76.6937,"CountryCode":null},{"ID":41207,"Name":"Baldeogarh","Lat":24.7562,"Lon":79.0672,"CountryCode":null},{"ID":38089,"Name":"Balehonnur","Lat":13.35,"Lon":75.46,"CountryCode":null},{"ID":36060,"Name":"Balha","Lat":25.5468,"Lon":86.5683,"CountryCode":null},{"ID":32967,"Name":"Balhapur","Lat":25.3511,"Lon":86.2122,"CountryCode":null},{"ID":2352,"Name":"Bali","Lat":22.65,"Lon":88.34,"CountryCode":null},{"ID":39974,"Name":"Balia","Lat":24.2433,"Lon":75.8061,"CountryCode":null},{"ID":31351,"Name":"Baligaon","Lat":25.4196,"Lon":84.4951,"CountryCode":null},{"ID":28354,"Name":"Balighattam","Lat":17.651,"Lon":82.6059,"CountryCode":null},{"ID":29754,"Name":"Balkonda","Lat":18.8667,"Lon":78.35,"CountryCode":null},{"ID":5902,"Name":"Ballia","Lat":25.7604,"Lon":84.1471,"CountryCode":null},{"ID":7339,"Name":"Balrampur","Lat":27.43,"Lon":82.18,"CountryCode":null},{"ID":41844,"Name":"Baltara","Lat":25.5116,"Lon":86.7232,"CountryCode":null},{"ID":33957,"Name":"Balua","Lat":26.3272,"Lon":87.6231,"CountryCode":null},{"ID":39883,"Name":"Balua Rampur","Lat":26.7777,"Lon":84.428,"CountryCode":null},{"ID":23811,"Name":"Balugan","Lat":19.7333,"Lon":85.2167,"CountryCode":null},{"ID":45026,"Name":"Balumath","Lat":23.8298,"Lon":84.7888,"CountryCode":null},{"ID":38970,"Name":"Balupur","Lat":25.2611,"Lon":87.8947,"CountryCode":null},{"ID":4163,"Name":"Balurghat","Lat":25.22,"Lon":88.76,"CountryCode":null},{"ID":18991,"Name":"Balussheri","Lat":11.45,"Lon":75.83,"CountryCode":null},{"ID":44865,"Name":"Balvadi","Lat":21.4412,"Lon":75.223,"CountryCode":null},{"ID":39802,"Name":"Balwa","Lat":29.406,"Lon":77.308,"CountryCode":null},{"ID":44162,"Name":"Bamaiya Harlal","Lat":25.6664,"Lon":85.8802,"CountryCode":null},{"ID":16093,"Name":"Bamaur","Lat":26.339,"Lon":78.101,"CountryCode":null},{"ID":34696,"Name":"Bamhni","Lat":22.4822,"Lon":80.3716,"CountryCode":null},{"ID":42130,"Name":"Bamora","Lat":24.0554,"Lon":78.0893,"CountryCode":null},{"ID":38088,"Name":"Banagi","Lat":13.61,"Lon":75.53,"CountryCode":null},{"ID":23056,"Name":"Banapur","Lat":19.7789,"Lon":85.1703,"CountryCode":null},{"ID":42722,"Name":"Banaso","Lat":23.9884,"Lon":85.7866,"CountryCode":null},{"ID":37759,"Name":"Banavar","Lat":13.4167,"Lon":76.1667,"CountryCode":null},{"ID":44036,"Name":"Banbhag","Lat":25.7919,"Lon":87.414,"CountryCode":null},{"ID":15557,"Name":"Banda","Lat":24.0449,"Lon":78.9609,"CountryCode":null},{"ID":35233,"Name":"Bandalli","Lat":12.164,"Lon":77.3504,"CountryCode":null},{"ID":46069,"Name":"Bandamurlanka","Lat":16.517,"Lon":81.988,"CountryCode":null},{"ID":18934,"Name":"Bandipura","Lat":34.4167,"Lon":74.65,"CountryCode":null},{"ID":34615,"Name":"Bandlaguda","Lat":17.3543,"Lon":78.3853,"CountryCode":null},{"ID":28979,"Name":"Bandora","Lat":15.4082,"Lon":73.9813,"CountryCode":null},{"ID":35413,"Name":"Bandwar","Lat":25.5093,"Lon":86.1595,"CountryCode":null},{"ID":20667,"Name":"Banga","Lat":31.1887,"Lon":75.9949,"CountryCode":null},{"ID":23,"Name":"Bangalore","Lat":12.9789,"Lon":77.5917,"CountryCode":null},{"ID":23939,"Name":"Banganapalle","Lat":15.3167,"Lon":78.2333,"CountryCode":null},{"ID":5679,"Name":"Bangaon","Lat":23.07,"Lon":88.82,"CountryCode":null},{"ID":15907,"Name":"Bangaon","Lat":25.8673,"Lon":86.5115,"CountryCode":null},{"ID":44004,"Name":"Bangaon","Lat":26.3081,"Lon":87.8833,"CountryCode":null},{"ID":36001,"Name":"Bangawan","Lat":26.0427,"Lon":87.4202,"CountryCode":null},{"ID":38291,"Name":"Bangramanjeshvara","Lat":12.6833,"Lon":75,"CountryCode":null},{"ID":20391,"Name":"Banhatti","Lat":16.3853,"Lon":75.1494,"CountryCode":null},{"ID":37286,"Name":"Bank","Lat":24.9539,"Lon":84.1928,"CountryCode":null},{"ID":19304,"Name":"Bankapur","Lat":14.923,"Lon":75.2622,"CountryCode":null},{"ID":30191,"Name":"Bankheri","Lat":22.7696,"Lon":78.5341,"CountryCode":null},{"ID":23601,"Name":"Banki","Lat":20.3791,"Lon":85.5295,"CountryCode":null},{"ID":46229,"Name":"Banki","Lat":26.1497,"Lon":86.3626,"CountryCode":null},{"ID":9086,"Name":"Bankra","Lat":22.63,"Lon":88.3,"CountryCode":null},{"ID":4594,"Name":"Bankura","Lat":23.25,"Lon":87.07,"CountryCode":null},{"ID":27488,"Name":"Banni","Lat":25.4692,"Lon":86.6068,"CountryCode":null},{"ID":17226,"Name":"Bannur","Lat":12.3329,"Lon":76.862,"CountryCode":null},{"ID":37537,"Name":"Bansbari","Lat":26.1934,"Lon":87.4498,"CountryCode":null},{"ID":5930,"Name":"Bansbaria","Lat":22.97,"Lon":88.4,"CountryCode":null},{"ID":18422,"Name":"Banswada","Lat":18.3833,"Lon":77.8833,"CountryCode":null},{"ID":40073,"Name":"Banta","Lat":24.2323,"Lon":87.8749,"CountryCode":null},{"ID":11547,"Name":"Bantval","Lat":12.8905,"Lon":75.0349,"CountryCode":null},{"ID":38942,"Name":"Banu Chhapra","Lat":26.8098,"Lon":84.5201,"CountryCode":null},{"ID":8299,"Name":"Bapatla","Lat":15.9044,"Lon":80.4675,"CountryCode":null},{"ID":15384,"Name":"Bapaura","Lat":28.815,"Lon":76.063,"CountryCode":null},{"ID":31605,"Name":"Baqiabad","Lat":25.1,"Lon":82.9,"CountryCode":null},{"ID":11172,"Name":"Bar Bigha","Lat":25.2186,"Lon":85.7332,"CountryCode":null},{"ID":31564,"Name":"Bara","Lat":24.3146,"Lon":87.9643,"CountryCode":null},{"ID":38994,"Name":"Bara","Lat":25.9286,"Lon":86.5237,"CountryCode":null},{"ID":37770,"Name":"Bara Belun","Lat":23.4007,"Lon":87.9733,"CountryCode":null},{"ID":41138,"Name":"Bara Khurd","Lat":25.2599,"Lon":85.4325,"CountryCode":null},{"ID":24846,"Name":"Bara Malehra","Lat":24.5681,"Lon":79.3069,"CountryCode":null},{"ID":42013,"Name":"Baragaon","Lat":25.1348,"Lon":85.432,"CountryCode":null},{"ID":40715,"Name":"Baragaon","Lat":24.5682,"Lon":79.0185,"CountryCode":null},{"ID":34025,"Name":"Barah","Lat":25.3885,"Lon":85.4912,"CountryCode":null},{"ID":32919,"Name":"Barahari","Lat":25.7652,"Lon":87.0937,"CountryCode":null},{"ID":42531,"Name":"Barahbatta","Lat":25.7727,"Lon":85.7522,"CountryCode":null},{"ID":40727,"Name":"Barahi","Lat":25.9725,"Lon":86.7452,"CountryCode":null},{"ID":37403,"Name":"Barahkurwa","Lat":26.146,"Lon":86.9237,"CountryCode":null},{"ID":43383,"Name":"Barahpur","Lat":25.4192,"Lon":85.8762,"CountryCode":null},{"ID":41842,"Name":"Barahra","Lat":26.2356,"Lon":86.5615,"CountryCode":null},{"ID":40542,"Name":"Barai","Lat":26.3717,"Lon":86.0134,"CountryCode":null},{"ID":15697,"Name":"Baraidih","Lat":25.9798,"Lon":86.1434,"CountryCode":null},{"ID":30625,"Name":"Barajor","Lat":24.7992,"Lon":86.3731,"CountryCode":null},{"ID":4179,"Name":"Barakpur","Lat":22.76,"Lon":88.37,"CountryCode":null},{"ID":1675,"Name":"Baramati","Lat":18.15,"Lon":74.58,"CountryCode":null},{"ID":3839,"Name":"Baramula","Lat":34.198,"Lon":74.364,"CountryCode":null},{"ID":34015,"Name":"Baraon","Lat":25.4551,"Lon":84.2661,"CountryCode":null},{"ID":42372,"Name":"Bararam","Lat":26.1572,"Lon":84.3627,"CountryCode":null},{"ID":32251,"Name":"Barari","Lat":25.5068,"Lon":87.3761,"CountryCode":null},{"ID":2456,"Name":"Barasat","Lat":22.72,"Lon":88.48,"CountryCode":null},{"ID":13093,"Name":"Barauli","Lat":26.3815,"Lon":84.5872,"CountryCode":null},{"ID":45594,"Name":"Barbana","Lat":26.0719,"Lon":87.2539,"CountryCode":null},{"ID":2219,"Name":"Barddhaman","Lat":23.2333,"Lon":87.8667,"CountryCode":null},{"ID":37834,"Name":"Bardiha Turki","Lat":25.8059,"Lon":85.5441,"CountryCode":null},{"ID":38513,"Name":"Bardipuram","Lat":18.6431,"Lon":78.1584,"CountryCode":null},{"ID":1547,"Name":"Bardoli","Lat":21.12,"Lon":73.12,"CountryCode":null},{"ID":42323,"Name":"Bareh","Lat":26.6786,"Lon":78.1887,"CountryCode":null},{"ID":774,"Name":"Bareilly","Lat":28.364,"Lon":79.415,"CountryCode":null},{"ID":24695,"Name":"Bareja","Lat":22.85,"Lon":72.5833,"CountryCode":null},{"ID":31723,"Name":"Barela","Lat":23.0968,"Lon":80.0508,"CountryCode":null},{"ID":42794,"Name":"Baretha","Lat":25.5258,"Lon":87.4485,"CountryCode":null},{"ID":37594,"Name":"Bargaon","Lat":25.3455,"Lon":84.6607,"CountryCode":null},{"ID":46034,"Name":"Bargaon","Lat":23.1795,"Lon":84.6991,"CountryCode":null},{"ID":7366,"Name":"Bargarh","Lat":21.3333,"Lon":83.6167,"CountryCode":null},{"ID":32768,"Name":"Barghat","Lat":22.0306,"Lon":79.7328,"CountryCode":null},{"ID":28454,"Name":"Bargur","Lat":12.5429,"Lon":78.3574,"CountryCode":null},{"ID":44897,"Name":"Barhagarh","Lat":19.645,"Lon":84.4079,"CountryCode":null},{"ID":27266,"Name":"Barhampur","Lat":26.3023,"Lon":85.7476,"CountryCode":null},{"ID":26623,"Name":"Barhampur","Lat":25.5976,"Lon":84.3011,"CountryCode":null},{"ID":23923,"Name":"Barhampur","Lat":26.3042,"Lon":86.4729,"CountryCode":null},{"ID":27513,"Name":"Barhan","Lat":27.3299,"Lon":78.1896,"CountryCode":null},{"ID":39502,"Name":"Barharia","Lat":26.3191,"Lon":84.4547,"CountryCode":null},{"ID":30932,"Name":"Barharwa","Lat":24.8571,"Lon":87.779,"CountryCode":null},{"ID":28847,"Name":"Barharwa Kalan","Lat":26.5434,"Lon":84.8286,"CountryCode":null},{"ID":34429,"Name":"Barhauna","Lat":25.6043,"Lon":85.7288,"CountryCode":null},{"ID":44985,"Name":"Barhauna","Lat":25.304,"Lon":85.4216,"CountryCode":null},{"ID":40054,"Name":"Barhi","Lat":26.4629,"Lon":86.2771,"CountryCode":null},{"ID":37250,"Name":"Barhi","Lat":26.5714,"Lon":86.0903,"CountryCode":null},{"ID":33855,"Name":"Barhi","Lat":24.3045,"Lon":85.4195,"CountryCode":null},{"ID":31627,"Name":"Barhi","Lat":23.9033,"Lon":80.8152,"CountryCode":null},{"ID":12790,"Name":"Barhiya","Lat":25.2833,"Lon":86.0333,"CountryCode":null},{"ID":31503,"Name":"Barhni","Lat":27.4972,"Lon":82.7861,"CountryCode":null},{"ID":34653,"Name":"Bari","Lat":25.8769,"Lon":86.1918,"CountryCode":null},{"ID":9246,"Name":"Bari","Lat":26.63,"Lon":77.62,"CountryCode":null},{"ID":31849,"Name":"Bariariya","Lat":26.5105,"Lon":84.7165,"CountryCode":null},{"ID":44037,"Name":"Bariariya Tola Rajpur","Lat":26.4567,"Lon":84.7043,"CountryCode":null},{"ID":28450,"Name":"Bariarpur","Lat":25.292,"Lon":86.571,"CountryCode":null},{"ID":23312,"Name":"Bariarpur","Lat":25.686,"Lon":86.0295,"CountryCode":null},{"ID":38687,"Name":"Bariarpur Kandh","Lat":25.9391,"Lon":85.4674,"CountryCode":null},{"ID":37652,"Name":"Barigarh","Lat":25.2325,"Lon":80.0347,"CountryCode":null},{"ID":5323,"Name":"Baripada","Lat":21.94,"Lon":86.72,"CountryCode":null},{"ID":34567,"Name":"Bariyarpur","Lat":26.6347,"Lon":84.9245,"CountryCode":null},{"ID":43368,"Name":"Barjhar","Lat":22.6012,"Lon":74.2471,"CountryCode":null},{"ID":32271,"Name":"Barjora","Lat":23.4333,"Lon":87.2833,"CountryCode":null},{"ID":37967,"Name":"Barka Gaon","Lat":26.144,"Lon":84.6598,"CountryCode":null},{"ID":33397,"Name":"Barka Parbatta","Lat":25.3396,"Lon":87.0576,"CountryCode":null},{"ID":36814,"Name":"Barkagaon","Lat":23.8651,"Lon":85.2167,"CountryCode":null},{"ID":20499,"Name":"Barki Ballia","Lat":25.4223,"Lon":86.2758,"CountryCode":null},{"ID":24301,"Name":"Barki Saria","Lat":24.1759,"Lon":85.8894,"CountryCode":null},{"ID":28498,"Name":"Barkot","Lat":30.82,"Lon":78.2,"CountryCode":null},{"ID":31958,"Name":"Barkuhi","Lat":22.1901,"Lon":78.7047,"CountryCode":null},{"ID":12325,"Name":"Barnagar","Lat":23.0489,"Lon":75.378,"CountryCode":null},{"ID":5343,"Name":"Barnala","Lat":30.37,"Lon":75.54,"CountryCode":null},{"ID":43705,"Name":"Barnaon","Lat":25.4809,"Lon":84.525,"CountryCode":null},{"ID":41732,"Name":"Barni","Lat":25.3484,"Lon":85.0594,"CountryCode":null},{"ID":28778,"Name":"Barnia","Lat":23.7311,"Lon":88.4329,"CountryCode":null},{"ID":5814,"Name":"Barnoi","Lat":32.43,"Lon":75.43,"CountryCode":null},{"ID":28695,"Name":"Baro","Lat":25.4487,"Lon":85.9924,"CountryCode":null},{"ID":29909,"Name":"Barod","Lat":23.7889,"Lon":75.8116,"CountryCode":null},{"ID":6150,"Name":"Barod","Lat":27.8947,"Lon":76.3681,"CountryCode":null},{"ID":23998,"Name":"Baroda","Lat":25.5,"Lon":76.65,"CountryCode":null},{"ID":36542,"Name":"Barokhar","Lat":24.9167,"Lon":81.9667,"CountryCode":null},{"ID":37376,"Name":"Baroni Khurd","Lat":25.6852,"Lon":78.3746,"CountryCode":null},{"ID":43444,"Name":"Barpathar","Lat":26.2871,"Lon":93.8884,"CountryCode":null},{"ID":12879,"Name":"Barpeta","Lat":26.32,"Lon":91,"CountryCode":null},{"ID":35813,"Name":"Barsaun","Lat":25.6316,"Lon":84.4372,"CountryCode":null},{"ID":37252,"Name":"Baruari","Lat":26.0305,"Lon":86.5965,"CountryCode":null},{"ID":34582,"Name":"Barud","Lat":21.7497,"Lon":75.527,"CountryCode":null},{"ID":18730,"Name":"Barughutu","Lat":23.8038,"Lon":85.5555,"CountryCode":null},{"ID":10683,"Name":"Baruipur","Lat":22.3654,"Lon":88.4325,"CountryCode":null},{"ID":45250,"Name":"Barun","Lat":24.8602,"Lon":84.2232,"CountryCode":null},{"ID":19742,"Name":"Baruni","Lat":25.4751,"Lon":85.9681,"CountryCode":null},{"ID":26835,"Name":"Barvala","Lat":22.15,"Lon":71.9,"CountryCode":null},{"ID":20489,"Name":"Barwa Sagar","Lat":25.3799,"Lon":78.739,"CountryCode":null},{"ID":42920,"Name":"Barwadih","Lat":23.8478,"Lon":84.1105,"CountryCode":null},{"ID":12505,"Name":"Barwah","Lat":22.2539,"Lon":76.0385,"CountryCode":null},{"ID":44708,"Name":"Barwan","Lat":23.9379,"Lon":87.935,"CountryCode":null},{"ID":10299,"Name":"Barwani","Lat":22.03,"Lon":74.9,"CountryCode":null},{"ID":34164,"Name":"Barwat Pasrain","Lat":26.7925,"Lon":84.5469,"CountryCode":null},{"ID":44926,"Name":"Basaha","Lat":26.1329,"Lon":86.748,"CountryCode":null},{"ID":38234,"Name":"Basaithi","Lat":26.0284,"Lon":87.3329,"CountryCode":null},{"ID":36081,"Name":"Basantpur","Lat":26.1331,"Lon":87.4656,"CountryCode":null},{"ID":33304,"Name":"Basaon","Lat":26.2082,"Lon":84.6174,"CountryCode":null},{"ID":42048,"Name":"Basapatna","Lat":15.4302,"Lon":76.4869,"CountryCode":null},{"ID":30175,"Name":"Basarh","Lat":25.9808,"Lon":85.1285,"CountryCode":null},{"ID":26054,"Name":"Basatpur","Lat":26.0011,"Lon":85.0643,"CountryCode":null},{"ID":8444,"Name":"Basavakalyan","Lat":17.8728,"Lon":76.9497,"CountryCode":null},{"ID":14410,"Name":"Basavana Bagevadi","Lat":16.5728,"Lon":75.9725,"CountryCode":null},{"ID":38688,"Name":"Basbiti","Lat":26.0939,"Lon":86.5289,"CountryCode":null},{"ID":44501,"Name":"Basdeopur","Lat":25.3909,"Lon":86.6821,"CountryCode":null},{"ID":19216,"Name":"Basi","Lat":30.5872,"Lon":76.8428,"CountryCode":null},{"ID":4989,"Name":"Basirhat","Lat":22.6572,"Lon":88.8942,"CountryCode":null},{"ID":45230,"Name":"Basmanpur","Lat":26.6433,"Lon":84.9789,"CountryCode":null},{"ID":43218,"Name":"Basni","Lat":25.4435,"Lon":82.8291,"CountryCode":null},{"ID":7010,"Name":"Basoda","Lat":23.8515,"Lon":77.9365,"CountryCode":null},{"ID":20679,"Name":"Basopatti","Lat":26.578,"Lon":86.0052,"CountryCode":null},{"ID":45912,"Name":"Basrur","Lat":13.6308,"Lon":74.7377,"CountryCode":null},{"ID":40196,"Name":"Bassian","Lat":30.6559,"Lon":75.5389,"CountryCode":null},{"ID":44130,"Name":"Basudebpur","Lat":21.8256,"Lon":87.619,"CountryCode":null},{"ID":13799,"Name":"Basudebpur","Lat":21.1197,"Lon":86.729,"CountryCode":null},{"ID":3547,"Name":"Batala","Lat":31.8186,"Lon":75.2028,"CountryCode":null},{"ID":36507,"Name":"Bataredh","Lat":26.425,"Lon":84.6061,"CountryCode":null},{"ID":20200,"Name":"Bathnaha","Lat":26.6433,"Lon":85.5747,"CountryCode":null},{"ID":34679,"Name":"Battulapalle","Lat":14.5167,"Lon":77.7833,"CountryCode":null},{"ID":27652,"Name":"Baturbari","Lat":26.2281,"Lon":87.4714,"CountryCode":null},{"ID":24260,"Name":"Baud","Lat":20.84,"Lon":84.32,"CountryCode":null},{"ID":31744,"Name":"Baulia","Lat":25.399,"Lon":87.6002,"CountryCode":null},{"ID":28275,"Name":"Bauria","Lat":22.4521,"Lon":88.1853,"CountryCode":null},{"ID":38569,"Name":"Bawali","Lat":22.4041,"Lon":88.1852,"CountryCode":null},{"ID":44785,"Name":"Bawana","Lat":28.762,"Lon":77.063,"CountryCode":null},{"ID":43414,"Name":"Bayaram","Lat":18.0506,"Lon":80.7375,"CountryCode":null},{"ID":29836,"Name":"Baynala","Lat":22.4835,"Lon":88.4997,"CountryCode":null},{"ID":36867,"Name":"Bayyanagudem","Lat":17.125,"Lon":81.3628,"CountryCode":null},{"ID":44768,"Name":"Bayyavaram","Lat":17.6638,"Lon":82.942,"CountryCode":null},{"ID":39193,"Name":"Bazid Chak Kasturi","Lat":25.6559,"Lon":85.4412,"CountryCode":null},{"ID":34478,"Name":"Bazidpur","Lat":26.1536,"Lon":86.1511,"CountryCode":null},{"ID":24700,"Name":"Bazidpur Madhaul","Lat":25.5236,"Lon":85.4572,"CountryCode":null},{"ID":4205,"Name":"Beawar","Lat":26.1,"Lon":74.32,"CountryCode":null},{"ID":13597,"Name":"Begamganj","Lat":23.5992,"Lon":78.3406,"CountryCode":null},{"ID":34597,"Name":"Begampur","Lat":22.3705,"Lon":88.494,"CountryCode":null},{"ID":39841,"Name":"Begampur","Lat":22.7368,"Lon":88.2518,"CountryCode":null},{"ID":40939,"Name":"Begowal","Lat":31.6125,"Lon":75.5194,"CountryCode":null},{"ID":2659,"Name":"Begusarai","Lat":25.42,"Lon":86.13,"CountryCode":null},{"ID":23636,"Name":"Behat","Lat":26.2435,"Lon":86.2799,"CountryCode":null},{"ID":17829,"Name":"Behror","Lat":27.8903,"Lon":76.2861,"CountryCode":null},{"ID":29687,"Name":"Beko","Lat":24.0415,"Lon":85.9536,"CountryCode":null},{"ID":32153,"Name":"Bela","Lat":25.8103,"Lon":85.0157,"CountryCode":null},{"ID":41225,"Name":"Bela","Lat":24.9689,"Lon":84.974,"CountryCode":null},{"ID":40484,"Name":"Bela","Lat":26.4989,"Lon":86.3242,"CountryCode":null},{"ID":34468,"Name":"Bela Simri","Lat":25.5295,"Lon":86.3079,"CountryCode":null},{"ID":36581,"Name":"Beladi","Lat":13.1464,"Lon":74.9399,"CountryCode":null},{"ID":34872,"Name":"Belagal","Lat":15.8183,"Lon":77.6702,"CountryCode":null},{"ID":40928,"Name":"Belagola","Lat":13.3833,"Lon":75.5833,"CountryCode":null},{"ID":27687,"Name":"Belakoba","Lat":26.59,"Lon":88.589,"CountryCode":null},{"ID":44061,"Name":"Belakvadi","Lat":12.255,"Lon":77.1225,"CountryCode":null},{"ID":10234,"Name":"Belampalli","Lat":19.0756,"Lon":79.4881,"CountryCode":null},{"ID":39892,"Name":"Belao","Lat":25.1476,"Lon":85.7377,"CountryCode":null},{"ID":30214,"Name":"Belari","Lat":25.9655,"Lon":86.9161,"CountryCode":null},{"ID":37877,"Name":"Belauncha","Lat":26.2124,"Lon":86.3554,"CountryCode":null},{"ID":29576,"Name":"Belaur","Lat":25.4477,"Lon":84.6473,"CountryCode":null},{"ID":30252,"Name":"Beldanga","Lat":24.7041,"Lon":87.873,"CountryCode":null},{"ID":17985,"Name":"Beldanga","Lat":23.93,"Lon":88.25,"CountryCode":null},{"ID":24952,"Name":"Beldaur","Lat":25.5947,"Lon":86.7909,"CountryCode":null},{"ID":1514,"Name":"Belgaum","Lat":15.85,"Lon":74.5,"CountryCode":null},{"ID":45799,"Name":"Belhatti","Lat":15.0818,"Lon":75.6465,"CountryCode":null},{"ID":16369,"Name":"Belhi","Lat":26.5769,"Lon":86.1723,"CountryCode":null},{"ID":40782,"Name":"Bellamkonda","Lat":16.4922,"Lon":80.0089,"CountryCode":null},{"ID":1756,"Name":"Bellary","Lat":15.1,"Lon":76.9167,"CountryCode":null},{"ID":30710,"Name":"Bellatti","Lat":12.65,"Lon":78,"CountryCode":null},{"ID":44832,"Name":"Belma","Lat":12.87,"Lon":74.84,"CountryCode":null},{"ID":29847,"Name":"Belo","Lat":25.8747,"Lon":86.8855,"CountryCode":null},{"ID":23544,"Name":"Belonia","Lat":23.25,"Lon":91.45,"CountryCode":null},{"ID":41256,"Name":"Belpara","Lat":20.5889,"Lon":82.9729,"CountryCode":null},{"ID":34034,"Name":"Belpukur","Lat":21.9851,"Lon":88.2125,"CountryCode":null},{"ID":21598,"Name":"Belsand","Lat":26.4436,"Lon":85.4008,"CountryCode":null},{"ID":32414,"Name":"Belsandi Tara","Lat":25.7722,"Lon":85.9608,"CountryCode":null},{"ID":42371,"Name":"Belsara","Lat":26.0152,"Lon":87.2023,"CountryCode":null},{"ID":42562,"Name":"Beltangadi","Lat":12.9795,"Lon":75.2699,"CountryCode":null},{"ID":36373,"Name":"Belur","Lat":11.7075,"Lon":78.4144,"CountryCode":null},{"ID":24428,"Name":"Belur","Lat":13.1629,"Lon":75.8571,"CountryCode":null},{"ID":35700,"Name":"Belwa","Lat":26.1056,"Lon":87.4916,"CountryCode":null},{"ID":32408,"Name":"Belwara","Lat":25.7443,"Lon":86.4755,"CountryCode":null},{"ID":33311,"Name":"Benaulim","Lat":15.27,"Lon":73.9346,"CountryCode":null},{"ID":43742,"Name":"Bendapudi","Lat":17.2673,"Lon":82.3758,"CountryCode":null},{"ID":43229,"Name":"Bendarhalli","Lat":12.15,"Lon":77.1,"CountryCode":null},{"ID":42567,"Name":"Bendrahalli","Lat":12.2642,"Lon":78.3223,"CountryCode":null},{"ID":31009,"Name":"Benipati","Lat":26.4442,"Lon":85.9083,"CountryCode":null},{"ID":19550,"Name":"Beohari","Lat":24.0242,"Lon":81.3783,"CountryCode":null},{"ID":42861,"Name":"Berchha","Lat":23.2823,"Lon":76.3199,"CountryCode":null},{"ID":41907,"Name":"Berikai","Lat":12.8056,"Lon":77.971,"CountryCode":null},{"ID":22499,"Name":"Bermo","Lat":23.7878,"Lon":85.9353,"CountryCode":null},{"ID":13168,"Name":"Berubari","Lat":26.3603,"Lon":88.7152,"CountryCode":null},{"ID":39357,"Name":"Besagarahalli","Lat":12.6333,"Lon":77,"CountryCode":null},{"ID":33362,"Name":"Besarh","Lat":25.9537,"Lon":87.0491,"CountryCode":null},{"ID":13981,"Name":"Betamcherla","Lat":15.4667,"Lon":78.1667,"CountryCode":null},{"ID":3227,"Name":"Betigeri","Lat":15.443,"Lon":75.6442,"CountryCode":null},{"ID":35018,"Name":"Betma","Lat":22.68,"Lon":75.62,"CountryCode":null},{"ID":36989,"Name":"Betmangala","Lat":13.0085,"Lon":78.3282,"CountryCode":null},{"ID":41450,"Name":"Betnoti","Lat":21.7355,"Lon":86.8499,"CountryCode":null},{"ID":1735,"Name":"Bettiah","Lat":26.8014,"Lon":84.5028,"CountryCode":null},{"ID":4161,"Name":"Betul Bazar","Lat":21.905,"Lon":77.902,"CountryCode":null},{"ID":33123,"Name":"Beur","Lat":25.569,"Lon":85.0944,"CountryCode":null},{"ID":8740,"Name":"Beypore","Lat":11.18,"Lon":75.82,"CountryCode":null},{"ID":37330,"Name":"Bhabanipur","Lat":24.7153,"Lon":87.9227,"CountryCode":null},{"ID":9330,"Name":"Bhabhua","Lat":25.05,"Lon":83.62,"CountryCode":null},{"ID":3612,"Name":"Bhachau","Lat":23.296,"Lon":70.343,"CountryCode":null},{"ID":43651,"Name":"Bhachhi","Lat":26.3404,"Lon":86.0585,"CountryCode":null},{"ID":35644,"Name":"Bhachhi Asli","Lat":26.0147,"Lon":86.0444,"CountryCode":null},{"ID":7845,"Name":"Bhadarwah","Lat":32.98,"Lon":75.7137,"CountryCode":null},{"ID":22146,"Name":"Bhadas","Lat":25.5184,"Lon":86.4434,"CountryCode":null},{"ID":26146,"Name":"Bhadaur","Lat":30.4764,"Lon":75.3306,"CountryCode":null},{"ID":41641,"Name":"Bhado Khara","Lat":24.9567,"Lon":85.513,"CountryCode":null},{"ID":6456,"Name":"Bhadohi","Lat":25.42,"Lon":82.57,"CountryCode":null},{"ID":11224,"Name":"Bhadrachalam","Lat":17.6688,"Lon":80.8936,"CountryCode":null},{"ID":5106,"Name":"Bhadrakh","Lat":21.0545,"Lon":86.5156,"CountryCode":null},{"ID":3130,"Name":"Bhadravati","Lat":13.8485,"Lon":75.705,"CountryCode":null},{"ID":6059,"Name":"Bhadreswar","Lat":22.82,"Lon":88.35,"CountryCode":null},{"ID":41816,"Name":"Bhadsara","Lat":25.3696,"Lon":84.8444,"CountryCode":null},{"ID":44933,"Name":"Bhadwar","Lat":25.5576,"Lon":84.7559,"CountryCode":null},{"ID":27479,"Name":"Bhagabanpur","Lat":24.7765,"Lon":88.0217,"CountryCode":null},{"ID":1757,"Name":"Bhagalpur","Lat":25.25,"Lon":87,"CountryCode":null},{"ID":45028,"Name":"Bhagatpur","Lat":25.4098,"Lon":86.3076,"CountryCode":null},{"ID":40913,"Name":"Bhagirathpur","Lat":24.0884,"Lon":88.4947,"CountryCode":null},{"ID":42575,"Name":"Bhagsar","Lat":30.4417,"Lon":74.4023,"CountryCode":null},{"ID":29830,"Name":"Bhagta","Lat":30.4882,"Lon":75.1013,"CountryCode":null},{"ID":29831,"Name":"Bhagwangola","Lat":24.3485,"Lon":88.3243,"CountryCode":null},{"ID":35950,"Name":"Bhagwanpur Desua","Lat":25.8124,"Lon":85.8382,"CountryCode":null},{"ID":34469,"Name":"Bhagwanpur Khurd","Lat":26.75,"Lon":83.74,"CountryCode":null},{"ID":37555,"Name":"Bhagwatpur","Lat":25.7484,"Lon":85.7016,"CountryCode":null},{"ID":28509,"Name":"Bhai Rupa","Lat":30.4311,"Lon":75.2206,"CountryCode":null},{"ID":11320,"Name":"Bhainsa","Lat":19.1,"Lon":77.9667,"CountryCode":null},{"ID":36885,"Name":"Bhainsahi","Lat":26.4404,"Lon":84.5443,"CountryCode":null},{"ID":23885,"Name":"Bhainsdehi","Lat":21.6449,"Lon":77.6302,"CountryCode":null},{"ID":28208,"Name":"Bhainsoda","Lat":24.4427,"Lon":75.8403,"CountryCode":null},{"ID":35905,"Name":"Bhairapura","Lat":12.2119,"Lon":76.8953,"CountryCode":null},{"ID":35746,"Name":"Bhaisalotan","Lat":27.45,"Lon":83.9167,"CountryCode":null},{"ID":33258,"Name":"Bhakua","Lat":26.5167,"Lon":86.1974,"CountryCode":null},{"ID":12009,"Name":"Bhalki","Lat":18.0435,"Lon":77.206,"CountryCode":null},{"ID":39160,"Name":"Bhalpatti","Lat":26.1853,"Lon":86.0509,"CountryCode":null},{"ID":4207,"Name":"Bhalswa Jahangirpur","Lat":28.7354,"Lon":77.1638,"CountryCode":null},{"ID":24693,"Name":"Bhaluhar","Lat":24.82,"Lon":84.65,"CountryCode":null},{"ID":18568,"Name":"Bhambia Bhai","Lat":30.4812,"Lon":75.094,"CountryCode":null},{"ID":35212,"Name":"Bhanas Hivre","Lat":19.4858,"Lon":74.9664,"CountryCode":null},{"ID":38050,"Name":"Bhandarso","Lat":26.178,"Lon":86.1415,"CountryCode":null},{"ID":19030,"Name":"Bhander","Lat":25.7358,"Lon":78.7456,"CountryCode":null},{"ID":1116,"Name":"Bhangar","Lat":22.58,"Lon":88.42,"CountryCode":null},{"ID":38573,"Name":"Bhangha","Lat":25.578,"Lon":87.2782,"CountryCode":null},{"ID":39055,"Name":"Bhanghi","Lat":26.3612,"Lon":87.1826,"CountryCode":null},{"ID":35766,"Name":"Bhankarpur","Lat":30.65,"Lon":76.82,"CountryCode":null},{"ID":23030,"Name":"Bhanpura","Lat":24.5108,"Lon":75.7483,"CountryCode":null},{"ID":36365,"Name":"Bhansia","Lat":26.0992,"Lon":87.5316,"CountryCode":null},{"ID":31755,"Name":"Bhanukumari","Lat":26.3395,"Lon":89.7697,"CountryCode":null},{"ID":30198,"Name":"Bhanumukkala","Lat":15.3119,"Lon":78.2277,"CountryCode":null},{"ID":45626,"Name":"Bhanuvalli","Lat":14.4333,"Lon":75.7667,"CountryCode":null},{"ID":22711,"Name":"Bhanvad","Lat":21.93,"Lon":69.78,"CountryCode":null},{"ID":29673,"Name":"Bharanikavu Tekku","Lat":9.1847,"Lon":76.5446,"CountryCode":null},{"ID":2657,"Name":"Bharatpur","Lat":27.22,"Lon":77.48,"CountryCode":null},{"ID":44101,"Name":"Bhargaon","Lat":26.075,"Lon":87.1483,"CountryCode":null},{"ID":41758,"Name":"Bharhopur","Lat":25.9488,"Lon":84.5274,"CountryCode":null},{"ID":45537,"Name":"Bharno","Lat":23.2204,"Lon":84.8891,"CountryCode":null},{"ID":35981,"Name":"Bharokhara","Lat":25.8655,"Lon":85.6834,"CountryCode":null},{"ID":39392,"Name":"Bharra","Lat":25.4398,"Lon":86.1624,"CountryCode":null},{"ID":4052,"Name":"Bharuch","Lat":21.712,"Lon":72.993,"CountryCode":null},{"ID":35878,"Name":"Bharweli","Lat":21.8373,"Lon":80.2271,"CountryCode":null},{"ID":45357,"Name":"Bhasaula Danapur","Lat":25.5509,"Lon":85.0308,"CountryCode":null},{"ID":24756,"Name":"Bhasawar","Lat":27.0361,"Lon":77.0528,"CountryCode":null},{"ID":45039,"Name":"Bhataulia","Lat":26.4771,"Lon":84.7789,"CountryCode":null},{"ID":2405,"Name":"Bhatinda","Lat":30.23,"Lon":74.9519,"CountryCode":null},{"ID":11707,"Name":"Bhatkal","Lat":13.9853,"Lon":74.5553,"CountryCode":null},{"ID":45743,"Name":"Bhatkhori","Lat":25.9156,"Lon":86.9072,"CountryCode":null},{"ID":12954,"Name":"Bhatpalli","Lat":18.4293,"Lon":79.8635,"CountryCode":null},{"ID":1850,"Name":"Bhatpara","Lat":22.87,"Lon":88.41,"CountryCode":null},{"ID":22605,"Name":"Bhatpuri","Lat":29.17,"Lon":79.16,"CountryCode":null},{"ID":30494,"Name":"Bhatranha","Lat":25.9846,"Lon":86.6348,"CountryCode":null},{"ID":38203,"Name":"Bhattiprolu","Lat":16.1026,"Lon":80.7807,"CountryCode":null},{"ID":11275,"Name":"Bhattu Kolan","Lat":29.3872,"Lon":75.3422,"CountryCode":null},{"ID":39344,"Name":"Bhaur","Lat":26.2751,"Lon":86.1552,"CountryCode":null},{"ID":39064,"Name":"Bhauradah","Lat":26.252,"Lon":87.86,"CountryCode":null},{"ID":11033,"Name":"Bhavani","Lat":11.4455,"Lon":77.6821,"CountryCode":null},{"ID":1165,"Name":"Bhavnagar","Lat":21.76,"Lon":72.15,"CountryCode":null},{"ID":42670,"Name":"Bhawanandpur","Lat":25.54,"Lon":86.103,"CountryCode":null},{"ID":22539,"Name":"Bhawanigarh","Lat":30.27,"Lon":76.04,"CountryCode":null},{"ID":7153,"Name":"Bhawanipatna","Lat":19.91,"Lon":83.128,"CountryCode":null},{"ID":28181,"Name":"Bhawanipur","Lat":25.3944,"Lon":87.1264,"CountryCode":null},{"ID":26340,"Name":"Bhawanipur","Lat":26.4361,"Lon":84.7356,"CountryCode":null},{"ID":41553,"Name":"Bhawanipur","Lat":26.2385,"Lon":86.0995,"CountryCode":null},{"ID":11198,"Name":"Bhawanipur Rajdham","Lat":25.6501,"Lon":87.1396,"CountryCode":null},{"ID":12314,"Name":"Bhayala","Lat":22.8335,"Lon":72.3643,"CountryCode":null},{"ID":939,"Name":"Bhayandar","Lat":19.29,"Lon":72.85,"CountryCode":null},{"ID":35136,"Name":"Bheja","Lat":26.1046,"Lon":86.395,"CountryCode":null},{"ID":44794,"Name":"Bhelsi","Lat":24.7866,"Lon":79.1281,"CountryCode":null},{"ID":26968,"Name":"Bhikhi","Lat":30.07,"Lon":75.53,"CountryCode":null},{"ID":40495,"Name":"Bhikkiwind Uttar","Lat":31.3453,"Lon":74.6914,"CountryCode":null},{"ID":1194,"Name":"Bhilai","Lat":21.21,"Lon":81.38,"CountryCode":null},{"ID":5766,"Name":"Bhilai Karanja","Lat":21.2198,"Lon":81.4575,"CountryCode":null},{"ID":37742,"Name":"Bhilavadi","Lat":16.8586,"Lon":74.3317,"CountryCode":null},{"ID":29155,"Name":"Bhiloda","Lat":23.46,"Lon":73.15,"CountryCode":null},{"ID":1449,"Name":"Bhilwara","Lat":25.35,"Lon":74.63,"CountryCode":null},{"ID":32892,"Name":"Bhimadolu","Lat":16.8144,"Lon":81.2617,"CountryCode":null},{"ID":4468,"Name":"Bhimavaram","Lat":16.543,"Lon":81.523,"CountryCode":null},{"ID":10370,"Name":"Bhimunipatnam","Lat":17.8846,"Lon":83.4393,"CountryCode":null},{"ID":3339,"Name":"Bhind","Lat":26.5587,"Lon":78.7871,"CountryCode":null},{"ID":22113,"Name":"Bhiraha","Lat":25.7978,"Lon":86.0736,"CountryCode":null},{"ID":44707,"Name":"Bhirua","Lat":25.8509,"Lon":86.3319,"CountryCode":null},{"ID":29734,"Name":"Bhit Bhagwanpur","Lat":26.116,"Lon":86.355,"CountryCode":null},{"ID":24504,"Name":"Bhitarwar","Lat":25.7922,"Lon":78.1108,"CountryCode":null},{"ID":1051,"Name":"Bhiwandi","Lat":19.2967,"Lon":73.0631,"CountryCode":null},{"ID":3338,"Name":"Bhiwani","Lat":28.78,"Lon":76.13,"CountryCode":null},{"ID":43455,"Name":"Bhogapuram","Lat":18.0311,"Lon":83.4967,"CountryCode":null},{"ID":32502,"Name":"Bhogpur","Lat":31.55,"Lon":75.63,"CountryCode":null},{"ID":30469,"Name":"Bhoj","Lat":16.5333,"Lon":74.45,"CountryCode":null},{"ID":25368,"Name":"Bhojpur Jadid","Lat":25.588,"Lon":84.1621,"CountryCode":null},{"ID":24218,"Name":"Bhojpur Kadim","Lat":25.5841,"Lon":84.1265,"CountryCode":null},{"ID":25327,"Name":"Bholsar","Lat":25.2133,"Lon":87.2147,"CountryCode":null},{"ID":10388,"Name":"Bhongir","Lat":17.51,"Lon":78.89,"CountryCode":null},{"ID":450,"Name":"Bhopal","Lat":23.2599,"Lon":77.4126,"CountryCode":null},{"ID":39821,"Name":"Bhopalia","Lat":22.2791,"Lon":73.7104,"CountryCode":null},{"ID":24615,"Name":"Bhopatpur","Lat":26.4495,"Lon":84.8545,"CountryCode":null},{"ID":19361,"Name":"Bhuban","Lat":20.882,"Lon":85.8333,"CountryCode":null},{"ID":920,"Name":"Bhubaneshwar","Lat":20.2644,"Lon":85.8281,"CountryCode":null},{"ID":27360,"Name":"Bhucho Mandi","Lat":30.2129,"Lon":75.0969,"CountryCode":null},{"ID":45534,"Name":"Bhui","Lat":25.0894,"Lon":85.3888,"CountryCode":null},{"ID":3113,"Name":"Bhuj","Lat":23.25,"Lon":69.67,"CountryCode":null},{"ID":32034,"Name":"Bhulwal","Lat":32.8094,"Lon":74.7683,"CountryCode":null},{"ID":3487,"Name":"Bhusaval","Lat":21.05,"Lon":75.77,"CountryCode":null},{"ID":11228,"Name":"Biaora","Lat":23.9163,"Lon":76.9112,"CountryCode":null},{"ID":15321,"Name":"Bibhutpur","Lat":25.6878,"Lon":85.9992,"CountryCode":null},{"ID":36487,"Name":"Bibipet","Lat":18.2101,"Lon":78.5221,"CountryCode":null},{"ID":33679,"Name":"Bichkunda","Lat":18.4,"Lon":77.7167,"CountryCode":null},{"ID":3749,"Name":"Bidar","Lat":17.912,"Lon":77.52,"CountryCode":null},{"ID":37556,"Name":"Biddupur","Lat":25.6464,"Lon":85.3203,"CountryCode":null},{"ID":32682,"Name":"Bideipur","Lat":21.0147,"Lon":86.8195,"CountryCode":null},{"ID":2323,"Name":"Bihar","Lat":25.197,"Lon":85.518,"CountryCode":null},{"ID":34402,"Name":"Bihariganj","Lat":25.7341,"Lon":86.9884,"CountryCode":null},{"ID":12078,"Name":"Bihat","Lat":25.4253,"Lon":86.0208,"CountryCode":null},{"ID":19010,"Name":"Bihpur","Lat":25.3889,"Lon":86.9337,"CountryCode":null},{"ID":31745,"Name":"Bihpuriagaon","Lat":27.0172,"Lon":93.9167,"CountryCode":null},{"ID":1214,"Name":"Bihta","Lat":25.5619,"Lon":84.87,"CountryCode":null},{"ID":33417,"Name":"Bijai","Lat":25.4711,"Lon":87.0874,"CountryCode":null},{"ID":31398,"Name":"Bijaipur","Lat":26.0556,"Lon":77.3697,"CountryCode":null},{"ID":2133,"Name":"Bijapur","Lat":16.83,"Lon":75.71,"CountryCode":null},{"ID":21025,"Name":"Bijawar","Lat":24.6235,"Lon":79.4899,"CountryCode":null},{"ID":8403,"Name":"Bijaynagar","Lat":25.93,"Lon":74.6386,"CountryCode":null},{"ID":19736,"Name":"Bijbiara","Lat":33.7938,"Lon":75.107,"CountryCode":null},{"ID":43136,"Name":"Bijeraghogarh","Lat":23.9955,"Lon":80.6066,"CountryCode":null},{"ID":28482,"Name":"Bijni","Lat":26.4959,"Lon":90.703,"CountryCode":null},{"ID":5401,"Name":"Bijnor","Lat":29.37,"Lon":78.13,"CountryCode":null},{"ID":1396,"Name":"Bikaner","Lat":28.0181,"Lon":73.3169,"CountryCode":null},{"ID":44816,"Name":"Bikkatti","Lat":11.3741,"Lon":76.7513,"CountryCode":null},{"ID":31863,"Name":"Bikkavolu","Lat":16.95,"Lon":82.05,"CountryCode":null},{"ID":36608,"Name":"Biknur","Lat":18.215,"Lon":78.4367,"CountryCode":null},{"ID":11123,"Name":"Bikramganj","Lat":25.2107,"Lon":84.2551,"CountryCode":null},{"ID":45805,"Name":"Bikrampur Bande","Lat":25.8415,"Lon":85.7424,"CountryCode":null},{"ID":8234,"Name":"Bilara","Lat":26.1792,"Lon":73.7056,"CountryCode":null},{"ID":13311,"Name":"Bilasipara","Lat":26.2328,"Lon":90.2341,"CountryCode":null},{"ID":484,"Name":"Bilaspur","Lat":22.09,"Lon":82.15,"CountryCode":null},{"ID":32921,"Name":"Bilaspur","Lat":31.33,"Lon":76.75,"CountryCode":null},{"ID":42612,"Name":"Bilaspur","Lat":30.32,"Lon":77.32,"CountryCode":null},{"ID":30477,"Name":"Bilaua","Lat":26.0501,"Lon":78.2752,"CountryCode":null},{"ID":36325,"Name":"Bilauri","Lat":25.7703,"Lon":87.5163,"CountryCode":null},{"ID":41782,"Name":"Bilehra","Lat":23.6463,"Lon":78.7311,"CountryCode":null},{"ID":40911,"Name":"Bilga","Lat":31.05,"Lon":75.65,"CountryCode":null},{"ID":30013,"Name":"Bilgi","Lat":16.3472,"Lon":75.6181,"CountryCode":null},{"ID":9958,"Name":"Bilimora","Lat":20.75,"Lon":72.95,"CountryCode":null},{"ID":30305,"Name":"Billapadu","Lat":16.6364,"Lon":80.9661,"CountryCode":null},{"ID":29815,"Name":"Bilpura","Lat":23.2216,"Lon":79.9917,"CountryCode":null},{"ID":44289,"Name":"Bimawan","Lat":25.5111,"Lon":84.4946,"CountryCode":null},{"ID":10010,"Name":"Bimgal","Lat":18.7,"Lon":78.4667,"CountryCode":null},{"ID":43064,"Name":"Bimun","Lat":34.0588,"Lon":74.7539,"CountryCode":null},{"ID":30507,"Name":"Bina","Lat":26.0792,"Lon":86.6326,"CountryCode":null},{"ID":37517,"Name":"Bind","Lat":25.3035,"Lon":85.6869,"CountryCode":null},{"ID":14660,"Name":"Bindki","Lat":26.03,"Lon":80.6,"CountryCode":null},{"ID":25461,"Name":"Binka","Lat":21.0263,"Lon":83.812,"CountryCode":null},{"ID":9776,"Name":"Binnaguri","Lat":26.7641,"Lon":89.0558,"CountryCode":null},{"ID":4354,"Name":"Bir","Lat":18.99,"Lon":75.76,"CountryCode":null},{"ID":35936,"Name":"Birdaban","Lat":26.4012,"Lon":84.9934,"CountryCode":null},{"ID":29115,"Name":"Birhana","Lat":25.4489,"Lon":85.7054,"CountryCode":null},{"ID":14026,"Name":"Birmitrapur","Lat":22.4,"Lon":84.7667,"CountryCode":null},{"ID":25940,"Name":"Birnagar","Lat":25.9785,"Lon":87.111,"CountryCode":null},{"ID":25707,"Name":"Birpur","Lat":25.5181,"Lon":86.0826,"CountryCode":null},{"ID":21472,"Name":"Birpur","Lat":26.5082,"Lon":87.0119,"CountryCode":null},{"ID":24375,"Name":"Birpur","Lat":25.5209,"Lon":85.4614,"CountryCode":null},{"ID":38561,"Name":"Birpur","Lat":26.5767,"Lon":86.0379,"CountryCode":null},{"ID":45181,"Name":"Birpur","Lat":32.6617,"Lon":74.9518,"CountryCode":null},{"ID":41990,"Name":"Birpur Barapatti Pindraun","Lat":26.5475,"Lon":86.3898,"CountryCode":null},{"ID":28851,"Name":"Birsinghpur","Lat":24.7981,"Lon":80.9739,"CountryCode":null},{"ID":17593,"Name":"Birur","Lat":13.5972,"Lon":75.9717,"CountryCode":null},{"ID":42807,"Name":"Bisaria","Lat":25.9789,"Lon":87.1003,"CountryCode":null},{"ID":45865,"Name":"Bisaul","Lat":26.6151,"Lon":85.993,"CountryCode":null},{"ID":45836,"Name":"Bishamagiri","Lat":19.3849,"Lon":84.4715,"CountryCode":null},{"ID":33101,"Name":"Bishenpur","Lat":24.6282,"Lon":93.761,"CountryCode":null},{"ID":35980,"Name":"Bishnah","Lat":32.6106,"Lon":74.8556,"CountryCode":null},{"ID":8641,"Name":"Bishnupur","Lat":23.075,"Lon":87.317,"CountryCode":null},{"ID":24932,"Name":"Bishunpur","Lat":26.0868,"Lon":86.6541,"CountryCode":null},{"ID":37595,"Name":"Bishunpur","Lat":26.1561,"Lon":87.2711,"CountryCode":null},{"ID":38193,"Name":"Bishunpur","Lat":24.7631,"Lon":85.682,"CountryCode":null},{"ID":41458,"Name":"Bishunpur","Lat":25.8029,"Lon":85.9886,"CountryCode":null},{"ID":45607,"Name":"Bishunpur","Lat":25.5665,"Lon":87.4435,"CountryCode":null},{"ID":38615,"Name":"Bishunpur Hakimabad","Lat":25.8453,"Lon":85.8432,"CountryCode":null},{"ID":19996,"Name":"Bishunpur Sundar","Lat":26.0579,"Lon":86.9833,"CountryCode":null},{"ID":28022,"Name":"Bishunpura","Lat":26.5436,"Lon":84.4364,"CountryCode":null},{"ID":38834,"Name":"Bistan","Lat":21.6979,"Lon":75.6657,"CountryCode":null},{"ID":27269,"Name":"Bistaria","Lat":26.1262,"Lon":87.23,"CountryCode":null},{"ID":10243,"Name":"Biswan","Lat":27.5,"Lon":81,"CountryCode":null},{"ID":25516,"Name":"Biswanath Chariali","Lat":26.7278,"Lon":93.1517,"CountryCode":null},{"ID":36783,"Name":"Bithan","Lat":25.6954,"Lon":86.2789,"CountryCode":null},{"ID":21428,"Name":"Bithar","Lat":26.6294,"Lon":85.7697,"CountryCode":null},{"ID":42497,"Name":"Bithauli","Lat":26.0219,"Lon":86.0793,"CountryCode":null},{"ID":10092,"Name":"Bobbili","Lat":18.5667,"Lon":83.3667,"CountryCode":null},{"ID":43239,"Name":"Bobil","Lat":25.6269,"Lon":86.8069,"CountryCode":null},{"ID":22406,"Name":"Bobleshwar","Lat":16.83,"Lon":75.73,"CountryCode":null},{"ID":42591,"Name":"Bochaha","Lat":25.5675,"Lon":85.7393,"CountryCode":null},{"ID":32792,"Name":"Bodagudipadu","Lat":14.7385,"Lon":79.8602,"CountryCode":null},{"ID":43495,"Name":"Boddikurapadu","Lat":15.6591,"Lon":79.7509,"CountryCode":null},{"ID":7642,"Name":"Bodhan","Lat":18.67,"Lon":77.9,"CountryCode":null},{"ID":6319,"Name":"Bodinayakkanur","Lat":10.0101,"Lon":77.3511,"CountryCode":null},{"ID":39586,"Name":"Bodippatti","Lat":10.5642,"Lon":77.2336,"CountryCode":null},{"ID":12642,"Name":"Bodupal","Lat":17.4139,"Lon":78.5783,"CountryCode":null},{"ID":32372,"Name":"Boha","Lat":29.8348,"Lon":75.5237,"CountryCode":null},{"ID":36850,"Name":"Bokakhat","Lat":26.6402,"Lon":93.6005,"CountryCode":null},{"ID":11642,"Name":"Bokaro","Lat":23.7871,"Lon":85.9564,"CountryCode":null},{"ID":1317,"Name":"Bokaro Steel City","Lat":23.67,"Lon":86.15,"CountryCode":null},{"ID":7403,"Name":"Bolpur","Lat":23.67,"Lon":87.72,"CountryCode":null},{"ID":41461,"Name":"Bomareddipalli","Lat":18.7044,"Lon":79.1568,"CountryCode":null},{"ID":45595,"Name":"Bommagondanahalli","Lat":13.8984,"Lon":77.0733,"CountryCode":null},{"ID":40185,"Name":"Bommarbettu","Lat":13.339,"Lon":74.8784,"CountryCode":null},{"ID":45300,"Name":"Bommayapalaiyam","Lat":11.9922,"Lon":79.8499,"CountryCode":null},{"ID":33693,"Name":"Bondada","Lat":16.5295,"Lon":81.4549,"CountryCode":null},{"ID":4839,"Name":"Bongaigaon","Lat":26.4769,"Lon":90.5583,"CountryCode":null},{"ID":37848,"Name":"Bora","Lat":23.6585,"Lon":76.8112,"CountryCode":null},{"ID":40594,"Name":"Borgampad","Lat":17.65,"Lon":80.8667,"CountryCode":null},{"ID":33147,"Name":"Borgaon","Lat":16.42,"Lon":74.58,"CountryCode":null},{"ID":41945,"Name":"Boriguma","Lat":19.0468,"Lon":82.5532,"CountryCode":null},{"ID":40916,"Name":"Borim","Lat":15.3604,"Lon":74.0004,"CountryCode":null},{"ID":44829,"Name":"Borio","Lat":25.0344,"Lon":87.5925,"CountryCode":null},{"ID":43519,"Name":"Borna","Lat":25.4373,"Lon":86.6172,"CountryCode":null},{"ID":16138,"Name":"Borne","Lat":25.5431,"Lon":86.6999,"CountryCode":null},{"ID":4819,"Name":"Botad","Lat":22.17,"Lon":71.67,"CountryCode":null},{"ID":11048,"Name":"Bowringpet","Lat":12.9912,"Lon":78.178,"CountryCode":null},{"ID":29382,"Name":"Brahmadesam","Lat":11.5449,"Lon":77.5803,"CountryCode":null},{"ID":18453,"Name":"Brahmana Periya Agraharam","Lat":11.369,"Lon":77.7063,"CountryCode":null},{"ID":32326,"Name":"Brahmanandapuram","Lat":16.9583,"Lon":82.0056,"CountryCode":null},{"ID":1970,"Name":"Brahmapur","Lat":19.315,"Lon":84.7941,"CountryCode":null},{"ID":6054,"Name":"Brajarajnagar","Lat":21.8167,"Lon":83.9167,"CountryCode":null},{"ID":37833,"Name":"Bramhabarada","Lat":20.6683,"Lon":86.0747,"CountryCode":null},{"ID":16983,"Name":"Bramhapuri","Lat":20.6068,"Lon":79.8644,"CountryCode":null},{"ID":37966,"Name":"Bucheya","Lat":26.3421,"Lon":84.6642,"CountryCode":null},{"ID":14170,"Name":"Buchireddipalem","Lat":14.538,"Lon":79.875,"CountryCode":null},{"ID":43222,"Name":"Budalur","Lat":10.7861,"Lon":78.9864,"CountryCode":null},{"ID":45454,"Name":"Budamangalam","Lat":12.3792,"Lon":79.2308,"CountryCode":null},{"ID":4033,"Name":"Budaun","Lat":28.05,"Lon":79.12,"CountryCode":null},{"ID":19692,"Name":"Buddayyakota","Lat":13.8196,"Lon":78.1729,"CountryCode":null},{"ID":13433,"Name":"Buddh Gaya","Lat":24.6981,"Lon":84.9869,"CountryCode":null},{"ID":37177,"Name":"Budha Theh","Lat":31.5177,"Lon":75.3009,"CountryCode":null},{"ID":19703,"Name":"Budhlada","Lat":29.93,"Lon":75.57,"CountryCode":null},{"ID":43981,"Name":"Budhma","Lat":25.6451,"Lon":86.8317,"CountryCode":null},{"ID":26534,"Name":"Budhni","Lat":22.7825,"Lon":77.682,"CountryCode":null},{"ID":37927,"Name":"Budili","Lat":13.9353,"Lon":77.7355,"CountryCode":null},{"ID":25018,"Name":"Budipuram","Lat":10.3606,"Lon":78.0106,"CountryCode":null},{"ID":41431,"Name":"Budwan","Lat":25.7775,"Lon":81.1681,"CountryCode":null},{"ID":30061,"Name":"Bugganipalle","Lat":15.4741,"Lon":78.175,"CountryCode":null},{"ID":27345,"Name":"Buguda","Lat":19.8081,"Lon":84.7908,"CountryCode":null},{"ID":35710,"Name":"Bukkapatnam","Lat":14.2,"Lon":77.8,"CountryCode":null},{"ID":22857,"Name":"Bukkarayasamudram","Lat":14.6944,"Lon":77.6381,"CountryCode":null},{"ID":2853,"Name":"Bulandshahr","Lat":28.4069,"Lon":77.8497,"CountryCode":null},{"ID":33713,"Name":"Bundala","Lat":31.5333,"Lon":74.9833,"CountryCode":null},{"ID":46096,"Name":"Bundala","Lat":31.1333,"Lon":75.65,"CountryCode":null},{"ID":45371,"Name":"Bundehra","Lat":25.3776,"Lon":86.7376,"CountryCode":null},{"ID":5965,"Name":"Bundi","Lat":25.44,"Lon":75.64,"CountryCode":null},{"ID":20924,"Name":"Bundu","Lat":23.1609,"Lon":85.5901,"CountryCode":null},{"ID":37347,"Name":"Buram","Lat":25.9739,"Lon":86.3196,"CountryCode":null},{"ID":3141,"Name":"Burhanpur","Lat":21.3114,"Lon":76.2289,"CountryCode":null},{"ID":21710,"Name":"Burhar","Lat":23.2149,"Lon":81.532,"CountryCode":null},{"ID":39912,"Name":"Burhia Dhanghatta","Lat":25.9004,"Lon":87.2852,"CountryCode":null},{"ID":10937,"Name":"Burla","Lat":21.5098,"Lon":83.8726,"CountryCode":null},{"ID":33578,"Name":"Buttar","Lat":31.0038,"Lon":75.3973,"CountryCode":null},{"ID":39745,"Name":"Buttar Khurd","Lat":30.725,"Lon":75.275,"CountryCode":null},{"ID":35291,"Name":"Buttayagudem","Lat":17.2089,"Lon":81.3014,"CountryCode":null},{"ID":5986,"Name":"Buxar","Lat":25.5605,"Lon":83.9805,"CountryCode":null},{"ID":15860,"Name":"Byadgi","Lat":14.6733,"Lon":75.4868,"CountryCode":null},{"ID":32148,"Name":"Byahatti","Lat":15.4468,"Lon":75.2054,"CountryCode":null},{"ID":2799,"Name":"Byatarayanpur","Lat":13.0659,"Lon":77.5922,"CountryCode":null},{"ID":1670,"Name":"Calicut","Lat":11.2588,"Lon":75.7804,"CountryCode":null},{"ID":2127,"Name":"Campiernagar","Lat":27.029,"Lon":83.2668,"CountryCode":null},{"ID":2878,"Name":"Cannanore","Lat":11.8745,"Lon":75.3704,"CountryCode":null},{"ID":35125,"Name":"Chabal Kalan","Lat":31.4818,"Lon":74.7927,"CountryCode":null},{"ID":41498,"Name":"Chada","Lat":17.4992,"Lon":79.0756,"CountryCode":null},{"ID":27570,"Name":"Chadchan","Lat":17.3126,"Lon":75.6581,"CountryCode":null},{"ID":23456,"Name":"Chagalamarri","Lat":14.9667,"Lon":78.5833,"CountryCode":null},{"ID":23093,"Name":"Chagallu","Lat":16.9833,"Lon":81.6667,"CountryCode":null},{"ID":34563,"Name":"Chahatpur","Lat":26.2331,"Lon":87.5816,"CountryCode":null},{"ID":30937,"Name":"Chailaha","Lat":26.6738,"Lon":84.8801,"CountryCode":null},{"ID":36457,"Name":"Chainpur","Lat":25.0345,"Lon":83.5066,"CountryCode":null},{"ID":20113,"Name":"Chainpura","Lat":25.52,"Lon":86.31,"CountryCode":null},{"ID":26820,"Name":"Chaita","Lat":25.7671,"Lon":85.8792,"CountryCode":null},{"ID":36307,"Name":"Chaital","Lat":22.5106,"Lon":88.7996,"CountryCode":null},{"ID":45152,"Name":"Chak Habib","Lat":25.7238,"Lon":85.8789,"CountryCode":null},{"ID":32870,"Name":"Chak Husaini","Lat":25.5169,"Lon":86.5566,"CountryCode":null},{"ID":45809,"Name":"Chak Pahar","Lat":25.7986,"Lon":85.6218,"CountryCode":null},{"ID":42124,"Name":"Chak That","Lat":25.7347,"Lon":86.034,"CountryCode":null},{"ID":36793,"Name":"Chakai","Lat":26.0884,"Lon":87.6154,"CountryCode":null},{"ID":45729,"Name":"Chakand","Lat":24.8907,"Lon":84.9761,"CountryCode":null},{"ID":15254,"Name":"Chakapara","Lat":22.63,"Lon":88.35,"CountryCode":null},{"ID":6410,"Name":"Chakdaha","Lat":23.08,"Lon":88.52,"CountryCode":null},{"ID":22892,"Name":"Chakia","Lat":26.416,"Lon":85.0467,"CountryCode":null},{"ID":41582,"Name":"Chakicherla","Lat":15.1127,"Lon":80.0366,"CountryCode":null},{"ID":27241,"Name":"Chakkuvarakal","Lat":8.9833,"Lon":76.85,"CountryCode":null},{"ID":45217,"Name":"Chakla Waini","Lat":25.9081,"Lon":85.6836,"CountryCode":null},{"ID":8161,"Name":"Chaklasi","Lat":22.65,"Lon":72.93,"CountryCode":null},{"ID":9113,"Name":"Chakpi Karong","Lat":24.3167,"Lon":93.9833,"CountryCode":null},{"ID":3335,"Name":"Chakradharpur","Lat":22.7,"Lon":85.63,"CountryCode":null},{"ID":26066,"Name":"Chakur","Lat":18.5131,"Lon":76.8753,"CountryCode":null},{"ID":37356,"Name":"Chakwai","Lat":25.0543,"Lon":85.662,"CountryCode":null},{"ID":28332,"Name":"Chalala","Lat":21.42,"Lon":71.17,"CountryCode":null},{"ID":35996,"Name":"Chalgeri","Lat":14.5652,"Lon":75.7166,"CountryCode":null},{"ID":10345,"Name":"Chalil","Lat":11.7519,"Lon":75.5959,"CountryCode":null},{"ID":43935,"Name":"Chalkari","Lat":23.758,"Lon":85.954,"CountryCode":null},{"ID":10349,"Name":"Challakere","Lat":14.312,"Lon":76.651,"CountryCode":null},{"ID":27861,"Name":"Challapalle","Lat":16.1167,"Lon":80.9333,"CountryCode":null},{"ID":36723,"Name":"Chaltabaria","Lat":22.2347,"Lon":88.5014,"CountryCode":null},{"ID":12277,"Name":"Chalungalpadam","Lat":9.549,"Lon":76.3237,"CountryCode":null},{"ID":35639,"Name":"Chamarru","Lat":16.65,"Lon":80.1333,"CountryCode":null},{"ID":35036,"Name":"Champadanga","Lat":22.83,"Lon":87.96,"CountryCode":null},{"ID":35861,"Name":"Champahati","Lat":22.4043,"Lon":88.4937,"CountryCode":null},{"ID":30905,"Name":"Champapur","Lat":26.8881,"Lon":84.834,"CountryCode":null},{"ID":5581,"Name":"Champdani","Lat":22.802,"Lon":88.346,"CountryCode":null},{"ID":38571,"Name":"Champua","Lat":22.0667,"Lon":85.6658,"CountryCode":null},{"ID":9491,"Name":"Chamrajnagar","Lat":11.926,"Lon":76.9402,"CountryCode":null},{"ID":16450,"Name":"Chamtha","Lat":25.5789,"Lon":85.7734,"CountryCode":null},{"ID":20551,"Name":"Chanasma","Lat":23.72,"Lon":72.12,"CountryCode":null},{"ID":21658,"Name":"Chanaur","Lat":25.851,"Lon":86.6739,"CountryCode":null},{"ID":16316,"Name":"Chand Chaur","Lat":25.7276,"Lon":85.7865,"CountryCode":null},{"ID":1971,"Name":"Chanda","Lat":19.95,"Lon":79.3,"CountryCode":null},{"ID":41970,"Name":"Chandankiari","Lat":23.5781,"Lon":86.3598,"CountryCode":null},{"ID":3864,"Name":"Chandannagar","Lat":22.87,"Lon":88.38,"CountryCode":null},{"ID":34039,"Name":"Chandauli","Lat":25.8972,"Lon":85.7161,"CountryCode":null},{"ID":40026,"Name":"Chandera","Lat":25.0829,"Lon":78.9784,"CountryCode":null},{"ID":16181,"Name":"Chanderi","Lat":24.72,"Lon":78.13,"CountryCode":null},{"ID":33921,"Name":"Chandhaus","Lat":25.2977,"Lon":84.8595,"CountryCode":null},{"ID":33451,"Name":"Chandi","Lat":22.3503,"Lon":88.2828,"CountryCode":null},{"ID":30825,"Name":"Chandi","Lat":25.7296,"Lon":87.5195,"CountryCode":null},{"ID":27837,"Name":"Chandia","Lat":23.6565,"Lon":80.7091,"CountryCode":null},{"ID":730,"Name":"Chandigarh","Lat":30.75,"Lon":76.78,"CountryCode":null},{"ID":20780,"Name":"Chandili","Lat":19.2467,"Lon":83.4058,"CountryCode":null},{"ID":33193,"Name":"Chandla","Lat":25.0715,"Lon":80.1929,"CountryCode":null},{"ID":24448,"Name":"Chandpur","Lat":25.5059,"Lon":87.2488,"CountryCode":null},{"ID":44352,"Name":"Chandpur","Lat":22.4368,"Lon":88.1711,"CountryCode":null},{"ID":36351,"Name":"Chandpura","Lat":25.4966,"Lon":86.2104,"CountryCode":null},{"ID":24360,"Name":"Chandragiri","Lat":13.5833,"Lon":79.3167,"CountryCode":null},{"ID":21544,"Name":"Chandrakona","Lat":22.73,"Lon":87.52,"CountryCode":null},{"ID":9619,"Name":"Chandralapadu","Lat":16.715,"Lon":80.2089,"CountryCode":null},{"ID":11718,"Name":"Chandrawada","Lat":21.6525,"Lon":69.6746,"CountryCode":null},{"ID":39157,"Name":"Chandreru","Lat":17.098,"Lon":81.9959,"CountryCode":null},{"ID":38795,"Name":"Chandur","Lat":16.98,"Lon":79.06,"CountryCode":null},{"ID":34920,"Name":"Chandwa","Lat":23.6756,"Lon":84.7401,"CountryCode":null},{"ID":43454,"Name":"Chandwara","Lat":24.393,"Lon":85.4798,"CountryCode":null},{"ID":34150,"Name":"Chang","Lat":28.8808,"Lon":76.2427,"CountryCode":null},{"ID":30496,"Name":"Changamkari","Lat":9.3667,"Lon":76.5333,"CountryCode":null},{"ID":11766,"Name":"Changanacheri","Lat":9.4667,"Lon":76.55,"CountryCode":null},{"ID":20929,"Name":"Channagiri","Lat":14.024,"Lon":75.9258,"CountryCode":null},{"ID":7141,"Name":"Channapatna","Lat":12.6514,"Lon":77.2067,"CountryCode":null},{"ID":13526,"Name":"Channarayapatna","Lat":12.902,"Lon":76.364,"CountryCode":null},{"ID":44927,"Name":"Channubanda","Lat":17.0331,"Lon":80.8056,"CountryCode":null},{"ID":45938,"Name":"Chanp","Lat":26.1951,"Lon":84.39,"CountryCode":null},{"ID":6101,"Name":"Chanwari","Lat":23.1917,"Lon":82.3542,"CountryCode":null},{"ID":38674,"Name":"Chaoke","Lat":30.1847,"Lon":75.3362,"CountryCode":null},{"ID":46129,"Name":"Chapalamadugu","Lat":16.073,"Lon":79.3775,"CountryCode":null},{"ID":3122,"Name":"Chapra","Lat":25.7848,"Lon":84.7274,"CountryCode":null},{"ID":32111,"Name":"Chapra","Lat":23.5391,"Lon":88.5467,"CountryCode":null},{"ID":33994,"Name":"Charabidya","Lat":22.3303,"Lon":88.7702,"CountryCode":null},{"ID":44422,"Name":"Charakunda","Lat":16.6916,"Lon":78.7054,"CountryCode":null},{"ID":14368,"Name":"Charaut","Lat":26.5322,"Lon":85.7942,"CountryCode":null},{"ID":27580,"Name":"Charipara","Lat":20.45,"Lon":84.4,"CountryCode":null},{"ID":34859,"Name":"Chariyakulam","Lat":9.6527,"Lon":77.1226,"CountryCode":null},{"ID":18768,"Name":"Charkhari","Lat":25.4,"Lon":79.75,"CountryCode":null},{"ID":12348,"Name":"Charkhi Dadri","Lat":28.59,"Lon":76.27,"CountryCode":null},{"ID":42153,"Name":"Charne","Lat":26.1185,"Lon":87.0754,"CountryCode":null},{"ID":16842,"Name":"Charthawal","Lat":29.55,"Lon":77.5833,"CountryCode":null},{"ID":46092,"Name":"Charuanwan","Lat":25.1348,"Lon":85.6812,"CountryCode":null},{"ID":4893,"Name":"Chas","Lat":23.63,"Lon":86.17,"CountryCode":null},{"ID":22449,"Name":"Chatayamangalam","Lat":8.8421,"Lon":76.8644,"CountryCode":null},{"ID":24779,"Name":"Chatia","Lat":26.5396,"Lon":84.566,"CountryCode":null},{"ID":11281,"Name":"Chatra","Lat":24.2064,"Lon":84.8708,"CountryCode":null},{"ID":23034,"Name":"Chatra Gobraura","Lat":26.4973,"Lon":86.2179,"CountryCode":null},{"ID":12172,"Name":"Chattamangalam","Lat":11.296,"Lon":75.915,"CountryCode":null},{"ID":32399,"Name":"Chaugain","Lat":25.4801,"Lon":84.2328,"CountryCode":null},{"ID":2870,"Name":"Chauhanpatti","Lat":25.15,"Lon":82.6,"CountryCode":null},{"ID":44223,"Name":"Chaukhata","Lat":25.0247,"Lon":81.7375,"CountryCode":null},{"ID":38430,"Name":"Chauki","Lat":25.4573,"Lon":86.4018,"CountryCode":null},{"ID":40997,"Name":"Chauki Hasan Chauki Makhdum","Lat":26.2333,"Lon":84.4964,"CountryCode":null},{"ID":42272,"Name":"Chausa","Lat":25.5149,"Lon":83.897,"CountryCode":null},{"ID":22606,"Name":"Chausa","Lat":25.5283,"Lon":87.0322,"CountryCode":null},{"ID":25576,"Name":"Chautapal","Lat":17.2508,"Lon":78.8972,"CountryCode":null},{"ID":30473,"Name":"Chautham","Lat":25.5439,"Lon":86.6567,"CountryCode":null},{"ID":15990,"Name":"Chavakkad","Lat":10.582,"Lon":76.041,"CountryCode":null},{"ID":28052,"Name":"Chavara Gramam","Lat":8.9633,"Lon":76.5619,"CountryCode":null},{"ID":22442,"Name":"Chavassheri","Lat":11.9647,"Lon":75.6176,"CountryCode":null},{"ID":42699,"Name":"Chavuttahalli","Lat":12.4202,"Lon":78.2352,"CountryCode":null},{"ID":34131,"Name":"Chawalhati","Lat":26.4841,"Lon":88.5677,"CountryCode":null},{"ID":31967,"Name":"Chebrolu","Lat":16.8206,"Lon":81.4048,"CountryCode":null},{"ID":36950,"Name":"Chebrolu","Lat":16.1967,"Lon":80.525,"CountryCode":null},{"ID":41868,"Name":"Chegur","Lat":17.1758,"Lon":78.2298,"CountryCode":null},{"ID":42228,"Name":"Chegurumomadi","Lat":18.2361,"Lon":79.1974,"CountryCode":null},{"ID":14986,"Name":"Chekkal","Lat":8.3653,"Lon":77.1075,"CountryCode":null},{"ID":14805,"Name":"Chelora","Lat":11.8892,"Lon":75.4293,"CountryCode":null},{"ID":16398,"Name":"Chemancheri","Lat":11.4116,"Lon":75.735,"CountryCode":null},{"ID":29814,"Name":"Chembagaramanpudur","Lat":8.2461,"Lon":77.4907,"CountryCode":null},{"ID":12649,"Name":"Chembra","Lat":11.042,"Lon":75.911,"CountryCode":null},{"ID":33231,"Name":"Chembrassheri","Lat":11.1243,"Lon":76.2582,"CountryCode":null},{"ID":30832,"Name":"Chemmanam","Lat":9.8072,"Lon":76.2774,"CountryCode":null},{"ID":16429,"Name":"Chemmaruthi","Lat":8.7597,"Lon":76.7435,"CountryCode":null},{"ID":16017,"Name":"Chempalli","Lat":12.0451,"Lon":75.5074,"CountryCode":null},{"ID":17242,"Name":"Chengam","Lat":12.3112,"Lon":78.7925,"CountryCode":null},{"ID":20237,"Name":"Chengannur","Lat":9.3157,"Lon":76.6151,"CountryCode":null},{"ID":33013,"Name":"Chengara","Lat":10.129,"Lon":76.373,"CountryCode":null},{"ID":30,"Name":"Chennai","Lat":13.0825,"Lon":80.275,"CountryCode":null},{"ID":18560,"Name":"Chennamangalam","Lat":10.1797,"Lon":76.2097,"CountryCode":null},{"ID":35314,"Name":"Chennampatti","Lat":11.7011,"Lon":77.6785,"CountryCode":null},{"ID":24168,"Name":"Chennimalai","Lat":11.1638,"Lon":77.6039,"CountryCode":null},{"ID":25545,"Name":"Chennirkara","Lat":9.2487,"Lon":76.7248,"CountryCode":null},{"ID":29074,"Name":"Chennur","Lat":14.5667,"Lon":78.8,"CountryCode":null},{"ID":37141,"Name":"Chennur","Lat":14.1473,"Lon":79.8477,"CountryCode":null},{"ID":27721,"Name":"Cherakara","Lat":8.8456,"Lon":76.7164,"CountryCode":null},{"ID":24954,"Name":"Cherakhera","Lat":25.6869,"Lon":86.4187,"CountryCode":null},{"ID":29788,"Name":"Cheramkod","Lat":11.6,"Lon":76.3167,"CountryCode":null},{"ID":28911,"Name":"Cheran","Lat":25.361,"Lon":85.5421,"CountryCode":null},{"ID":19606,"Name":"Cheranallur","Lat":10.1807,"Lon":76.4792,"CountryCode":null},{"ID":22200,"Name":"Cherial","Lat":17.9264,"Lon":78.9719,"CountryCode":null},{"ID":37618,"Name":"Cherlagandlapalem","Lat":16.0069,"Lon":80.6117,"CountryCode":null},{"ID":36495,"Name":"Chero","Lat":25.2463,"Lon":85.8169,"CountryCode":null},{"ID":30994,"Name":"Cherrapunji","Lat":25.284,"Lon":91.721,"CountryCode":null},{"ID":20655,"Name":"Cherukara","Lat":9.4667,"Lon":76.6,"CountryCode":null},{"ID":20002,"Name":"Cherukolattur","Lat":11.1881,"Lon":75.9173,"CountryCode":null},{"ID":29096,"Name":"Cherukunnu","Lat":12.0041,"Lon":75.3004,"CountryCode":null},{"ID":31083,"Name":"Cherupazhasshi","Lat":12.0916,"Lon":75.4414,"CountryCode":null},{"ID":13271,"Name":"Cherupulassheri","Lat":10.8793,"Lon":76.3148,"CountryCode":null},{"ID":34214,"Name":"Cherutana Tekku","Lat":9.323,"Lon":76.4382,"CountryCode":null},{"ID":40248,"Name":"Cheruvannur","Lat":11.8284,"Lon":75.7295,"CountryCode":null},{"ID":20860,"Name":"Cheruvaranam","Lat":9.6522,"Lon":76.3179,"CountryCode":null},{"ID":29591,"Name":"Chethakal","Lat":9.4386,"Lon":76.8322,"CountryCode":null},{"ID":25434,"Name":"Cheticheri","Lat":12.095,"Lon":75.5451,"CountryCode":null},{"ID":30703,"Name":"Chettikulam","Lat":8.0943,"Lon":77.5614,"CountryCode":null},{"ID":39376,"Name":"Chettimangurichchi","Lat":11.6393,"Lon":77.8557,"CountryCode":null},{"ID":28771,"Name":"Chettinayakkanpatti","Lat":10.394,"Lon":77.9754,"CountryCode":null},{"ID":19411,"Name":"Chettipalaiyam","Lat":11.1667,"Lon":77.335,"CountryCode":null},{"ID":39285,"Name":"Chettipalaiyam","Lat":10.9125,"Lon":77.037,"CountryCode":null},{"ID":35478,"Name":"Chettipulam","Lat":10.4743,"Lon":79.7546,"CountryCode":null},{"ID":45914,"Name":"Chettiyapatti","Lat":10.424,"Lon":77.8228,"CountryCode":null},{"ID":19907,"Name":"Chevella","Lat":17.3067,"Lon":78.1353,"CountryCode":null},{"ID":43181,"Name":"Chewara","Lat":25.0756,"Lon":85.9277,"CountryCode":null},{"ID":14356,"Name":"Cheyyar","Lat":12.662,"Lon":79.5435,"CountryCode":null},{"ID":38299,"Name":"Chhabila","Lat":26.2556,"Lon":85.9933,"CountryCode":null},{"ID":30165,"Name":"Chhajli","Lat":30.0348,"Lon":75.828,"CountryCode":null},{"ID":22788,"Name":"Chhanera","Lat":21.623,"Lon":76.372,"CountryCode":null},{"ID":43375,"Name":"Chhapera","Lat":23.8948,"Lon":76.4538,"CountryCode":null},{"ID":31169,"Name":"Chhapia","Lat":26.0831,"Lon":84.8447,"CountryCode":null},{"ID":33632,"Name":"Chhapra","Lat":26.4005,"Lon":85.3721,"CountryCode":null},{"ID":29505,"Name":"Chhapra Bahas","Lat":26.7266,"Lon":84.7912,"CountryCode":null},{"ID":34130,"Name":"Chhara","Lat":28.6957,"Lon":76.7072,"CountryCode":null},{"ID":38976,"Name":"Chhatapur","Lat":26.2197,"Lon":87.0048,"CountryCode":null},{"ID":41440,"Name":"Chhatarpur","Lat":28.4565,"Lon":77.0032,"CountryCode":null},{"ID":1592,"Name":"Chhatarpur","Lat":24.55,"Lon":79.3527,"CountryCode":null},{"ID":41434,"Name":"Chhimluang","Lat":24.5157,"Lon":92.8222,"CountryCode":null},{"ID":3257,"Name":"Chhindwara","Lat":22.057,"Lon":78.9396,"CountryCode":null},{"ID":19983,"Name":"Chhota Udepur","Lat":22.3056,"Lon":74.0139,"CountryCode":null},{"ID":26369,"Name":"Chhoti Sadri","Lat":24.38,"Lon":74.7,"CountryCode":null},{"ID":43550,"Name":"Chianki","Lat":24.0051,"Lon":84.1098,"CountryCode":null},{"ID":4577,"Name":"Chicacole","Lat":18.3,"Lon":83.9,"CountryCode":null},{"ID":35676,"Name":"Chichli","Lat":22.8336,"Lon":78.8261,"CountryCode":null},{"ID":43644,"Name":"Chicholi","Lat":22.01,"Lon":77.66,"CountryCode":null},{"ID":9309,"Name":"Chidambaram","Lat":11.407,"Lon":79.6912,"CountryCode":null},{"ID":9124,"Name":"Chik Ballapur","Lat":13.43,"Lon":77.72,"CountryCode":null},{"ID":31643,"Name":"Chik Banavar","Lat":13.0846,"Lon":77.5014,"CountryCode":null},{"ID":31790,"Name":"Chikhli Kalan","Lat":22.2152,"Lon":78.743,"CountryCode":null},{"ID":31899,"Name":"Chikitigarh","Lat":19.2023,"Lon":84.6145,"CountryCode":null},{"ID":43946,"Name":"Chikkala","Lat":16.9698,"Lon":81.5922,"CountryCode":null},{"ID":37985,"Name":"Chikkarampalaiyam","Lat":11.2416,"Lon":76.9854,"CountryCode":null},{"ID":5252,"Name":"Chikmagalur","Lat":13.313,"Lon":75.737,"CountryCode":null},{"ID":17821,"Name":"Chiknayakanhalli","Lat":13.4161,"Lon":76.6206,"CountryCode":null},{"ID":37944,"Name":"Chikni","Lat":26.0075,"Lon":86.7032,"CountryCode":null},{"ID":40770,"Name":"Chikni","Lat":26.0664,"Lon":87.4406,"CountryCode":null},{"ID":13676,"Name":"Chikodi","Lat":16.43,"Lon":74.6,"CountryCode":null},{"ID":6065,"Name":"Chilakalurupet","Lat":16.0892,"Lon":80.1672,"CountryCode":null},{"ID":43688,"Name":"Chilakhana","Lat":26.299,"Lon":89.5892,"CountryCode":null},{"ID":30021,"Name":"Chilamatturu","Lat":13.8394,"Lon":77.7039,"CountryCode":null},{"ID":25743,"Name":"Chilkuru","Lat":16.9611,"Lon":79.9125,"CountryCode":null},{"ID":43432,"Name":"Chilmil","Lat":25.4563,"Lon":86.1364,"CountryCode":null},{"ID":42701,"Name":"Chilpur","Lat":18.2388,"Lon":79.4529,"CountryCode":null},{"ID":17410,"Name":"Chimakurti","Lat":15.5149,"Lon":80.0368,"CountryCode":null},{"ID":33373,"Name":"Chimalapadu","Lat":16.8902,"Lon":80.6505,"CountryCode":null},{"ID":43435,"Name":"Chiman","Lat":30.12,"Lon":75.695,"CountryCode":null},{"ID":24705,"Name":"Chimthana","Lat":21.18,"Lon":74.69,"CountryCode":null},{"ID":46333,"Name":"Chinaur","Lat":25.9467,"Lon":78.1024,"CountryCode":null},{"ID":36701,"Name":"Chinaval","Lat":21.1964,"Lon":75.9261,"CountryCode":null},{"ID":23643,"Name":"Chinchali","Lat":16.5647,"Lon":74.816,"CountryCode":null},{"ID":22341,"Name":"Chincholi","Lat":17.4651,"Lon":77.4187,"CountryCode":null},{"ID":7228,"Name":"Chingleput","Lat":12.6918,"Lon":79.9766,"CountryCode":null},{"ID":38421,"Name":"Chinna Annaluru","Lat":14.8913,"Lon":79.6761,"CountryCode":null},{"ID":25615,"Name":"Chinna Ganjam","Lat":15.7,"Lon":80.25,"CountryCode":null},{"ID":34608,"Name":"Chinna Gollapalem","Lat":16.3701,"Lon":81.5322,"CountryCode":null},{"ID":44842,"Name":"Chinna Kalaiyamputtur","Lat":10.4714,"Lon":77.4657,"CountryCode":null},{"ID":45409,"Name":"Chinna Mupparam","Lat":17.6319,"Lon":79.8411,"CountryCode":null},{"ID":33281,"Name":"Chinna Mushidivada","Lat":17.8057,"Lon":83.2033,"CountryCode":null},{"ID":36363,"Name":"Chinna Orampadu","Lat":14.0613,"Lon":79.2671,"CountryCode":null},{"ID":20005,"Name":"Chinna Salem","Lat":11.6342,"Lon":78.8741,"CountryCode":null},{"ID":7029,"Name":"Chinnachauku","Lat":14.4732,"Lon":78.8451,"CountryCode":null},{"ID":34492,"Name":"Chinnakkampalaiyam","Lat":10.7064,"Lon":77.4575,"CountryCode":null},{"ID":43493,"Name":"Chinnakkavundanur","Lat":11.4559,"Lon":77.8673,"CountryCode":null},{"ID":17159,"Name":"Chinnalapatti","Lat":10.2875,"Lon":77.912,"CountryCode":null},{"ID":39453,"Name":"Chinnamandem","Lat":13.9419,"Lon":78.6814,"CountryCode":null},{"ID":11132,"Name":"Chinnamanur","Lat":9.8422,"Lon":77.3857,"CountryCode":null},{"ID":43418,"Name":"Chinnampalaiyam","Lat":10.6604,"Lon":77.0248,"CountryCode":null},{"ID":34386,"Name":"Chinnasekkadu","Lat":13.1609,"Lon":80.2573,"CountryCode":null},{"ID":38686,"Name":"Chinnatadagam","Lat":11.0816,"Lon":76.8674,"CountryCode":null},{"ID":31496,"Name":"Chinnavadampatti","Lat":11.0615,"Lon":76.9838,"CountryCode":null},{"ID":44064,"Name":"Chinnayagudem","Lat":17.047,"Lon":81.481,"CountryCode":null},{"ID":45785,"Name":"Chintakommadinne","Lat":14.4267,"Lon":78.7618,"CountryCode":null},{"ID":37832,"Name":"Chintakunta","Lat":14.6476,"Lon":78.469,"CountryCode":null},{"ID":24128,"Name":"Chintalapalle","Lat":15.04,"Lon":76.2,"CountryCode":null},{"ID":9983,"Name":"Chintalapalli","Lat":18.331,"Lon":79.674,"CountryCode":null},{"ID":19863,"Name":"Chintalapudi","Lat":17.0417,"Lon":80.5901,"CountryCode":null},{"ID":37143,"Name":"Chintalavadi","Lat":10.9511,"Lon":78.3158,"CountryCode":null},{"ID":7784,"Name":"Chintamani","Lat":13.4,"Lon":78.066,"CountryCode":null},{"ID":36733,"Name":"Chintapalle","Lat":16.8936,"Lon":80.1387,"CountryCode":null},{"ID":41822,"Name":"Chintapalle","Lat":17.8667,"Lon":82.35,"CountryCode":null},{"ID":15385,"Name":"Chiplun","Lat":17.53,"Lon":73.52,"CountryCode":null},{"ID":30952,"Name":"Chipurupalle","Lat":18.3,"Lon":83.5667,"CountryCode":null},{"ID":38861,"Name":"Chirak","Lat":30.7206,"Lon":75.1718,"CountryCode":null},{"ID":3734,"Name":"Chirala","Lat":15.8246,"Lon":80.3521,"CountryCode":null},{"ID":39051,"Name":"Chiramanangad","Lat":10.6819,"Lon":76.1142,"CountryCode":null},