[{"ID":15968,"Name":"`Ajab Shir","Lat":37.4833,"Lon":45.8911,"CountryCode":null},{"ID":21867,"Name":"`Ali Shahr","Lat":28.9306,"Lon":51.0689,"CountryCode":null},{"ID":10732,"Name":"`Aliabad-e Katul","Lat":36.9075,"Lon":54.8667,"CountryCode":null},{"ID":26553,"Name":"`Anbarabad","Lat":28.4794,"Lon":57.8414,"CountryCode":null},{"ID":25775,"Name":"Ab Pakhsh","Lat":29.3606,"Lon":51.0683,"CountryCode":null},{"ID":18909,"Name":"Abarkuh","Lat":31.1267,"Lon":53.2592,"CountryCode":null},{"ID":6195,"Name":"Abhar","Lat":36.1511,"Lon":49.2244,"CountryCode":null},{"ID":26421,"Name":"Abrandabad-e Shahediyeh","Lat":31.9408,"Lon":54.2736,"CountryCode":null},{"ID":25241,"Name":"Abrisham","Lat":32.5675,"Lon":51.5733,"CountryCode":null},{"ID":43661,"Name":"Abuzar-e Ghaffari","Lat":32.1806,"Lon":48.2778,"CountryCode":null},{"ID":9574,"Name":"Abyek","Lat":36.0411,"Lon":50.5306,"CountryCode":null},{"ID":6111,"Name":"Ahar","Lat":38.4797,"Lon":47.0669,"CountryCode":null},{"ID":30348,"Name":"Ahram","Lat":28.8833,"Lon":51.275,"CountryCode":null},{"ID":647,"Name":"Ahvaz","Lat":31.3047,"Lon":48.6783,"CountryCode":null},{"ID":15987,"Name":"Aleshtar","Lat":33.8653,"Lon":48.2622,"CountryCode":null},{"ID":7546,"Name":"Aligudarz","Lat":33.4025,"Lon":49.6903,"CountryCode":null},{"ID":6492,"Name":"Alvand","Lat":36.1867,"Lon":50.0639,"CountryCode":null},{"ID":30551,"Name":"Amlash","Lat":37.0944,"Lon":50.1928,"CountryCode":null},{"ID":2821,"Name":"Amol","Lat":36.4703,"Lon":52.3467,"CountryCode":null},{"ID":29902,"Name":"Anar","Lat":30.8694,"Lon":55.2678,"CountryCode":null},{"ID":4664,"Name":"Andimeshk","Lat":32.4714,"Lon":48.3489,"CountryCode":null},{"ID":1418,"Name":"Arak","Lat":34.0914,"Lon":49.6933,"CountryCode":null},{"ID":36200,"Name":"Arakvaz-e Malekshahi","Lat":33.3847,"Lon":46.5978,"CountryCode":null},{"ID":8914,"Name":"Aran Bidgol","Lat":34.0589,"Lon":51.4817,"CountryCode":null},{"ID":1394,"Name":"Ardabil","Lat":38.2425,"Lon":48.29,"CountryCode":null},{"ID":7854,"Name":"Ardakan","Lat":32.3061,"Lon":54.0081,"CountryCode":null},{"ID":40954,"Name":"Ardal","Lat":31.9989,"Lon":50.6617,"CountryCode":null},{"ID":29630,"Name":"Ardestan","Lat":33.3731,"Lon":52.3689,"CountryCode":null},{"ID":27146,"Name":"Arsanjan","Lat":29.9142,"Lon":53.3058,"CountryCode":null},{"ID":37992,"Name":"Arvand Kenar","Lat":29.9789,"Lon":48.5206,"CountryCode":null},{"ID":37993,"Name":"Arvand Kenar","Lat":29.9786,"Lon":48.5189,"CountryCode":null},{"ID":10259,"Name":"Asadabad","Lat":34.7825,"Lon":48.1219,"CountryCode":null},{"ID":39206,"Name":"Asalem","Lat":37.7211,"Lon":48.9583,"CountryCode":null},{"ID":35336,"Name":"Asfarvarin","Lat":35.9358,"Lon":49.7469,"CountryCode":null},{"ID":25548,"Name":"Ashkezar","Lat":32.0006,"Lon":54.2075,"CountryCode":null},{"ID":20441,"Name":"Ashkhaneh","Lat":37.5578,"Lon":56.9258,"CountryCode":null},{"ID":45423,"Name":"Ashtian","Lat":34.5222,"Lon":50.0069,"CountryCode":null},{"ID":12334,"Name":"Astaneh-ye Ashrafiyeh","Lat":37.2658,"Lon":49.9431,"CountryCode":null},{"ID":12617,"Name":"Azadshahr","Lat":37.0869,"Lon":55.1742,"CountryCode":null},{"ID":45699,"Name":"Azandarian","Lat":34.5044,"Lon":48.6919,"CountryCode":null},{"ID":12349,"Name":"Azarshahr","Lat":37.7628,"Lon":45.9758,"CountryCode":null},{"ID":11764,"Name":"Azna","Lat":33.4597,"Lon":49.4547,"CountryCode":null},{"ID":2685,"Name":"Babol","Lat":36.5475,"Lon":52.6783,"CountryCode":null},{"ID":9613,"Name":"Babolsar","Lat":36.7006,"Lon":52.65,"CountryCode":null},{"ID":12207,"Name":"Bafq","Lat":31.6033,"Lon":55.4003,"CountryCode":null},{"ID":15576,"Name":"Baft","Lat":29.235,"Lon":56.5989,"CountryCode":null},{"ID":40465,"Name":"Bagh-e Bahadoran","Lat":32.3756,"Lon":51.1881,"CountryCode":null},{"ID":19599,"Name":"Bagh-e Malek","Lat":31.5247,"Lon":49.8869,"CountryCode":null},{"ID":40046,"Name":"Baghin","Lat":30.1839,"Lon":56.8075,"CountryCode":null},{"ID":43800,"Name":"Bahabad","Lat":31.8719,"Lon":56.0239,"CountryCode":null},{"ID":1108,"Name":"Bahar","Lat":34.9028,"Lon":48.4425,"CountryCode":null},{"ID":7514,"Name":"Baharestan","Lat":32.4867,"Lon":51.7808,"CountryCode":null},{"ID":36713,"Name":"Bajestan","Lat":34.5161,"Lon":58.1842,"CountryCode":null},{"ID":4930,"Name":"Bam","Lat":29.0994,"Lon":58.3436,"CountryCode":null},{"ID":35660,"Name":"Bampur","Lat":27.195,"Lon":60.4547,"CountryCode":null},{"ID":45462,"Name":"Banak","Lat":27.8722,"Lon":52.0289,"CountryCode":null},{"ID":44311,"Name":"Banaruyeh","Lat":28.0864,"Lon":54.0481,"CountryCode":null},{"ID":1401,"Name":"Bandar `Abbas","Lat":27.1961,"Lon":56.2878,"CountryCode":null},{"ID":7570,"Name":"Bandar Emam","Lat":30.5058,"Lon":49.0742,"CountryCode":null},{"ID":33090,"Name":"Bandar-e `Asaluyeh","Lat":27.4744,"Lon":52.6114,"CountryCode":null},{"ID":5244,"Name":"Bandar-e Anzali","Lat":37.4708,"Lon":49.47,"CountryCode":null},{"ID":2985,"Name":"Bandar-e Bushehr","Lat":28.9264,"Lon":50.8514,"CountryCode":null},{"ID":20029,"Name":"Bandar-e Deylam","Lat":30.0542,"Lon":50.1639,"CountryCode":null},{"ID":23945,"Name":"Bandar-e Gaz","Lat":36.7739,"Lon":53.9481,"CountryCode":null},{"ID":8024,"Name":"Bandar-e Genaveh","Lat":29.5839,"Lon":50.5189,"CountryCode":null},{"ID":30182,"Name":"Bandar-e Khamir","Lat":26.9511,"Lon":55.5867,"CountryCode":null},{"ID":25439,"Name":"Bandar-e Kong","Lat":26.5947,"Lon":54.9381,"CountryCode":null},{"ID":17338,"Name":"Bandar-e Lengeh","Lat":26.5594,"Lon":54.885,"CountryCode":null},{"ID":3947,"Name":"Bandar-e Mahshahr","Lat":30.5567,"Lon":49.1897,"CountryCode":null},{"ID":10550,"Name":"Bandar-e Torkaman","Lat":36.9014,"Lon":54.0736,"CountryCode":null},{"ID":5619,"Name":"Baneh","Lat":35.9969,"Lon":45.8853,"CountryCode":null},{"ID":8915,"Name":"Baqershahr","Lat":35.5322,"Lon":51.4036,"CountryCode":null},{"ID":22235,"Name":"Baravat","Lat":29.0656,"Lon":58.4039,"CountryCode":null},{"ID":18499,"Name":"Bardaskan","Lat":35.2625,"Lon":57.9703,"CountryCode":null},{"ID":20410,"Name":"Bardsir","Lat":29.9275,"Lon":56.5764,"CountryCode":null},{"ID":39079,"Name":"Basht","Lat":30.3611,"Lon":51.1558,"CountryCode":null},{"ID":34686,"Name":"Basmenj","Lat":37.9964,"Lon":46.4717,"CountryCode":null},{"ID":41594,"Name":"Bastak","Lat":27.1953,"Lon":54.3678,"CountryCode":null},{"ID":42158,"Name":"Bavanat","Lat":30.4717,"Lon":53.6261,"CountryCode":null},{"ID":17704,"Name":"Bazeh Kalagh","Lat":36.5325,"Lon":59.3636,"CountryCode":null},{"ID":5089,"Name":"Behbahan","Lat":30.5942,"Lon":50.2433,"CountryCode":null},{"ID":6452,"Name":"Behshahr","Lat":36.6911,"Lon":53.5539,"CountryCode":null},{"ID":34162,"Name":"Ben","Lat":32.5444,"Lon":50.7461,"CountryCode":null},{"ID":26685,"Name":"Bidestan","Lat":36.2308,"Lon":50.1236,"CountryCode":null},{"ID":44990,"Name":"Bidkhun","Lat":27.4792,"Lon":52.6681,"CountryCode":null},{"ID":10567,"Name":"Bijar","Lat":35.8729,"Lon":47.5993,"CountryCode":null},{"ID":28983,"Name":"Bileh Savar","Lat":39.3778,"Lon":48.3497,"CountryCode":null},{"ID":3245,"Name":"Birjand","Lat":32.8744,"Lon":59.2161,"CountryCode":null},{"ID":2693,"Name":"Bojnurd","Lat":37.4722,"Lon":57.3289,"CountryCode":null},{"ID":36194,"Name":"Boldaji","Lat":31.9383,"Lon":51.0533,"CountryCode":null},{"ID":7851,"Name":"Bonab","Lat":37.3428,"Lon":46.0617,"CountryCode":null},{"ID":4109,"Name":"Borazjan","Lat":29.2694,"Lon":51.22,"CountryCode":null},{"ID":10041,"Name":"Borujen","Lat":31.9678,"Lon":51.2894,"CountryCode":null},{"ID":2859,"Name":"Borujerd","Lat":33.9111,"Lon":48.7522,"CountryCode":null},{"ID":1085,"Name":"Borvayeh-ye Al Bu `Aziz","Lat":31.6283,"Lon":48.6147,"CountryCode":null},{"ID":28669,"Name":"Boshruyeh","Lat":33.8681,"Lon":57.4286,"CountryCode":null},{"ID":17706,"Name":"Bozmargi","Lat":36.5325,"Lon":59.3636,"CountryCode":null},{"ID":3405,"Name":"Bukan","Lat":36.515,"Lon":46.2075,"CountryCode":null},{"ID":7512,"Name":"Bumahen","Lat":35.7314,"Lon":51.8675,"CountryCode":null},{"ID":5784,"Name":"Chabahar","Lat":25.2928,"Lon":60.6497,"CountryCode":null},{"ID":43268,"Name":"Chahar Borj-e Qadim","Lat":37.1231,"Lon":45.9761,"CountryCode":null},{"ID":11288,"Name":"Chahar Dangeh","Lat":35.5958,"Lon":51.3083,"CountryCode":null},{"ID":17705,"Name":"Chahchaheh","Lat":36.5325,"Lon":59.3636,"CountryCode":null},{"ID":37941,"Name":"Chamestan","Lat":36.4792,"Lon":52.1194,"CountryCode":null},{"ID":29850,"Name":"Chamgardan","Lat":32.3931,"Lon":51.3392,"CountryCode":null},{"ID":30313,"Name":"Charam","Lat":30.7461,"Lon":50.7461,"CountryCode":null},{"ID":35516,"Name":"Charmahin","Lat":32.3372,"Lon":51.1933,"CountryCode":null},{"ID":25987,"Name":"Choghadak","Lat":28.9864,"Lon":51.0375,"CountryCode":null},{"ID":39364,"Name":"Dakhan","Lat":35.125,"Lon":49.5175,"CountryCode":null},{"ID":40422,"Name":"Dalgan","Lat":27.4825,"Lon":59.4464,"CountryCode":null},{"ID":11591,"Name":"Damavand","Lat":35.6928,"Lon":52.0467,"CountryCode":null},{"ID":9736,"Name":"Damghan","Lat":36.1656,"Lon":54.3419,"CountryCode":null},{"ID":43175,"Name":"Danesfahan","Lat":35.8117,"Lon":49.7431,"CountryCode":null},{"ID":39351,"Name":"Darb-e Behesht","Lat":29.2331,"Lon":57.3397,"CountryCode":null},{"ID":12754,"Name":"Darcheh","Lat":32.6131,"Lon":51.5531,"CountryCode":null},{"ID":31443,"Name":"Dargahan","Lat":26.9667,"Lon":56.0708,"CountryCode":null},{"ID":14720,"Name":"Dargaz","Lat":37.4456,"Lon":59.1078,"CountryCode":null},{"ID":22926,"Name":"Darreh Shahr","Lat":33.1431,"Lon":47.3794,"CountryCode":null},{"ID":29915,"Name":"Dastgerd","Lat":32.8008,"Lon":51.6647,"CountryCode":null},{"ID":39178,"Name":"Deh Bakri","Lat":29.0508,"Lon":57.9167,"CountryCode":null},{"ID":28095,"Name":"Dehaqan","Lat":31.9386,"Lon":51.6475,"CountryCode":null},{"ID":10050,"Name":"Dehdasht","Lat":30.7953,"Lon":50.5653,"CountryCode":null},{"ID":19835,"Name":"Dehgolan","Lat":35.2778,"Lon":47.4175,"CountryCode":null},{"ID":16248,"Name":"Dehloran","Lat":32.6892,"Lon":47.2689,"CountryCode":null},{"ID":13388,"Name":"Delijan","Lat":33.9903,"Lon":50.6836,"CountryCode":null},{"ID":21209,"Name":"Deyr","Lat":27.8417,"Lon":51.9394,"CountryCode":null},{"ID":2561,"Name":"Dezful","Lat":32.3786,"Lon":48.4144,"CountryCode":null},{"ID":15799,"Name":"Divandarreh","Lat":35.9158,"Lon":47.0228,"CountryCode":null},{"ID":26813,"Name":"Dizicheh","Lat":32.3869,"Lon":51.5122,"CountryCode":null},{"ID":6327,"Name":"Do Gonbadan","Lat":30.36,"Lon":50.7839,"CountryCode":null},{"ID":5119,"Name":"Dorud","Lat":33.4994,"Lon":49.0531,"CountryCode":null},{"ID":32645,"Name":"Dowbaran","Lat":28.405,"Lon":54.1878,"CountryCode":null},{"ID":43496,"Name":"Dowlatabad","Lat":35.2842,"Lon":59.5225,"CountryCode":null},{"ID":13373,"Name":"Dowlatabad","Lat":32.8003,"Lon":51.6958,"CountryCode":null},{"ID":10373,"Name":"Eqbaliyeh","Lat":36.2306,"Lon":49.9225,"CountryCode":null},{"ID":12492,"Name":"Eqlid","Lat":30.8928,"Lon":52.6889,"CountryCode":null},{"ID":377,"Name":"Esfahan","Lat":32.6447,"Lon":51.6675,"CountryCode":null},{"ID":9687,"Name":"Esfarayen","Lat":37.0703,"Lon":57.5089,"CountryCode":null},{"ID":44177,"Name":"Eshkanan","Lat":27.2278,"Lon":53.6072,"CountryCode":null},{"ID":17577,"Name":"Eshtehard","Lat":35.7247,"Lon":50.3717,"CountryCode":null},{"ID":6677,"Name":"Eslamabad-e Gharb","Lat":34.1103,"Lon":46.5275,"CountryCode":null},{"ID":1626,"Name":"Eslamshahr","Lat":35.5317,"Lon":51.2247,"CountryCode":null},{"ID":14827,"Name":"Estahban","Lat":29.1269,"Lon":54.0394,"CountryCode":null},{"ID":24722,"Name":"Evaz","Lat":27.76,"Lon":54.0067,"CountryCode":null},{"ID":16943,"Name":"Eyvan","Lat":33.8278,"Lon":46.3061,"CountryCode":null},{"ID":35165,"Name":"Eyvanekey","Lat":35.3444,"Lon":52.0714,"CountryCode":null},{"ID":14405,"Name":"Falavarjan","Lat":32.5558,"Lon":51.5106,"CountryCode":null},{"ID":32261,"Name":"Famenin","Lat":35.1139,"Lon":48.9725,"CountryCode":null},{"ID":33933,"Name":"Fannuj","Lat":26.5753,"Lon":59.6403,"CountryCode":null},{"ID":33485,"Name":"Faradonbeh","Lat":32.0078,"Lon":51.2156,"CountryCode":null},{"ID":24347,"Name":"Farashband","Lat":28.8564,"Lon":52.0964,"CountryCode":null},{"ID":3575,"Name":"Fardis","Lat":35.73,"Lon":50.9822,"CountryCode":null},{"ID":13828,"Name":"Fariman","Lat":35.7044,"Lon":59.8486,"CountryCode":null},{"ID":16743,"Name":"Farrokh Shahr","Lat":32.2714,"Lon":50.9775,"CountryCode":null},{"ID":17301,"Name":"Farsan","Lat":32.2553,"Lon":50.5711,"CountryCode":null},{"ID":5599,"Name":"Fasa","Lat":28.9483,"Lon":53.6336,"CountryCode":null},{"ID":18267,"Name":"Ferdows","Lat":34.0192,"Lon":58.1731,"CountryCode":null},{"ID":14247,"Name":"Fereydun Kenar","Lat":36.685,"Lon":52.5208,"CountryCode":null},{"ID":33210,"Name":"Fereydunshahr","Lat":32.9419,"Lon":50.1203,"CountryCode":null},{"ID":26621,"Name":"Feyzabad","Lat":35.0183,"Lon":58.7839,"CountryCode":null},{"ID":18766,"Name":"Fuman","Lat":37.2242,"Lon":49.3125,"CountryCode":null},{"ID":21711,"Name":"Galikesh","Lat":37.2728,"Lon":55.4328,"CountryCode":null},{"ID":41507,"Name":"Galleh Dar","Lat":27.6578,"Lon":52.6594,"CountryCode":null},{"ID":23401,"Name":"Galugah","Lat":36.7269,"Lon":53.8089,"CountryCode":null},{"ID":22268,"Name":"Garmdarreh","Lat":35.7478,"Lon":51.0678,"CountryCode":null},{"ID":38660,"Name":"Garmeh","Lat":36.9864,"Lon":56.2881,"CountryCode":null},{"ID":11535,"Name":"Garmsar","Lat":35.2206,"Lon":52.3389,"CountryCode":null},{"ID":20933,"Name":"Gaz","Lat":32.8061,"Lon":51.6206,"CountryCode":null},{"ID":15598,"Name":"Gerash","Lat":27.6667,"Lon":54.1411,"CountryCode":null},{"ID":26420,"Name":"Gerd Faramarz Shahediyeh","Lat":31.9417,"Lon":54.2677,"CountryCode":null},{"ID":18120,"Name":"Germi","Lat":39.0297,"Lon":48.0803,"CountryCode":null},{"ID":22532,"Name":"Gilan-e Gharb","Lat":34.1406,"Lon":45.9183,"CountryCode":null},{"ID":38874,"Name":"Gol Tappeh","Lat":35.4872,"Lon":51.565,"CountryCode":null},{"ID":43890,"Name":"Golbaf","Lat":29.8828,"Lon":57.7322,"CountryCode":null},{"ID":22300,"Name":"Goldasht","Lat":32.6269,"Lon":51.4386,"CountryCode":null},{"ID":11694,"Name":"Golpayegan","Lat":33.4508,"Lon":50.2817,"CountryCode":null},{"ID":25463,"Name":"Gomishan","Lat":37.07,"Lon":54.0769,"CountryCode":null},{"ID":13426,"Name":"Gonabad","Lat":34.3575,"Lon":58.6783,"CountryCode":null},{"ID":4197,"Name":"Gonbad-e Kavus","Lat":37.2433,"Lon":55.1692,"CountryCode":null},{"ID":42416,"Name":"Gorgab","Lat":32.8661,"Lon":51.5972,"CountryCode":null},{"ID":2228,"Name":"Gorgan","Lat":36.8378,"Lon":54.4414,"CountryCode":null},{"ID":21110,"Name":"Gotvand","Lat":32.2433,"Lon":48.8136,"CountryCode":null},{"ID":40080,"Name":"Hachirud","Lat":36.6856,"Lon":51.345,"CountryCode":null},{"ID":23400,"Name":"Hafshejan","Lat":32.2269,"Lon":50.7931,"CountryCode":null},{"ID":29558,"Name":"Haftkel","Lat":31.4444,"Lon":49.5314,"CountryCode":null},{"ID":1331,"Name":"Hamadan","Lat":34.8064,"Lon":48.5161,"CountryCode":null},{"ID":37890,"Name":"Hamadanak","Lat":35.5422,"Lon":51.1383,"CountryCode":null},{"ID":22784,"Name":"Hamidiyeh","Lat":31.4811,"Lon":48.435,"CountryCode":null},{"ID":12542,"Name":"Harsin","Lat":34.2728,"Lon":47.5875,"CountryCode":null},{"ID":10267,"Name":"Hashtgerd","Lat":35.9619,"Lon":50.6889,"CountryCode":null},{"ID":10511,"Name":"Hashtpar","Lat":37.7933,"Lon":48.9044,"CountryCode":null},{"ID":24118,"Name":"Hashtrud","Lat":37.4714,"Lon":47.0583,"CountryCode":null},{"ID":38637,"Name":"Hasseh","Lat":32.7067,"Lon":51.7556,"CountryCode":null},{"ID":18093,"Name":"Hendijan","Lat":30.2383,"Lon":49.7075,"CountryCode":null},{"ID":39756,"Name":"Heris","Lat":38.2475,"Lon":47.1164,"CountryCode":null},{"ID":32598,"Name":"Hidaj","Lat":36.2547,"Lon":49.1311,"CountryCode":null},{"ID":43974,"Name":"Horr-e Riahi","Lat":32.1444,"Lon":48.3906,"CountryCode":null},{"ID":25180,"Name":"Hoveyzeh","Lat":31.4606,"Lon":48.0781,"CountryCode":null},{"ID":47782,"Name":"Ilam","Lat":33.6374,"Lon":46.4227,"CountryCode":null},{"ID":28490,"Name":"Ilkhchi","Lat":37.9373,"Lon":45.979,"CountryCode":null},{"ID":28491,"Name":"Ilkhechi","Lat":37.9378,"Lon":45.9803,"CountryCode":null},{"ID":5473,"Name":"Iranshahr","Lat":27.1978,"Lon":60.6836,"CountryCode":null},{"ID":43316,"Name":"Ja`fariyeh","Lat":34.7739,"Lon":50.5164,"CountryCode":null},{"ID":4483,"Name":"Jahrom","Lat":28.5031,"Lon":53.5658,"CountryCode":null},{"ID":25095,"Name":"Jajarm","Lat":36.9519,"Lon":56.3758,"CountryCode":null},{"ID":16862,"Name":"Jam","Lat":27.8236,"Lon":52.3303,"CountryCode":null},{"ID":33024,"Name":"Jannat Shahr","Lat":28.6569,"Lon":54.6861,"CountryCode":null},{"ID":28149,"Name":"Jask","Lat":25.6531,"Lon":57.7817,"CountryCode":null},{"ID":10479,"Name":"Javanrud","Lat":34.8078,"Lon":46.4939,"CountryCode":null},{"ID":4813,"Name":"Jiroft","Lat":28.6797,"Lon":57.7447,"CountryCode":null},{"ID":43672,"Name":"Joghtay","Lat":36.6383,"Lon":57.0717,"CountryCode":null},{"ID":45252,"Name":"Jolfa","Lat":38.9386,"Lon":45.6253,"CountryCode":null},{"ID":43795,"Name":"Juraqan","Lat":34.885,"Lon":48.5531,"CountryCode":null},{"ID":25435,"Name":"Kabudarahang","Lat":35.2094,"Lon":48.7236,"CountryCode":null},{"ID":10774,"Name":"Kahnuj","Lat":27.9406,"Lon":57.6992,"CountryCode":null},{"ID":14459,"Name":"Kahrizak","Lat":35.5169,"Lon":51.3603,"CountryCode":null},{"ID":14906,"Name":"Kalaleh","Lat":37.3789,"Lon":55.4889,"CountryCode":null},{"ID":33330,"Name":"Kalardasht","Lat":36.5056,"Lon":51.1589,"CountryCode":null},{"ID":17707,"Name":"Kalateh-ye Mir Ab","Lat":36.5325,"Lon":59.3636,"CountryCode":null},{"ID":43513,"Name":"Kaleybar","Lat":38.8664,"Lon":47.0406,"CountryCode":null},{"ID":4498,"Name":"Kamalshahr","Lat":35.8658,"Lon":50.8717,"CountryCode":null},{"ID":9564,"Name":"Kangan","Lat":27.8389,"Lon":52.0619,"CountryCode":null},{"ID":17729,"Name":"Karahrud","Lat":34.0628,"Lon":49.6461,"CountryCode":null},{"ID":421,"Name":"Karaj","Lat":35.8272,"Lon":50.9489,"CountryCode":null},{"ID":38173,"Name":"Kariz","Lat":34.8117,"Lon":60.8239,"CountryCode":null},{"ID":37339,"Name":"Kashaf","Lat":36.3678,"Lon":59.5767,"CountryCode":null},{"ID":2271,"Name":"Kashan","Lat":33.9825,"Lon":51.4325,"CountryCode":null},{"ID":6013,"Name":"Kashmar","Lat":35.2431,"Lon":58.4594,"CountryCode":null},{"ID":16755,"Name":"Kavar","Lat":29.2017,"Lon":52.6917,"CountryCode":null},{"ID":6329,"Name":"Kazerun","Lat":29.6156,"Lon":51.6567,"CountryCode":null},{"ID":21851,"Name":"Kelishad va Sudarjan","Lat":32.5489,"Lon":51.5286,"CountryCode":null},{"ID":1010,"Name":"Kerman","Lat":30.2911,"Lon":57.0678,"CountryCode":null},{"ID":812,"Name":"Kermanshah","Lat":34.3325,"Lon":47.0933,"CountryCode":null},{"ID":14131,"Name":"Khalkhal","Lat":37.6272,"Lon":48.53,"CountryCode":null},{"ID":38804,"Name":"Khan Bebin","Lat":37.0097,"Lon":54.9858,"CountryCode":null},{"ID":33124,"Name":"Kharv-e Sofla","Lat":36.1403,"Lon":59.0075,"CountryCode":null},{"ID":10119,"Name":"Khash","Lat":28.22,"Lon":61.2114,"CountryCode":null},{"ID":26235,"Name":"Kherameh","Lat":29.4992,"Lon":53.3131,"CountryCode":null},{"ID":42682,"Name":"Khesht","Lat":29.5633,"Lon":51.335,"CountryCode":null},{"ID":15433,"Name":"Khodabandeh","Lat":36.1194,"Lon":48.5917,"CountryCode":null},{"ID":34288,"Name":"Khomam","Lat":37.3911,"Lon":49.6597,"CountryCode":null},{"ID":8080,"Name":"Khomeyn","Lat":33.6422,"Lon":50.0789,"CountryCode":null},{"ID":2728,"Name":"Khomeyni Shahr","Lat":32.6803,"Lon":51.5361,"CountryCode":null},{"ID":25431,"Name":"Khonj","Lat":27.8897,"Lon":53.4308,"CountryCode":null},{"ID":37142,"Name":"Khorramabad","Lat":36.7822,"Lon":50.8714,"CountryCode":null},{"ID":1893,"Name":"Khorramabad","Lat":33.4875,"Lon":48.3561,"CountryCode":null},{"ID":10320,"Name":"Khorramdarreh","Lat":36.2072,"Lon":49.1992,"CountryCode":null},{"ID":4736,"Name":"Khorramshahr","Lat":30.4394,"Lon":48.1817,"CountryCode":null},{"ID":22873,"Name":"Khosrowshahr","Lat":37.9497,"Lon":46.0508,"CountryCode":null},{"ID":6992,"Name":"Khowrasgan","Lat":32.6539,"Lon":51.7553,"CountryCode":null},{"ID":324,"Name":"Khowrhesht","Lat":36.205,"Lon":49.6872,"CountryCode":null},{"ID":13437,"Name":"Khowrmuj","Lat":28.6567,"Lon":51.3808,"CountryCode":null},{"ID":24358,"Name":"Khowrzuq","Lat":32.7783,"Lon":51.6478,"CountryCode":null},{"ID":3323,"Name":"Khowy","Lat":38.5464,"Lon":44.9542,"CountryCode":null},{"ID":16143,"Name":"Khvaf","Lat":34.5711,"Lon":60.1439,"CountryCode":null},{"ID":24205,"Name":"Khvansar","Lat":33.2208,"Lon":50.3153,"CountryCode":null},{"ID":32256,"Name":"Kiashahr","Lat":37.4214,"Lon":49.9408,"CountryCode":null},{"ID":13716,"Name":"Kish","Lat":26.5553,"Lon":53.985,"CountryCode":null},{"ID":45378,"Name":"Komijan","Lat":34.7181,"Lon":49.325,"CountryCode":null},{"ID":12734,"Name":"Konarak","Lat":25.3589,"Lon":60.3992,"CountryCode":null},{"ID":46276,"Name":"Kond Rud","Lat":38.0094,"Lon":46.4794,"CountryCode":null},{"ID":41232,"Name":"Kuchesfahan","Lat":37.2783,"Lon":49.7728,"CountryCode":null},{"ID":39085,"Name":"Kuhbanan","Lat":31.41,"Lon":56.2825,"CountryCode":null},{"ID":6782,"Name":"Kuhdasht","Lat":33.5294,"Lon":47.6092,"CountryCode":null},{"ID":37764,"Name":"Kushk","Lat":32.6419,"Lon":51.4997,"CountryCode":null},{"ID":10177,"Name":"Kut-e `Abdollah","Lat":31.2447,"Lon":48.6594,"CountryCode":null},{"ID":30852,"Name":"Lalejin","Lat":34.9742,"Lon":48.4756,"CountryCode":null},{"ID":17900,"Name":"Lamerd","Lat":27.3336,"Lon":53.1886,"CountryCode":null},{"ID":34538,"Name":"Landeh","Lat":30.9808,"Lon":50.4214,"CountryCode":null},{"ID":7474,"Name":"Langarud","Lat":37.1956,"Lon":50.1517,"CountryCode":null},{"ID":39687,"Name":"Lasht-e Nesha","Lat":37.3608,"Lon":49.8611,"CountryCode":null},{"ID":37842,"Name":"Lavandevil","Lat":38.3089,"Lon":48.8703,"CountryCode":null},{"ID":26588,"Name":"Lavasan","Lat":35.8183,"Lon":51.6383,"CountryCode":null},{"ID":24847,"Name":"Likak","Lat":30.8928,"Lon":50.0928,"CountryCode":null},{"ID":13497,"Name":"Lordegan","Lat":31.5081,"Lon":50.8319,"CountryCode":null},{"ID":34003,"Name":"Lowshan","Lat":36.6278,"Lon":49.5114,"CountryCode":null},{"ID":2891,"Name":"Madan","Lat":30.3469,"Lon":48.2825,"CountryCode":null},{"ID":3826,"Name":"Mahabad","Lat":36.7678,"Lon":45.7339,"CountryCode":null},{"ID":25308,"Name":"Mahajeran-e Kamar","Lat":34.0486,"Lon":49.4311,"CountryCode":null},{"ID":12737,"Name":"Mahallat","Lat":33.9056,"Lon":50.4572,"CountryCode":null},{"ID":41531,"Name":"Mahalleh-ye Shirinu","Lat":27.6258,"Lon":52.4761,"CountryCode":null},{"ID":9222,"Name":"Mahdasht","Lat":35.7194,"Lon":50.7978,"CountryCode":null},{"ID":20895,"Name":"Mahdishahr","Lat":35.7144,"Lon":53.3569,"CountryCode":null},{"ID":25012,"Name":"Mahmudabad Nemuneh","Lat":36.2903,"Lon":49.8994,"CountryCode":null},{"ID":2438,"Name":"Malard","Lat":35.6806,"Lon":50.9783,"CountryCode":null},{"ID":3784,"Name":"Malayer","Lat":34.3,"Lon":48.8178,"CountryCode":null},{"ID":18958,"Name":"Malekan","Lat":37.15,"Lon":46.1042,"CountryCode":null},{"ID":36377,"Name":"Mamqan","Lat":37.8458,"Lon":45.9719,"CountryCode":null},{"ID":22992,"Name":"Ma'muniyeh","Lat":35.305,"Lon":50.4975,"CountryCode":null},{"ID":29774,"Name":"Manjil","Lat":36.7447,"Lon":49.4014,"CountryCode":null},{"ID":29769,"Name":"Manujan","Lat":27.4031,"Lon":57.4917,"CountryCode":null},{"ID":3683,"Name":"Maragheh","Lat":37.3894,"Lon":46.2378,"CountryCode":null},{"ID":4796,"Name":"Marand","Lat":38.4331,"Lon":45.7686,"CountryCode":null},{"ID":45748,"Name":"Maraveh Tappeh","Lat":37.9031,"Lon":55.9567,"CountryCode":null},{"ID":4619,"Name":"Marivan","Lat":35.5217,"Lon":46.1806,"CountryCode":null},{"ID":43335,"Name":"Marvast","Lat":30.4775,"Lon":54.2128,"CountryCode":null},{"ID":4289,"Name":"Marvdasht","Lat":29.8786,"Lon":52.8067,"CountryCode":null},{"ID":38879,"Name":"Maryanaj","Lat":34.8297,"Lon":48.4578,"CountryCode":null},{"ID":225,"Name":"Mashhad","Lat":36.3264,"Lon":59.5433,"CountryCode":null},{"ID":40982,"Name":"Mashhad Rizeh","Lat":34.7947,"Lon":60.5144,"CountryCode":null},{"ID":6118,"Name":"Masjed Soleyman","Lat":31.96,"Lon":49.2881,"CountryCode":null},{"ID":27432,"Name":"Mehran","Lat":33.1208,"Lon":46.1642,"CountryCode":null},{"ID":7957,"Name":"Meshgin Shahr","Lat":38.3972,"Lon":47.6739,"CountryCode":null},{"ID":9325,"Name":"Meshkin Dasht","Lat":35.7469,"Lon":50.9361,"CountryCode":null},{"ID":7364,"Name":"Meybod","Lat":32.2444,"Lon":54.0186,"CountryCode":null},{"ID":40932,"Name":"Meymand","Lat":28.8683,"Lon":52.7525,"CountryCode":null},{"ID":41681,"Name":"Miandasht","Lat":33.0758,"Lon":50.1631,"CountryCode":null},{"ID":6213,"Name":"Mianeh","Lat":37.4239,"Lon":47.7197,"CountryCode":null},{"ID":43619,"Name":"Milajerd","Lat":34.6214,"Lon":49.2081,"CountryCode":null},{"ID":17492,"Name":"Minudasht","Lat":37.2306,"Lon":55.3736,"CountryCode":null},{"ID":43402,"Name":"Mirjaveh","Lat":29.0147,"Lon":61.4503,"CountryCode":null},{"ID":9271,"Name":"Mobarakeh","Lat":32.3494,"Lon":51.5,"CountryCode":null},{"ID":5219,"Name":"Mohammad Shahr","Lat":35.7483,"Lon":50.9025,"CountryCode":null},{"ID":43546,"Name":"Mohammad Yar","Lat":36.9819,"Lon":45.5222,"CountryCode":null},{"ID":23963,"Name":"Mohammadabad","Lat":28.6517,"Lon":59.0158,"CountryCode":null},{"ID":29937,"Name":"Morteza Gerd","Lat":35.6019,"Lon":51.3486,"CountryCode":null},{"ID":45177,"Name":"Moslem Ebn-e `Aqil","Lat":32.0561,"Lon":48.3056,"CountryCode":null},{"ID":7771,"Name":"Nahavand","Lat":34.1928,"Lon":48.3731,"CountryCode":null},{"ID":2855,"Name":"Najafabad","Lat":32.6447,"Lon":51.3603,"CountryCode":null},{"ID":25855,"Name":"Nakhl-e Taqi","Lat":27.5014,"Lon":52.5858,"CountryCode":null},{"ID":46335,"Name":"Nalas","Lat":36.2631,"Lon":45.4933,"CountryCode":null},{"ID":32909,"Name":"Namin","Lat":38.4256,"Lon":48.4839,"CountryCode":null},{"ID":8071,"Name":"Naqadeh","Lat":36.9547,"Lon":45.3881,"CountryCode":null},{"ID":43982,"Name":"Nashtifan","Lat":34.435,"Lon":60.1811,"CountryCode":null},{"ID":3302,"Name":"Nasim Shahr","Lat":35.5617,"Lon":51.1617,"CountryCode":null},{"ID":32113,"Name":"Natanz","Lat":33.5072,"Lon":51.9136,"CountryCode":null},{"ID":35119,"Name":"Naysar","Lat":35.3267,"Lon":47.0686,"CountryCode":null},{"ID":5215,"Name":"Nazarabad","Lat":35.9583,"Lon":50.605,"CountryCode":null},{"ID":15696,"Name":"Nazerabad","Lat":31.5775,"Lon":54.4369,"CountryCode":null},{"ID":26424,"Name":"Nehbandan","Lat":31.5436,"Lon":60.0372,"CountryCode":null},{"ID":9471,"Name":"Neka","Lat":36.65,"Lon":53.2972,"CountryCode":null},{"ID":31148,"Name":"Neqab","Lat":36.7072,"Lon":57.4194,"CountryCode":null},{"ID":11303,"Name":"Neyriz","Lat":29.1928,"Lon":54.3197,"CountryCode":null},{"ID":3012,"Name":"Neyshabur","Lat":36.22,"Lon":58.82,"CountryCode":null},{"ID":26321,"Name":"Niar","Lat":38.2369,"Lon":48.3272,"CountryCode":null},{"ID":27063,"Name":"Nikshahr","Lat":26.2253,"Lon":60.2167,"CountryCode":null},{"ID":11391,"Name":"Nowshahr","Lat":36.6475,"Lon":51.4931,"CountryCode":null},{"ID":40148,"Name":"Nukan","Lat":34.3608,"Lon":47.1725,"CountryCode":null},{"ID":8677,"Name":"Omidiyeh","Lat":30.7583,"Lon":49.705,"CountryCode":null},{"ID":1012,"Name":"Orumiyeh","Lat":37.5439,"Lon":45.0647,"CountryCode":null},{"ID":13736,"Name":"Oshnaviyeh","Lat":37.0375,"Lon":45.0981,"CountryCode":null},{"ID":26259,"Name":"Osku","Lat":37.9147,"Lon":46.1217,"CountryCode":null},{"ID":45153,"Name":"Pa'in Chaf","Lat":37.2294,"Lon":50.2544,"CountryCode":null},{"ID":2837,"Name":"Pakdasht","Lat":35.485,"Lon":51.6794,"CountryCode":null},{"ID":45646,"Name":"Pardanjan","Lat":32.2539,"Lon":50.5975,"CountryCode":null},{"ID":20000,"Name":"Paveh","Lat":35.0433,"Lon":46.355,"CountryCode":null},{"ID":38870,"Name":"Pir Bakran","Lat":32.4678,"Lon":51.5556,"CountryCode":null},{"ID":6623,"Name":"Piranshahr","Lat":36.6956,"Lon":45.1456,"CountryCode":null},{"ID":1034,"Name":"Pishbar","Lat":33.3886,"Lon":59.9789,"CountryCode":null},{"ID":37311,"Name":"Poldasht","Lat":39.3447,"Lon":45.0681,"CountryCode":null},{"ID":19593,"Name":"Poldokhtar","Lat":33.1489,"Lon":47.7164,"CountryCode":null},{"ID":2717,"Name":"Qa'em Shahr","Lat":36.4636,"Lon":52.8581,"CountryCode":null},{"ID":19252,"Name":"Qa'emiyeh","Lat":29.8525,"Lon":51.5842,"CountryCode":null},{"ID":12968,"Name":"Qa'en","Lat":33.7333,"Lon":59.1811,"CountryCode":null},{"ID":17526,"Name":"Qahderijan","Lat":32.5772,"Lon":51.4539,"CountryCode":null},{"ID":42337,"Name":"Qahjavarestan","Lat":32.7017,"Lon":51.8358,"CountryCode":null},{"ID":39078,"Name":"Qal`eh Chan`an","Lat":31.2403,"Lon":48.7011,"CountryCode":null},{"ID":33754,"Name":"Qal`eh Ganj","Lat":27.525,"Lon":57.88,"CountryCode":null},{"ID":39269,"Name":"Qal`eh Tall","Lat":31.6331,"Lon":49.8897,"CountryCode":null},{"ID":19336,"Name":"Qarah Zia' od Din","Lat":38.89,"Lon":45.0283,"CountryCode":null},{"ID":2896,"Name":"Qarchak","Lat":35.4267,"Lon":51.5842,"CountryCode":null},{"ID":40290,"Name":"Qari Kola-ye Arateh","Lat":36.4917,"Lon":52.9531,"CountryCode":null},{"ID":36991,"Name":"Qasr-e Qand","Lat":26.2356,"Lon":60.7408,"CountryCode":null},{"ID":38767,"Name":"Qasr-e Qomsheh","Lat":29.7756,"Lon":52.4417,"CountryCode":null},{"ID":26243,"Name":"Qasr-e Shirin","Lat":34.5158,"Lon":45.5772,"CountryCode":null},{"ID":1783,"Name":"Qazvin","Lat":36.2894,"Lon":50.0086,"CountryCode":null},{"ID":13450,"Name":"Qeshm","Lat":26.9494,"Lon":56.2681,"CountryCode":null},{"ID":633,"Name":"Qom","Lat":34.64,"Lon":50.8764,"CountryCode":null},{"ID":7578,"Name":"Qorveh","Lat":35.1678,"Lon":47.8008,"CountryCode":null},{"ID":4380,"Name":"Quchan","Lat":37.106,"Lon":58.5095,"CountryCode":null},{"ID":33590,"Name":"Rabor","Lat":29.2903,"Lon":56.9133,"CountryCode":null},{"ID":3964,"Name":"Rafsanjan","Lat":30.4111,"Lon":55.9911,"CountryCode":null},{"ID":7939,"Name":"Ramhormoz","Lat":31.2753,"Lon":49.6044,"CountryCode":null},{"ID":14984,"Name":"Ramsar","Lat":36.9225,"Lon":50.6431,"CountryCode":null},{"ID":20508,"Name":"Ramshir","Lat":30.8936,"Lon":49.4086,"CountryCode":null},{"ID":40945,"Name":"Rasak","Lat":26.2356,"Lon":61.4014,"CountryCode":null},{"ID":1098,"Name":"Rasht","Lat":37.2744,"Lon":49.5889,"CountryCode":null},{"ID":20863,"Name":"Ravansar","Lat":34.7125,"Lon":46.6511,"CountryCode":null},{"ID":22265,"Name":"Ravar","Lat":31.2633,"Lon":56.8072,"CountryCode":null},{"ID":40443,"Name":"Rayen","Lat":29.5981,"Lon":57.4383,"CountryCode":null},{"ID":31872,"Name":"Razan","Lat":35.3886,"Lon":49.0331,"CountryCode":null},{"ID":35372,"Name":"Rezvanshahr","Lat":37.5481,"Lon":49.1356,"CountryCode":null},{"ID":5857,"Name":"Robat Karim","Lat":35.4825,"Lon":51.0786,"CountryCode":null},{"ID":36817,"Name":"Rostam Kola","Lat":36.6789,"Lon":53.4297,"CountryCode":null},{"ID":32761,"Name":"Rostamabad","Lat":36.8994,"Lon":49.4931,"CountryCode":null},{"ID":18340,"Name":"Rudehen","Lat":35.7333,"Lon":51.9192,"CountryCode":null},{"ID":14285,"Name":"Rudsar","Lat":37.1406,"Lon":50.2942,"CountryCode":null},{"ID":27797,"Name":"Sa`adat Shahr","Lat":30.0772,"Lon":53.1328,"CountryCode":null},{"ID":45899,"Name":"Sa`idi","Lat":30.3364,"Lon":57.0994,"CountryCode":null},{"ID":10549,"Name":"Sabbashahr","Lat":35.5817,"Lon":51.1119,"CountryCode":null},{"ID":2762,"Name":"Sabzevar","Lat":36.2125,"Lon":57.6764,"CountryCode":null},{"ID":19244,"Name":"Safashahr","Lat":30.6133,"Lon":53.1928,"CountryCode":null},{"ID":15160,"Name":"Sahneh","Lat":34.4811,"Lon":47.68,"CountryCode":null},{"ID":38222,"Name":"Sa'in Qal`eh","Lat":36.3058,"Lon":49.0739,"CountryCode":null},{"ID":42526,"Name":"Salmanshahr","Lat":36.7039,"Lon":51.1936,"CountryCode":null},{"ID":4911,"Name":"Salmas","Lat":38.2028,"Lon":44.7669,"CountryCode":null},{"ID":1745,"Name":"Sanandaj","Lat":35.3114,"Lon":46.9961,"CountryCode":null},{"ID":35213,"Name":"Sangan","Lat":34.3994,"Lon":60.2558,"CountryCode":null},{"ID":34915,"Name":"Sangar","Lat":37.1797,"Lon":49.6942,"CountryCode":null},{"ID":3897,"Name":"Saqqez","Lat":36.2411,"Lon":46.2706,"CountryCode":null},{"ID":13042,"Name":"Sarab","Lat":37.9414,"Lon":47.5367,"CountryCode":null},{"ID":37938,"Name":"Sarab-e Taveh-ye `Olya","Lat":30.5964,"Lon":51.5725,"CountryCode":null},{"ID":35294,"Name":"Sarableh","Lat":33.7683,"Lon":46.5619,"CountryCode":null},{"ID":13004,"Name":"Sarakhs","Lat":36.5425,"Lon":61.1589,"CountryCode":null},{"ID":9588,"Name":"Saravan","Lat":27.3708,"Lon":62.3325,"CountryCode":null},{"ID":32685,"Name":"Sarayan","Lat":33.8614,"Lon":58.5217,"CountryCode":null},{"ID":45596,"Name":"Sarbisheh","Lat":32.5775,"Lon":59.7961,"CountryCode":null},{"ID":11994,"Name":"Sardasht","Lat":36.1553,"Lon":45.48,"CountryCode":null},{"ID":17712,"Name":"Sardrud","Lat":38.0286,"Lon":46.1475,"CountryCode":null},{"ID":47781,"Name":"Sari","Lat":36.5633,"Lon":53.0601,"CountryCode":null},{"ID":15533,"Name":"Sarpol-e Zahab","Lat":34.4589,"Lon":45.8614,"CountryCode":null},{"ID":2502,"Name":"Sarta","Lat":36.4491,"Lon":53.3234,"CountryCode":null},{"ID":26551,"Name":"Sarvestan","Lat":29.2739,"Lon":53.2203,"CountryCode":null},{"ID":3025,"Name":"Saveh","Lat":35.0278,"Lon":50.3611,"CountryCode":null},{"ID":27540,"Name":"Sedeh Lanjan","Lat":32.3786,"Lon":51.3178,"CountryCode":null},{"ID":19651,"Name":"Semirom","Lat":31.4094,"Lon":51.5736,"CountryCode":null},{"ID":3517,"Name":"Semnan","Lat":35.5811,"Lon":53.3833,"CountryCode":null},{"ID":35602,"Name":"Senjan","Lat":34.0506,"Lon":49.6214,"CountryCode":null},{"ID":31269,"Name":"Sepidan","Lat":30.2594,"Lon":51.9853,"CountryCode":null},{"ID":26987,"Name":"Seyah Cheshmeh","Lat":39.0631,"Lon":44.3836,"CountryCode":null},{"ID":46076,"Name":"Seyyedan","Lat":30.0019,"Lon":53.0033,"CountryCode":null},{"ID":22680,"Name":"Shabestar","Lat":38.18,"Lon":45.7039,"CountryCode":null},{"ID":13134,"Name":"Shadegan","Lat":30.6492,"Lon":48.6653,"CountryCode":null},{"ID":20145,"Name":"Shahedshahr","Lat":35.5731,"Lon":51.0869,"CountryCode":null},{"ID":15713,"Name":"Shahin Dezh","Lat":36.6806,"Lon":46.5681,"CountryCode":null},{"ID":3721,"Name":"Shahin Shahr","Lat":32.8606,"Lon":51.5531,"CountryCode":null},{"ID":37949,"Name":"Shahmirzad","Lat":35.7692,"Lon":53.3361,"CountryCode":null},{"ID":40238,"Name":"Shahrak-e Enqelab","Lat":35.5156,"Lon":51.6867,"CountryCode":null},{"ID":43130,"Name":"Shahrak-e Ja`fariyeh","Lat":35.6617,"Lon":50.9947,"CountryCode":null},{"ID":45904,"Name":"Shahrak-e Pars","Lat":35.6081,"Lon":51.3808,"CountryCode":null},{"ID":10957,"Name":"Shahr-e Babak","Lat":30.1233,"Lon":55.1172,"CountryCode":null},{"ID":34004,"Name":"Shahr-e Herat","Lat":30.0547,"Lon":54.3717,"CountryCode":null},{"ID":3447,"Name":"Shahr-e Kord","Lat":32.3311,"Lon":50.8594,"CountryCode":null},{"ID":43385,"Name":"Shahr-e Majlesi","Lat":32.1956,"Lon":51.5017,"CountryCode":null},{"ID":44858,"Name":"Shahr-e Pir","Lat":28.3122,"Lon":54.3328,"CountryCode":null},{"ID":2244,"Name":"Shahr-e Qods","Lat":35.7097,"Lon":51.1119,"CountryCode":null},{"ID":4670,"Name":"Shahreza","Lat":32.0122,"Lon":51.8594,"CountryCode":null},{"ID":2243,"Name":"Shahriar","Lat":35.6722,"Lon":51.0236,"CountryCode":null},{"ID":4243,"Name":"Shahrud","Lat":36.4133,"Lon":54.9781,"CountryCode":null},{"ID":30218,"Name":"Shal","Lat":35.8975,"Lon":49.7694,"CountryCode":null},{"ID":38855,"Name":"Shamsabad","Lat":32.2978,"Lon":48.4283,"CountryCode":null},{"ID":32349,"Name":"Shandiz","Lat":36.3961,"Lon":59.3092,"CountryCode":null},{"ID":23543,"Name":"Shazand","Lat":33.9292,"Lon":49.4103,"CountryCode":null},{"ID":21846,"Name":"Sheyban","Lat":31.4061,"Lon":48.7944,"CountryCode":null},{"ID":500,"Name":"Shiraz","Lat":29.61,"Lon":52.5425,"CountryCode":null},{"ID":7226,"Name":"Shirvan","Lat":37.4006,"Lon":57.9278,"CountryCode":null},{"ID":20248,"Name":"Showt","Lat":39.2197,"Lon":44.7722,"CountryCode":null},{"ID":7678,"Name":"Shush","Lat":32.1947,"Lon":48.2475,"CountryCode":null},{"ID":6036,"Name":"Shushtar","Lat":32.045,"Lon":48.8594,"CountryCode":null},{"ID":24781,"Name":"Siahkal","Lat":37.1506,"Lon":49.8714,"CountryCode":null},{"ID":3692,"Name":"Sirjan","Lat":29.437,"Lon":55.6802,"CountryCode":null},{"ID":12512,"Name":"Sonqor","Lat":34.7828,"Lon":47.5983,"CountryCode":null},{"ID":41622,"Name":"Sorkheh","Lat":35.4644,"Lon":53.2086,"CountryCode":null},{"ID":11851,"Name":"Sowme`eh Sara","Lat":37.3,"Lon":49.3142,"CountryCode":null},{"ID":41579,"Name":"Sufian","Lat":38.2722,"Lon":45.9789,"CountryCode":null},{"ID":43885,"Name":"Surak","Lat":36.5939,"Lon":53.2086,"CountryCode":null},{"ID":33049,"Name":"Suran","Lat":27.2856,"Lon":61.9964,"CountryCode":null},{"ID":35473,"Name":"Sureshjan","Lat":32.3156,"Lon":50.6783,"CountryCode":null},{"ID":10988,"Name":"Susangerd","Lat":31.5569,"Lon":48.1894,"CountryCode":null},{"ID":13781,"Name":"Tabas","Lat":33.5961,"Lon":56.9281,"CountryCode":null},{"ID":503,"Name":"Tabriz","Lat":38.0814,"Lon":46.3006,"CountryCode":null},{"ID":28591,"Name":"Tafresh","Lat":34.6939,"Lon":50.0156,"CountryCode":null},{"ID":26250,"Name":"Taft","Lat":31.7492,"Lon":54.2103,"CountryCode":null},{"ID":12636,"Name":"Takab","Lat":36.4008,"Lon":47.1108,"CountryCode":null},{"ID":7396,"Name":"Takestan","Lat":36.0672,"Lon":49.6958,"CountryCode":null},{"ID":41703,"Name":"Talkhvoncheh","Lat":32.2614,"Lon":51.5619,"CountryCode":null},{"ID":10127,"Name":"Taybad","Lat":34.7408,"Lon":60.7792,"CountryCode":null},{"ID":27,"Name":"Tehran","Lat":35.6892,"Lon":51.3889,"CountryCode":null},{"ID":29716,"Name":"Tiran","Lat":32.7033,"Lon":51.1558,"CountryCode":null},{"ID":10309,"Name":"Tonekabon","Lat":36.8153,"Lon":50.8711,"CountryCode":null},{"ID":4524,"Name":"Torbat-e Heydariyeh","Lat":35.29,"Lon":59.2169,"CountryCode":null},{"ID":6123,"Name":"Torbat-e Jam","Lat":35.2431,"Lon":60.625,"CountryCode":null},{"ID":23722,"Name":"Torqabeh","Lat":36.3142,"Lon":59.3725,"CountryCode":null},{"ID":11167,"Name":"Tuyserkan","Lat":34.5494,"Lon":48.4456,"CountryCode":null},{"ID":37878,"Name":"Vahdattiyeh","Lat":29.4842,"Lon":51.2369,"CountryCode":null},{"ID":2955,"Name":"Varamin","Lat":35.3508,"Lon":51.6358,"CountryCode":null},{"ID":34650,"Name":"Varzaneh","Lat":32.4197,"Lon":52.6478,"CountryCode":null},{"ID":30193,"Name":"Veys","Lat":31.4861,"Lon":48.8756,"CountryCode":null},{"ID":5703,"Name":"Yasuj","Lat":30.6672,"Lon":51.5797,"CountryCode":null},{"ID":1393,"Name":"Yazd","Lat":31.8822,"Lon":54.3397,"CountryCode":null},{"ID":4671,"Name":"Zabol","Lat":31.0339,"Lon":61.4878,"CountryCode":null},{"ID":35608,"Name":"Zaboli","Lat":27.1283,"Lon":61.6722,"CountryCode":null},{"ID":42316,"Name":"Zahed Shahr","Lat":28.7461,"Lon":53.8039,"CountryCode":null},{"ID":1271,"Name":"Zahedan","Lat":29.5025,"Lon":60.8558,"CountryCode":null},{"ID":1844,"Name":"Zanjan","Lat":36.6789,"Lon":48.5056,"CountryCode":null},{"ID":36807,"Name":"Zarach","Lat":31.9911,"Lon":54.2322,"CountryCode":null},{"ID":9110,"Name":"Zarand","Lat":30.8108,"Lon":56.5658,"CountryCode":null},{"ID":16496,"Name":"Zarqan","Lat":29.7683,"Lon":52.7186,"CountryCode":null},{"ID":10237,"Name":"Zarrin Shahr","Lat":32.3889,"Lon":51.3733,"CountryCode":null},{"ID":33405,"Name":"Zehak","Lat":30.8933,"Lon":61.6789,"CountryCode":null},{"ID":44189,"Name":"Zeydabad","Lat":29.6008,"Lon":55.5367,"CountryCode":null}]