[{"ID":15529,"Name":"Abashiri","Lat":44.0167,"Lon":144.2667,"CountryCode":null},{"ID":4820,"Name":"Abiko","Lat":35.8667,"Lon":140.0333,"CountryCode":null},{"ID":1096,"Name":"Adachi","Lat":35.7833,"Lon":139.8,"CountryCode":null},{"ID":13534,"Name":"Agano","Lat":37.8344,"Lon":139.226,"CountryCode":null},{"ID":2945,"Name":"Ageoshimo","Lat":35.9774,"Lon":139.5932,"CountryCode":null},{"ID":18536,"Name":"Agui","Lat":34.9333,"Lon":136.9167,"CountryCode":null},{"ID":25537,"Name":"Ainan","Lat":32.9667,"Lon":132.5833,"CountryCode":null},{"ID":18438,"Name":"Aioi","Lat":34.8,"Lon":134.4667,"CountryCode":null},{"ID":7726,"Name":"Aira","Lat":31.7283,"Lon":130.6278,"CountryCode":null},{"ID":9478,"Name":"Aisai","Lat":35.1528,"Lon":136.7282,"CountryCode":null},{"ID":23788,"Name":"Aisho","Lat":35.1667,"Lon":136.2167,"CountryCode":null},{"ID":13756,"Name":"Aizawa","Lat":35.5289,"Lon":139.3217,"CountryCode":null},{"ID":30866,"Name":"Aizubange","Lat":37.5615,"Lon":139.8216,"CountryCode":null},{"ID":15259,"Name":"Aizumi","Lat":34.1266,"Lon":134.4951,"CountryCode":null},{"ID":25594,"Name":"Aizumisato","Lat":37.4599,"Lon":139.8411,"CountryCode":null},{"ID":5281,"Name":"Aizuwakamatsu","Lat":37.4948,"Lon":139.9298,"CountryCode":null},{"ID":42555,"Name":"Akabira","Lat":43.55,"Lon":142.05,"CountryCode":null},{"ID":12964,"Name":"Akaiwa","Lat":34.7553,"Lon":134.0189,"CountryCode":null},{"ID":34374,"Name":"Akayu","Lat":38.05,"Lon":140.1833,"CountryCode":null},{"ID":28742,"Name":"Aki","Lat":33.5,"Lon":133.9,"CountryCode":null},{"ID":7455,"Name":"Akiruno","Lat":35.7289,"Lon":139.2941,"CountryCode":null},{"ID":5536,"Name":"Akishima","Lat":35.7057,"Lon":139.3535,"CountryCode":null},{"ID":2275,"Name":"Akita","Lat":39.72,"Lon":140.1026,"CountryCode":null},{"ID":19047,"Name":"Akitakata","Lat":34.6631,"Lon":132.7064,"CountryCode":null},{"ID":25668,"Name":"Akune","Lat":32.0167,"Lon":130.2167,"CountryCode":null},{"ID":6871,"Name":"Ama","Lat":35.2004,"Lon":136.7832,"CountryCode":null},{"ID":1597,"Name":"Amagasaki","Lat":34.7333,"Lon":135.4,"CountryCode":null},{"ID":7897,"Name":"Amakusa","Lat":32.4667,"Lon":130.2,"CountryCode":null},{"ID":13341,"Name":"Amami","Lat":28.3783,"Lon":129.4944,"CountryCode":null},{"ID":11644,"Name":"Ami","Lat":36.0308,"Lon":140.2148,"CountryCode":null},{"ID":8487,"Name":"Anan","Lat":33.9167,"Lon":134.6667,"CountryCode":null},{"ID":3467,"Name":"Anjomachi","Lat":34.9587,"Lon":137.0803,"CountryCode":null},{"ID":10440,"Name":"Annaka","Lat":36.3263,"Lon":138.8871,"CountryCode":null},{"ID":31777,"Name":"Anpachi","Lat":35.3353,"Lon":136.6654,"CountryCode":null},{"ID":1688,"Name":"Aomori","Lat":40.8228,"Lon":140.7469,"CountryCode":null},{"ID":28002,"Name":"Arai","Lat":34.6833,"Lon":137.5667,"CountryCode":null},{"ID":3055,"Name":"Arakawa","Lat":35.7333,"Lon":139.7833,"CountryCode":null},{"ID":39014,"Name":"Arakawa","Lat":38.1241,"Lon":139.4438,"CountryCode":null},{"ID":11145,"Name":"Arao","Lat":32.9833,"Lon":130.4353,"CountryCode":null},{"ID":20024,"Name":"Arida","Lat":34.0833,"Lon":135.1333,"CountryCode":null},{"ID":20398,"Name":"Aridagawa","Lat":34.05,"Lon":135.2167,"CountryCode":null},{"ID":25826,"Name":"Arita","Lat":33.2106,"Lon":129.849,"CountryCode":null},{"ID":31568,"Name":"Asagiri","Lat":32.2333,"Lon":130.9,"CountryCode":null},{"ID":18213,"Name":"Asago","Lat":35.3333,"Lon":134.85,"CountryCode":null},{"ID":9144,"Name":"Asahi","Lat":35.7167,"Lon":140.65,"CountryCode":null},{"ID":38248,"Name":"Asahi","Lat":35.0333,"Lon":136.6667,"CountryCode":null},{"ID":38868,"Name":"Asahi","Lat":36.9462,"Lon":137.5599,"CountryCode":null},{"ID":2111,"Name":"Asahikawa","Lat":43.7667,"Lon":142.3667,"CountryCode":null},{"ID":4421,"Name":"Asaka","Lat":35.7972,"Lon":139.5939,"CountryCode":null},{"ID":16061,"Name":"Asakuchi","Lat":34.5247,"Lon":133.5875,"CountryCode":null},{"ID":11417,"Name":"Asakura","Lat":33.4167,"Lon":130.6667,"CountryCode":null},{"ID":34534,"Name":"Ashibetsu","Lat":43.5167,"Lon":142.1833,"CountryCode":null},{"ID":4451,"Name":"Ashikaga","Lat":36.3402,"Lon":139.4497,"CountryCode":null},{"ID":29787,"Name":"Ashikita","Lat":32.3,"Lon":130.5167,"CountryCode":null},{"ID":6474,"Name":"Ashiya","Lat":34.7278,"Lon":135.3033,"CountryCode":null},{"ID":33085,"Name":"Ashiya","Lat":33.9,"Lon":130.6667,"CountryCode":null},{"ID":20672,"Name":"Aso","Lat":32.9483,"Lon":131.1239,"CountryCode":null},{"ID":42392,"Name":"Asuke","Lat":35.134,"Lon":137.1454,"CountryCode":null},{"ID":15700,"Name":"Atami","Lat":35.096,"Lon":139.0716,"CountryCode":null},{"ID":2982,"Name":"Atsugicho","Lat":35.4333,"Lon":139.3667,"CountryCode":null},{"ID":15114,"Name":"Awa","Lat":34.1014,"Lon":134.2964,"CountryCode":null},{"ID":12898,"Name":"Awaji","Lat":34.4333,"Lon":134.9167,"CountryCode":null},{"ID":19115,"Name":"Awara","Lat":36.2113,"Lon":136.229,"CountryCode":null},{"ID":16826,"Name":"Ayabe","Lat":35.3,"Lon":135.2667,"CountryCode":null},{"ID":22264,"Name":"Ayagawa","Lat":34.25,"Lon":133.9167,"CountryCode":null},{"ID":7122,"Name":"Ayase","Lat":35.4333,"Lon":139.4333,"CountryCode":null},{"ID":6485,"Name":"Azumino","Lat":36.3039,"Lon":137.9058,"CountryCode":null},{"ID":10974,"Name":"Bando","Lat":36.0484,"Lon":139.8887,"CountryCode":null},{"ID":5373,"Name":"Beppu","Lat":33.2847,"Lon":131.4914,"CountryCode":null},{"ID":30978,"Name":"Betsukai","Lat":43.4,"Lon":145.1167,"CountryCode":null},{"ID":24187,"Name":"Bibai","Lat":43.3333,"Lon":141.85,"CountryCode":null},{"ID":42160,"Name":"Biei","Lat":43.5833,"Lon":142.4667,"CountryCode":null},{"ID":16607,"Name":"Bizen","Lat":34.7453,"Lon":134.1889,"CountryCode":null},{"ID":16183,"Name":"Bungoono","Lat":32.9775,"Lon":131.5842,"CountryCode":null},{"ID":22921,"Name":"Bungotakada","Lat":33.5561,"Lon":131.4469,"CountryCode":null},{"ID":2798,"Name":"Bunkyo-ku","Lat":35.7167,"Lon":139.75,"CountryCode":null},{"ID":20978,"Name":"Buzen","Lat":33.6114,"Lon":131.1303,"CountryCode":null},{"ID":18542,"Name":"Chatan","Lat":26.32,"Lon":127.7639,"CountryCode":null},{"ID":787,"Name":"Chiba","Lat":35.6073,"Lon":140.1064,"CountryCode":null},{"ID":9737,"Name":"Chichibu","Lat":35.9918,"Lon":139.0855,"CountryCode":null},{"ID":2776,"Name":"Chigasaki","Lat":35.3333,"Lon":139.4,"CountryCode":null},{"ID":11514,"Name":"Chikugo","Lat":33.2122,"Lon":130.5019,"CountryCode":null},{"ID":9787,"Name":"Chikuma","Lat":36.5339,"Lon":138.12,"CountryCode":null},{"ID":35023,"Name":"Chikura","Lat":34.95,"Lon":139.95,"CountryCode":null},{"ID":6243,"Name":"Chikusei","Lat":36.3071,"Lon":139.9831,"CountryCode":null},{"ID":5967,"Name":"Chikushino","Lat":33.5,"Lon":130.5167,"CountryCode":null},{"ID":17787,"Name":"Chikuzen","Lat":33.45,"Lon":130.6,"CountryCode":null},{"ID":10381,"Name":"Chino","Lat":35.9955,"Lon":138.1588,"CountryCode":null},{"ID":32897,"Name":"Chiran","Lat":31.3783,"Lon":130.4416,"CountryCode":null},{"ID":8174,"Name":"Chiryu","Lat":35.0014,"Lon":137.0506,"CountryCode":null},{"ID":7143,"Name":"Chita","Lat":35,"Lon":136.8667,"CountryCode":null},{"ID":6256,"Name":"Chitose","Lat":42.8167,"Lon":141.65,"CountryCode":null},{"ID":38916,"Name":"Chiyoda","Lat":36.2178,"Lon":139.4424,"CountryCode":null},{"ID":8765,"Name":"Chiyoda-ku","Lat":35.694,"Lon":139.7536,"CountryCode":null},{"ID":2811,"Name":"Chofugaoka","Lat":35.6506,"Lon":139.5407,"CountryCode":null},{"ID":32917,"Name":"Chosei","Lat":35.4167,"Lon":140.35,"CountryCode":null},{"ID":9968,"Name":"Choshi","Lat":35.7346,"Lon":140.8268,"CountryCode":null},{"ID":17237,"Name":"Chuo","Lat":35.5996,"Lon":138.6339,"CountryCode":null},{"ID":3809,"Name":"Chuo-ku","Lat":35.6667,"Lon":139.7667,"CountryCode":null},{"ID":29951,"Name":"Daigo","Lat":36.7681,"Lon":140.3552,"CountryCode":null},{"ID":30163,"Name":"Daisen","Lat":35.5,"Lon":133.5,"CountryCode":null},{"ID":7770,"Name":"Daisen","Lat":39.4531,"Lon":140.4754,"CountryCode":null},{"ID":5233,"Name":"Daitocho","Lat":34.7167,"Lon":135.6167,"CountryCode":null},{"ID":4116,"Name":"Daiwanishi","Lat":34.8892,"Lon":135.4167,"CountryCode":null},{"ID":9670,"Name":"Date","Lat":37.8191,"Lon":140.563,"CountryCode":null},{"ID":16055,"Name":"Date","Lat":42.4667,"Lon":140.8667,"CountryCode":null},{"ID":8123,"Name":"Dazaifu","Lat":33.5167,"Lon":130.5167,"CountryCode":null},{"ID":5202,"Name":"Ebetsu","Lat":43.1,"Lon":141.5333,"CountryCode":null},{"ID":4649,"Name":"Ebina","Lat":35.4464,"Lon":139.3908,"CountryCode":null},{"ID":27333,"Name":"Ebino","Lat":32.0453,"Lon":130.8108,"CountryCode":null},{"ID":24980,"Name":"Echizen","Lat":35.9742,"Lon":136.1298,"CountryCode":null},{"ID":7398,"Name":"Echizen","Lat":35.9035,"Lon":136.1687,"CountryCode":null},{"ID":1069,"Name":"Edogawa","Lat":35.7,"Lon":139.8833,"CountryCode":null},{"ID":25769,"Name":"Eiheiji","Lat":36.0922,"Lon":136.2987,"CountryCode":null},{"ID":11667,"Name":"Ena","Lat":35.4492,"Lon":137.4128,"CountryCode":null},{"ID":8378,"Name":"Eniwa","Lat":42.8833,"Lon":141.5833,"CountryCode":null},{"ID":20819,"Name":"Etajima","Lat":34.2167,"Lon":132.45,"CountryCode":null},{"ID":11044,"Name":"Fuchu","Lat":34.3925,"Lon":132.5044,"CountryCode":null},{"ID":2591,"Name":"Fuchu","Lat":35.6689,"Lon":139.4776,"CountryCode":null},{"ID":14844,"Name":"Fuchucho","Lat":34.565,"Lon":133.2419,"CountryCode":null},{"ID":8682,"Name":"Fuefuki","Lat":35.6473,"Lon":138.6397,"CountryCode":null},{"ID":2760,"Name":"Fuji","Lat":35.1613,"Lon":138.6763,"CountryCode":null},{"ID":9160,"Name":"Fujiidera","Lat":34.5667,"Lon":135.6,"CountryCode":null},{"ID":32289,"Name":"Fujikawa","Lat":35.5611,"Lon":138.4614,"CountryCode":null},{"ID":20174,"Name":"Fujikawaguchiko","Lat":35.4973,"Lon":138.7549,"CountryCode":null},{"ID":5549,"Name":"Fujimi","Lat":35.8566,"Lon":139.5492,"CountryCode":null},{"ID":32594,"Name":"Fujimi","Lat":35.9146,"Lon":138.2407,"CountryCode":null},{"ID":5479,"Name":"Fujimino","Lat":35.8795,"Lon":139.5198,"CountryCode":null},{"ID":39207,"Name":"Fujino","Lat":35.606,"Lon":139.143,"CountryCode":null},{"ID":9014,"Name":"Fujioka","Lat":36.2587,"Lon":139.0746,"CountryCode":null},{"ID":28764,"Name":"Fujioka","Lat":35.15,"Lon":138.6167,"CountryCode":null},{"ID":31520,"Name":"Fujisaki","Lat":40.6561,"Lon":140.5028,"CountryCode":null},{"ID":1649,"Name":"Fujisawa","Lat":35.35,"Lon":139.4667,"CountryCode":null},{"ID":44190,"Name":"Fujisawacho-niinuma","Lat":38.867,"Lon":141.35,"CountryCode":null},{"ID":4394,"Name":"Fujita","Lat":34.8674,"Lon":138.2577,"CountryCode":null},{"ID":11943,"Name":"Fujiyoshida","Lat":35.4875,"Lon":138.8077,"CountryCode":null},{"ID":23166,"Name":"Fukagawa","Lat":43.7178,"Lon":142.0403,"CountryCode":null},{"ID":4506,"Name":"Fukayacho","Lat":36.1975,"Lon":139.2815,"CountryCode":null},{"ID":7677,"Name":"Fukuchiyama","Lat":35.3,"Lon":135.1333,"CountryCode":null},{"ID":25152,"Name":"Fukude","Lat":34.6781,"Lon":137.8797,"CountryCode":null},{"ID":2584,"Name":"Fukui","Lat":36.0641,"Lon":136.2196,"CountryCode":null},{"ID":364,"Name":"Fukuoka","Lat":33.59,"Lon":130.4017,"CountryCode":null},{"ID":6931,"Name":"Fukuroi","Lat":34.7502,"Lon":137.9247,"CountryCode":null},{"ID":25521,"Name":"Fukusaki","Lat":34.95,"Lon":134.7667,"CountryCode":null},{"ID":2417,"Name":"Fukushima","Lat":37.7608,"Lon":140.4747,"CountryCode":null},{"ID":8862,"Name":"Fukutsu","Lat":33.7667,"Lon":130.4833,"CountryCode":null},{"ID":1593,"Name":"Fukuyama","Lat":34.4858,"Lon":133.3622,"CountryCode":null},{"ID":23393,"Name":"Fukuyoshi","Lat":33.6833,"Lon":130.78,"CountryCode":null},{"ID":10587,"Name":"Funato","Lat":34.25,"Lon":135.3167,"CountryCode":null},{"ID":23622,"Name":"Furano","Lat":43.35,"Lon":142.3833,"CountryCode":null},{"ID":22369,"Name":"Furukawa","Lat":36.2381,"Lon":137.1862,"CountryCode":null},{"ID":32424,"Name":"Furukawamen","Lat":33.2378,"Lon":129.6547,"CountryCode":null},{"ID":15681,"Name":"Fuso","Lat":35.3591,"Lon":136.9132,"CountryCode":null},{"ID":10097,"Name":"Fussa","Lat":35.7333,"Lon":139.3333,"CountryCode":null},{"ID":12978,"Name":"Futtsu","Lat":35.3041,"Lon":139.857,"CountryCode":null},{"ID":7415,"Name":"Gamagori","Lat":34.8431,"Lon":137.2196,"CountryCode":null},{"ID":1793,"Name":"Gifu","Lat":35.4232,"Lon":136.7608,"CountryCode":null},{"ID":20015,"Name":"Ginan","Lat":35.3896,"Lon":136.7825,"CountryCode":null},{"ID":6198,"Name":"Ginowan","Lat":26.2817,"Lon":127.7783,"CountryCode":null},{"ID":22251,"Name":"Gobo","Lat":33.8833,"Lon":135.15,"CountryCode":null},{"ID":25286,"Name":"Godo","Lat":35.4174,"Lon":136.6252,"CountryCode":null},{"ID":16105,"Name":"Gojo","Lat":34.3486,"Lon":135.6964,"CountryCode":null},{"ID":29609,"Name":"Gonohe","Lat":40.5312,"Lon":141.308,"CountryCode":null},{"ID":21018,"Name":"Gose","Lat":34.4667,"Lon":135.7333,"CountryCode":null},{"ID":11816,"Name":"Gosen","Lat":37.7444,"Lon":139.1826,"CountryCode":null},{"ID":12592,"Name":"Goshikicho-aihara-minamidani","Lat":34.3,"Lon":134.7833,"CountryCode":null},{"ID":11114,"Name":"Goshogawara","Lat":40.808,"Lon":140.4401,"CountryCode":null},{"ID":6972,"Name":"Gotenba","Lat":35.3087,"Lon":138.9346,"CountryCode":null},{"ID":15624,"Name":"Goto","Lat":32.7,"Lon":128.8333,"CountryCode":null},{"ID":22913,"Name":"Gotsucho","Lat":35.0117,"Lon":132.2178,"CountryCode":null},{"ID":14058,"Name":"Gujo","Lat":35.7486,"Lon":136.9643,"CountryCode":null},{"ID":7559,"Name":"Gyoda","Lat":36.1389,"Lon":139.4556,"CountryCode":null},{"ID":5714,"Name":"Habikino","Lat":34.55,"Lon":135.6,"CountryCode":null},{"ID":21464,"Name":"Hachimantai","Lat":39.9561,"Lon":141.0711,"CountryCode":null},{"ID":2993,"Name":"Hachinohe","Lat":40.5123,"Lon":141.4884,"CountryCode":null},{"ID":1291,"Name":"Hachioji","Lat":35.6664,"Lon":139.316,"CountryCode":null},{"ID":3914,"Name":"Hadano","Lat":35.3667,"Lon":139.2167,"CountryCode":null},{"ID":30968,"Name":"Haga","Lat":36.5483,"Lon":140.0582,"CountryCode":null},{"ID":12549,"Name":"Hagi","Lat":34.4081,"Lon":131.3992,"CountryCode":null},{"ID":2664,"Name":"Hakodate","Lat":41.7686,"Lon":140.7289,"CountryCode":null},{"ID":38684,"Name":"Hakone","Lat":35.1894,"Lon":139.0247,"CountryCode":null},{"ID":45917,"Name":"Hakubacho","Lat":36.6981,"Lon":137.8619,"CountryCode":null},{"ID":24624,"Name":"Hakui","Lat":36.8936,"Lon":136.779,"CountryCode":null},{"ID":11207,"Name":"Hamada","Lat":34.8992,"Lon":132.0964,"CountryCode":null},{"ID":6947,"Name":"Hamakita","Lat":34.7931,"Lon":137.79,"CountryCode":null},{"ID":959,"Name":"Hamamatsu","Lat":34.7108,"Lon":137.7275,"CountryCode":null},{"ID":10551,"Name":"Hamura","Lat":35.7672,"Lon":139.3109,"CountryCode":null},{"ID":6547,"Name":"Hanamaki Onsen","Lat":39.3886,"Lon":141.1169,"CountryCode":null},{"ID":18140,"Name":"Hanawa","Lat":40.2158,"Lon":140.7884,"CountryCode":null},{"ID":5297,"Name":"Handa","Lat":34.8919,"Lon":136.9381,"CountryCode":null},{"ID":11314,"Name":"Hannan","Lat":34.3597,"Lon":135.2394,"CountryCode":null},{"ID":7502,"Name":"Hanno","Lat":35.8557,"Lon":139.3277,"CountryCode":null},{"ID":10493,"Name":"Hanyu","Lat":36.1726,"Lon":139.5485,"CountryCode":null},{"ID":31902,"Name":"Haramachida","Lat":35.5434,"Lon":139.4452,"CountryCode":null},{"ID":15885,"Name":"Harima","Lat":34.7167,"Lon":134.8667,"CountryCode":null},{"ID":31770,"Name":"Hasami","Lat":33.1336,"Lon":129.8994,"CountryCode":null},{"ID":33740,"Name":"Hashikami","Lat":40.4525,"Lon":141.6211,"CountryCode":null},{"ID":8798,"Name":"Hashima","Lat":35.3199,"Lon":136.7033,"CountryCode":null},{"ID":9461,"Name":"Hashimoto","Lat":34.3167,"Lon":135.6,"CountryCode":null},{"ID":9411,"Name":"Hasuda","Lat":35.9945,"Lon":139.6624,"CountryCode":null},{"ID":9423,"Name":"Hatogaya-honcho","Lat":35.8333,"Lon":139.7333,"CountryCode":null},{"ID":33398,"Name":"Hatoyama","Lat":35.9814,"Lon":139.3341,"CountryCode":null},{"ID":5434,"Name":"Hatsukaichi","Lat":34.3483,"Lon":132.3317,"CountryCode":null},{"ID":16823,"Name":"Hayama","Lat":35.2725,"Lon":139.5861,"CountryCode":null},{"ID":34912,"Name":"Hayashima","Lat":34.6006,"Lon":133.8283,"CountryCode":null},{"ID":26662,"Name":"Heguri","Lat":34.6333,"Lon":135.7,"CountryCode":null},{"ID":8119,"Name":"Hekinan","Lat":34.8847,"Lon":136.9934,"CountryCode":null},{"ID":10422,"Name":"Hidaka","Lat":35.9078,"Lon":139.3391,"CountryCode":null},{"ID":36896,"Name":"Hidaka","Lat":42.4833,"Lon":142.0667,"CountryCode":null},{"ID":35366,"Name":"Higashiagatsuma","Lat":36.5714,"Lon":138.8256,"CountryCode":null},{"ID":3344,"Name":"Higashi-Hiroshima","Lat":34.4264,"Lon":132.7433,"CountryCode":null},{"ID":37487,"Name":"Higashiizu","Lat":34.7667,"Lon":139.0333,"CountryCode":null},{"ID":18464,"Name":"Higashikagawa","Lat":34.25,"Lon":134.3667,"CountryCode":null},{"ID":40832,"Name":"Higashikagura","Lat":43.7,"Lon":142.45,"CountryCode":null},{"ID":14021,"Name":"Higashimatsushima","Lat":38.4263,"Lon":141.2104,"CountryCode":null},{"ID":6603,"Name":"Higashi-Matsuyama","Lat":36.0422,"Lon":139.3999,"CountryCode":null},{"ID":32708,"Name":"Higashimiyoshi","Lat":34.0333,"Lon":133.9333,"CountryCode":null},{"ID":4234,"Name":"Higashimurayama","Lat":35.7546,"Lon":139.4685,"CountryCode":null},{"ID":11708,"Name":"Higashine","Lat":38.4313,"Lon":140.3911,"CountryCode":null},{"ID":5518,"Name":"Higashiomi","Lat":35.1167,"Lon":136.2,"CountryCode":null},{"ID":1507,"Name":"Higashi-osaka","Lat":34.6794,"Lon":135.6008,"CountryCode":null},{"ID":11418,"Name":"Higashiura","Lat":34.9771,"Lon":136.9656,"CountryCode":null},{"ID":7121,"Name":"Higashiyamato","Lat":35.7454,"Lon":139.4265,"CountryCode":null},{"ID":18705,"Name":"Hiji","Lat":33.3694,"Lon":131.5322,"CountryCode":null},{"ID":11450,"Name":"Hikari","Lat":33.9619,"Lon":131.9422,"CountryCode":null},{"ID":18839,"Name":"Hikawa","Lat":35.3833,"Lon":132.8333,"CountryCode":null},{"ID":38347,"Name":"Hikawadai","Lat":32.5667,"Lon":130.6667,"CountryCode":null},{"ID":5493,"Name":"Hikone","Lat":35.2667,"Lon":136.2667,"CountryCode":null},{"ID":1399,"Name":"Himeji","Lat":34.8167,"Lon":134.6833,"CountryCode":null},{"ID":12623,"Name":"Himi","Lat":36.8567,"Lon":136.9731,"CountryCode":null},{"ID":23759,"Name":"Hino","Lat":35.0167,"Lon":136.25,"CountryCode":null},{"ID":3445,"Name":"Hino","Lat":35.6713,"Lon":139.3951,"CountryCode":null},{"ID":27926,"Name":"Hinode","Lat":35.7421,"Lon":139.2546,"CountryCode":null},{"ID":11940,"Name":"Hioki","Lat":31.6117,"Lon":130.3731,"CountryCode":null},{"ID":18200,"Name":"Hirado","Lat":33.3667,"Lon":129.55,"CountryCode":null},{"ID":1805,"Name":"Hirakata","Lat":34.8167,"Lon":135.65,"CountryCode":null},{"ID":17381,"Name":"Hirakawacho","Lat":40.5841,"Lon":140.5665,"CountryCode":null},{"ID":41575,"Name":"Hiranai","Lat":40.9259,"Lon":140.9559,"CountryCode":null},{"ID":36515,"Name":"Hirao","Lat":33.9381,"Lon":132.0733,"CountryCode":null},{"ID":2612,"Name":"Hiratsuka","Lat":35.3167,"Lon":139.35,"CountryCode":null},{"ID":44672,"Name":"Hirayama","Lat":33.65,"Lon":130.5,"CountryCode":null},{"ID":24897,"Name":"Hirokawa","Lat":33.2417,"Lon":130.5514,"CountryCode":null},{"ID":31088,"Name":"Hirono","Lat":40.4085,"Lon":141.7187,"CountryCode":null},{"ID":3845,"Name":"Hirosaki","Lat":40.6031,"Lon":140.4638,"CountryCode":null},{"ID":638,"Name":"Hiroshima","Lat":34.3914,"Lon":132.4519,"CountryCode":null},{"ID":9365,"Name":"Hita","Lat":33.3214,"Lon":130.9411,"CountryCode":null},{"ID":3739,"Name":"Hitachi","Lat":36.5991,"Lon":140.6515,"CountryCode":null},{"ID":4142,"Name":"Hitachi-Naka","Lat":36.3967,"Lon":140.5347,"CountryCode":null},{"ID":14034,"Name":"Hitachiomiya","Lat":36.5425,"Lon":140.4109,"CountryCode":null},{"ID":11744,"Name":"Hitachi-ota","Lat":36.5383,"Lon":140.5309,"CountryCode":null},{"ID":16924,"Name":"Hitoyoshi","Lat":32.2167,"Lon":130.75,"CountryCode":null},{"ID":35984,"Name":"Hodatsushimizu","Lat":36.8627,"Lon":136.7976,"CountryCode":null},{"ID":5495,"Name":"Hofu","Lat":34.0514,"Lon":131.5625,"CountryCode":null},{"ID":39831,"Name":"Hoki","Lat":35.3856,"Lon":133.4072,"CountryCode":null},{"ID":12105,"Name":"Hokota","Lat":36.1587,"Lon":140.5164,"CountryCode":null},{"ID":32279,"Name":"Hokuei","Lat":35.4833,"Lon":133.7667,"CountryCode":null},{"ID":12163,"Name":"Hokuto","Lat":41.8242,"Lon":140.6528,"CountryCode":null},{"ID":12689,"Name":"Hokuto","Lat":35.7765,"Lon":138.4236,"CountryCode":null},{"ID":18603,"Name":"Honcho","Lat":41.9,"Lon":140.7,"CountryCode":null},{"ID":5342,"Name":"Honcho","Lat":35.758,"Lon":139.5299,"CountryCode":null},{"ID":1161,"Name":"Honcho","Lat":35.6946,"Lon":139.9826,"CountryCode":null},{"ID":7618,"Name":"Honjo","Lat":36.2436,"Lon":139.1904,"CountryCode":null},{"ID":5065,"Name":"Honmachi","Lat":32.5,"Lon":130.6,"CountryCode":null},{"ID":22797,"Name":"Honmachi","Lat":36.0609,"Lon":136.5006,"CountryCode":null},{"ID":37687,"Name":"Honmachi","Lat":43.9167,"Lon":144.6667,"CountryCode":null},{"ID":5992,"Name":"Hoyacho","Lat":35.7483,"Lon":139.5675,"CountryCode":null},{"ID":9721,"Name":"Hyuga","Lat":32.4228,"Lon":131.6239,"CountryCode":null},{"ID":14219,"Name":"Ibara","Lat":34.6,"Lon":133.4667,"CountryCode":null},{"ID":16954,"Name":"Ibaraki","Lat":36.2869,"Lon":140.4245,"CountryCode":null},{"ID":2421,"Name":"Ibaraki","Lat":34.8164,"Lon":135.5686,"CountryCode":null},{"ID":25147,"Name":"Ibigawa","Lat":35.4873,"Lon":136.5686,"CountryCode":null},{"ID":14121,"Name":"Ibusuki","Lat":31.2528,"Lon":130.6331,"CountryCode":null},{"ID":2524,"Name":"Ichihara","Lat":35.4981,"Lon":140.1154,"CountryCode":null},{"ID":37920,"Name":"Ichikai","Lat":36.55,"Lon":140.1,"CountryCode":null},{"ID":38381,"Name":"Ichikawa","Lat":34.9833,"Lon":134.7667,"CountryCode":null},{"ID":1504,"Name":"Ichikawa","Lat":35.7219,"Lon":139.9311,"CountryCode":null},{"ID":31543,"Name":"Ichikawamisato","Lat":35.5653,"Lon":138.5025,"CountryCode":null},{"ID":19132,"Name":"Ichikikushikino","Lat":31.7167,"Lon":130.2667,"CountryCode":null},{"ID":37698,"Name":"Ichinohe","Lat":40.2129,"Lon":141.2954,"CountryCode":null},{"ID":36958,"Name":"Ichinomiya","Lat":35.3667,"Lon":140.3667,"CountryCode":null},{"ID":1877,"Name":"Ichinomiya","Lat":35.3039,"Lon":136.8031,"CountryCode":null},{"ID":5554,"Name":"Ichinoseki","Lat":38.9347,"Lon":141.1266,"CountryCode":null},{"ID":7001,"Name":"Iga","Lat":34.7667,"Lon":136.1333,"CountryCode":null},{"ID":6332,"Name":"Iida","Lat":35.515,"Lon":137.8214,"CountryCode":null},{"ID":44424,"Name":"Iijima","Lat":35.6767,"Lon":137.9198,"CountryCode":null},{"ID":38607,"Name":"Iioka","Lat":35.7,"Lon":140.7167,"CountryCode":null},{"ID":25370,"Name":"Iiyama","Lat":36.8516,"Lon":138.3655,"CountryCode":null},{"ID":4972,"Name":"Iizuka","Lat":33.65,"Lon":130.6833,"CountryCode":null},{"ID":40885,"Name":"Iizuna","Lat":36.7548,"Lon":138.2355,"CountryCode":null},{"ID":19004,"Name":"Ikaruga","Lat":34.6167,"Lon":135.7333,"CountryCode":null},{"ID":21779,"Name":"Ikeda","Lat":35.4423,"Lon":136.573,"CountryCode":null},{"ID":5920,"Name":"Ikeda","Lat":34.8217,"Lon":135.4286,"CountryCode":null},{"ID":43600,"Name":"Ikeda","Lat":36.4212,"Lon":137.8746,"CountryCode":null},{"ID":20633,"Name":"Iki","Lat":33.7497,"Lon":129.6914,"CountryCode":null},{"ID":5340,"Name":"Ikoma","Lat":34.7,"Lon":135.7,"CountryCode":null},{"ID":4191,"Name":"Imabari","Lat":34.0667,"Lon":133,"CountryCode":null},{"ID":10405,"Name":"Imaricho-ko","Lat":33.2667,"Lon":129.8833,"CountryCode":null},{"ID":6703,"Name":"Imizucho","Lat":36.7306,"Lon":137.0756,"CountryCode":null},{"ID":8871,"Name":"Ina","Lat":35.8275,"Lon":137.954,"CountryCode":null},{"ID":12770,"Name":"Inabe","Lat":35.1156,"Lon":136.5614,"CountryCode":null},{"ID":17813,"Name":"Inagawa","Lat":34.9,"Lon":135.3833,"CountryCode":null},{"ID":6560,"Name":"Inagi","Lat":35.6379,"Lon":139.5046,"CountryCode":null},{"ID":17466,"Name":"Inami","Lat":34.75,"Lon":134.9167,"CountryCode":null},{"ID":41547,"Name":"Inami","Lat":36.5602,"Lon":136.971,"CountryCode":null},{"ID":14029,"Name":"Inashiki","Lat":35.9565,"Lon":140.3239,"CountryCode":null},{"ID":33327,"Name":"Inawashiro","Lat":37.5744,"Lon":140.1215,"CountryCode":null},{"ID":4672,"Name":"Inazawa","Lat":35.2647,"Lon":136.7969,"CountryCode":null},{"ID":23937,"Name":"Ino","Lat":33.55,"Lon":133.4333,"CountryCode":null},{"ID":12283,"Name":"Inuma","Lat":36.0001,"Lon":139.6242,"CountryCode":null},{"ID":8033,"Name":"Inuyama","Lat":35.3786,"Lon":136.9445,"CountryCode":null},{"ID":5972,"Name":"Inzai","Lat":35.8333,"Lon":140.15,"CountryCode":null},{"ID":4385,"Name":"Iruma","Lat":35.8358,"Lon":139.3911,"CountryCode":null},{"ID":21174,"Name":"Isa","Lat":32.0572,"Lon":130.6131,"CountryCode":null},{"ID":4759,"Name":"Isahaya","Lat":32.85,"Lon":130.0667,"CountryCode":null},{"ID":5093,"Name":"Ise","Lat":34.4833,"Lon":136.7167,"CountryCode":null},{"ID":6023,"Name":"Isehara","Lat":35.3833,"Lon":139.3,"CountryCode":null},{"ID":3115,"Name":"Isesaki","Lat":36.3114,"Lon":139.1968,"CountryCode":null},{"ID":29364,"Name":"Ishidoriyacho-eso","Lat":39.4839,"Lon":141.1471,"CountryCode":null},{"ID":11615,"Name":"Ishigaki","Lat":24.3406,"Lon":124.1556,"CountryCode":null},{"ID":20646,"Name":"Ishii","Lat":34.0667,"Lon":134.4333,"CountryCode":null},{"ID":9861,"Name":"Ishikari","Lat":43.1667,"Lon":141.3167,"CountryCode":null},{"ID":31954,"Name":"Ishikawa","Lat":37.1571,"Lon":140.4468,"CountryCode":null},{"ID":21448,"Name":"Ishiki","Lat":34.8167,"Lon":137.0333,"CountryCode":null},{"ID":8180,"Name":"Ishioka","Lat":36.1908,"Lon":140.2872,"CountryCode":null},{"ID":4557,"Name":"Ishizaki","Lat":38.4176,"Lon":141.3027,"CountryCode":null},{"ID":15133,"Name":"Isumi","Lat":35.2539,"Lon":140.3852,"CountryCode":null},{"ID":1277,"Name":"Itabashi","Lat":35.7667,"Lon":139.6833,"CountryCode":null},{"ID":18985,"Name":"Itako","Lat":35.9471,"Lon":140.5554,"CountryCode":null},{"ID":32234,"Name":"Itakura","Lat":36.2229,"Lon":139.6103,"CountryCode":null},{"ID":3348,"Name":"Itami","Lat":34.7833,"Lon":135.4,"CountryCode":null},{"ID":33898,"Name":"Itano","Lat":34.1444,"Lon":134.4626,"CountryCode":null},{"ID":34714,"Name":"Itayanagi","Lat":40.6959,"Lon":140.4572,"CountryCode":null},{"ID":9158,"Name":"Ito","Lat":34.9657,"Lon":139.1019,"CountryCode":null},{"ID":13591,"Name":"Itoigawa","Lat":37.039,"Lon":137.8627,"CountryCode":null},{"ID":9480,"Name":"Itoman","Lat":26.1236,"Lon":127.6658,"CountryCode":null},{"ID":6232,"Name":"Itoshima","Lat":33.5539,"Lon":130.1978,"CountryCode":null},{"ID":22609,"Name":"Itsukaichi","Lat":35.7522,"Lon":139.2667,"CountryCode":null},{"ID":39341,"Name":"Iwai","Lat":35.5833,"Lon":134.3333,"CountryCode":null},{"ID":46169,"Name":"Iwaizumi","Lat":39.8431,"Lon":141.7964,"CountryCode":null},{"ID":36422,"Name":"Iwaka","Lat":40.6159,"Lon":140.4213,"CountryCode":null},{"ID":2081,"Name":"Iwaki","Lat":37.0505,"Lon":140.8877,"CountryCode":null},{"ID":4928,"Name":"Iwakuni","Lat":34.1664,"Lon":132.2189,"CountryCode":null},{"ID":11673,"Name":"Iwakura","Lat":35.2794,"Lon":136.8714,"CountryCode":null},{"ID":7482,"Name":"Iwamizawa","Lat":43.2,"Lon":141.7833,"CountryCode":null},{"ID":41879,"Name":"Iwamuro-onsen","Lat":37.7375,"Lon":138.8391,"CountryCode":null},{"ID":36189,"Name":"Iwanai","Lat":42.9789,"Lon":140.5092,"CountryCode":null},{"ID":12494,"Name":"Iwanuma","Lat":38.1043,"Lon":140.8702,"CountryCode":null},{"ID":41580,"Name":"Iwashita","Lat":32.65,"Lon":130.8167,"CountryCode":null},{"ID":3887,"Name":"Iwata","Lat":34.7179,"Lon":137.8515,"CountryCode":null},{"ID":35953,"Name":"Iwate","Lat":39.9728,"Lon":141.2122,"CountryCode":null},{"ID":15429,"Name":"Iyo","Lat":33.75,"Lon":132.7,"CountryCode":null},{"ID":18369,"Name":"Izu","Lat":34.9765,"Lon":138.9468,"CountryCode":null},{"ID":10708,"Name":"Izumi","Lat":32.0833,"Lon":130.35,"CountryCode":null},{"ID":7951,"Name":"Izumiotsu","Lat":34.5,"Lon":135.4,"CountryCode":null},{"ID":6192,"Name":"Izumisano","Lat":34.4,"Lon":135.3333,"CountryCode":null},{"ID":3755,"Name":"Izumo","Lat":35.3669,"Lon":132.7547,"CountryCode":null},{"ID":12034,"Name":"Izunokuni","Lat":35.0333,"Lon":138.9333,"CountryCode":null},{"ID":3490,"Name":"Joetsu","Lat":37.1479,"Lon":138.2361,"CountryCode":null},{"ID":9715,"Name":"Joso","Lat":36.0236,"Lon":139.9938,"CountryCode":null},{"ID":8082,"Name":"Joyo","Lat":34.8531,"Lon":135.78,"CountryCode":null},{"ID":33511,"Name":"Kadena","Lat":26.3617,"Lon":127.7553,"CountryCode":null},{"ID":27533,"Name":"Kadogawa","Lat":32.4711,"Lon":131.6461,"CountryCode":null},{"ID":5254,"Name":"Kadoma","Lat":34.7333,"Lon":135.5833,"CountryCode":null},{"ID":9206,"Name":"Kaga","Lat":36.3028,"Lon":136.315,"CountryCode":null},{"ID":36392,"Name":"Kagamino","Lat":35.0919,"Lon":133.9331,"CountryCode":null},{"ID":1260,"Name":"Kagoshima","Lat":31.6,"Lon":130.55,"CountryCode":null},{"ID":27433,"Name":"Kahoku","Lat":38.4264,"Lon":140.3144,"CountryCode":null},{"ID":15421,"Name":"Kahoku","Lat":36.7198,"Lon":136.7067,"CountryCode":null},{"ID":7850,"Name":"Kai","Lat":35.6608,"Lon":138.5158,"CountryCode":null},{"ID":17678,"Name":"Kaita","Lat":34.3722,"Lon":132.5361,"CountryCode":null},{"ID":15409,"Name":"Kaizu","Lat":35.2206,"Lon":136.6365,"CountryCode":null},{"ID":7113,"Name":"Kaizuka","Lat":34.4333,"Lon":135.3667,"CountryCode":null},{"ID":4425,"Name":"Kakamigahara","Lat":35.3988,"Lon":136.8484,"CountryCode":null},{"ID":5463,"Name":"Kakegawa","Lat":34.7687,"Lon":137.9984,"CountryCode":null},{"ID":2606,"Name":"Kakogawacho-honmachi","Lat":34.75,"Lon":134.8333,"CountryCode":null},{"ID":18727,"Name":"Kakuda","Lat":37.977,"Lon":140.7821,"CountryCode":null},{"ID":32090,"Name":"Kakunodatemachi","Lat":39.5993,"Lon":140.5615,"CountryCode":null},{"ID":5659,"Name":"Kamagaya","Lat":35.7768,"Lon":140.0008,"CountryCode":null},{"ID":16187,"Name":"Kamaishi","Lat":39.2758,"Lon":141.8857,"CountryCode":null},{"ID":3730,"Name":"Kamakurayama","Lat":35.3197,"Lon":139.5525,"CountryCode":null},{"ID":15282,"Name":"Kamata","Lat":33.5632,"Lon":130.7118,"CountryCode":null},{"ID":16445,"Name":"Kameda-honcho","Lat":37.8678,"Lon":139.0942,"CountryCode":null},{"ID":6998,"Name":"Kameoka","Lat":35.0167,"Lon":135.5667,"CountryCode":null},{"ID":11378,"Name":"Kameyama","Lat":34.8558,"Lon":136.4517,"CountryCode":null},{"ID":23126,"Name":"Kami","Lat":38.5718,"Lon":140.8548,"CountryCode":null},{"ID":20126,"Name":"Kami","Lat":33.6,"Lon":133.6833,"CountryCode":null},{"ID":21291,"Name":"Kamiamakusa","Lat":32.5,"Lon":130.4167,"CountryCode":null},{"ID":11719,"Name":"Kamidani","Lat":34.1575,"Lon":135.2397,"CountryCode":null},{"ID":39805,"Name":"Kamifurano","Lat":43.45,"Lon":142.4667,"CountryCode":null},{"ID":32611,"Name":"Kamigori","Lat":34.8667,"Lon":134.35,"CountryCode":null},{"ID":25332,"Name":"Kamiichi","Lat":36.7,"Lon":137.3667,"CountryCode":null},{"ID":37551,"Name":"Kamiita","Lat":34.1167,"Lon":134.4,"CountryCode":null},{"ID":33923,"Name":"Kamikawa","Lat":36.2139,"Lon":139.1017,"CountryCode":null},{"ID":39635,"Name":"Kamikawa","Lat":35.0667,"Lon":134.7333,"CountryCode":null},{"ID":42133,"Name":"Kami-kawabe","Lat":35.4866,"Lon":137.0707,"CountryCode":null},{"ID":41995,"Name":"Kamikita-kita","Lat":40.736,"Lon":140.956,"CountryCode":null},{"ID":17127,"Name":"Kaminokawa","Lat":36.4393,"Lon":139.9099,"CountryCode":null},{"ID":17591,"Name":"Kaminoyama","Lat":38.1496,"Lon":140.2679,"CountryCode":null},{"ID":3394,"Name":"Kamirenjaku","Lat":35.6836,"Lon":139.5595,"CountryCode":null},{"ID":17584,"Name":"Kamisato","Lat":36.2516,"Lon":139.1447,"CountryCode":null},{"ID":6393,"Name":"Kamisu","Lat":35.8899,"Lon":140.6645,"CountryCode":null},{"ID":30562,"Name":"Kamitonda","Lat":33.7,"Lon":135.4333,"CountryCode":null},{"ID":14948,"Name":"Kanada","Lat":33.7758,"Lon":130.9806,"CountryCode":null},{"ID":39636,"Name":"Kanagicho","Lat":40.9026,"Lon":140.462,"CountryCode":null},{"ID":29946,"Name":"Kanan","Lat":34.4833,"Lon":135.6333,"CountryCode":null},{"ID":24310,"Name":"Kanaya","Lat":34.8345,"Lon":138.1267,"CountryCode":null},{"ID":1584,"Name":"Kanazawa","Lat":36.5611,"Lon":136.6564,"CountryCode":null},{"ID":34529,"Name":"Kanbara","Lat":35.1159,"Lon":138.5949,"CountryCode":null},{"ID":7927,"Name":"Kandori","Lat":35.6796,"Lon":139.9062,"CountryCode":null},{"ID":30161,"Name":"Kanegasaki","Lat":39.1957,"Lon":141.1163,"CountryCode":null},{"ID":6179,"Name":"Kani","Lat":35.4261,"Lon":137.0613,"CountryCode":null},{"ID":14711,"Name":"Kanie","Lat":35.1322,"Lon":136.7868,"CountryCode":null},{"ID":23568,"Name":"Kanmaki","Lat":34.5667,"Lon":135.7167,"CountryCode":null},{"ID":14769,"Name":"Kannan","Lat":35.0889,"Lon":138.9534,"CountryCode":null},{"ID":9908,"Name":"Kan'onjicho","Lat":34.1272,"Lon":133.6614,"CountryCode":null},{"ID":5919,"Name":"Kanoya","Lat":31.3831,"Lon":130.8519,"CountryCode":null},{"ID":34944,"Name":"Kanra","Lat":36.243,"Lon":138.9218,"CountryCode":null},{"ID":6457,"Name":"Kanuma","Lat":36.5671,"Lon":139.7451,"CountryCode":null},{"ID":16630,"Name":"Kanzakimachi-kanzaki","Lat":33.3167,"Lon":130.3667,"CountryCode":null},{"ID":5367,"Name":"Karatsu","Lat":33.45,"Lon":129.9667,"CountryCode":null},{"ID":4170,"Name":"Kariya","Lat":34.9893,"Lon":137.0021,"CountryCode":null},{"ID":12204,"Name":"Kariya","Lat":34.7517,"Lon":134.3931,"CountryCode":null},{"ID":25031,"Name":"Karuizawa","Lat":36.3486,"Lon":138.5969,"CountryCode":null},{"ID":29858,"Name":"Kasagi","Lat":34.3,"Lon":135.5,"CountryCode":null},{"ID":12976,"Name":"Kasai","Lat":34.9333,"Lon":134.8333,"CountryCode":null},{"ID":35533,"Name":"Kasaishi","Lat":37.2528,"Lon":140.3434,"CountryCode":null},{"ID":8020,"Name":"Kasama","Lat":36.3452,"Lon":140.3043,"CountryCode":null},{"ID":22488,"Name":"Kasamatsucho","Lat":35.3672,"Lon":136.7632,"CountryCode":null},{"ID":12056,"Name":"Kasaoka","Lat":34.5039,"Lon":133.51,"CountryCode":null},{"ID":13970,"Name":"Kaseda-shirakame","Lat":31.4169,"Lon":130.3228,"CountryCode":null},{"ID":7573,"Name":"Kashiba","Lat":34.5333,"Lon":135.7,"CountryCode":null},{"ID":8724,"Name":"Kashima","Lat":35.9656,"Lon":140.6448,"CountryCode":null},{"ID":18800,"Name":"Kashima","Lat":33.1036,"Lon":130.0989,"CountryCode":null},{"ID":1682,"Name":"Kashiwa","Lat":35.8676,"Lon":139.9758,"CountryCode":null},{"ID":5120,"Name":"Kashiwara","Lat":34.5167,"Lon":135.8,"CountryCode":null},{"ID":8644,"Name":"Kashiwara","Lat":34.5833,"Lon":135.6333,"CountryCode":null},{"ID":7342,"Name":"Kashiwazaki","Lat":37.3719,"Lon":138.559,"CountryCode":null},{"ID":5587,"Name":"Kasuga","Lat":33.5333,"Lon":130.4667,"CountryCode":null},{"ID":2262,"Name":"Kasugai","Lat":35.2475,"Lon":136.9722,"CountryCode":null},{"ID":2913,"Name":"Kasukabe","Lat":35.9753,"Lon":139.7523,"CountryCode":null},{"ID":28887,"Name":"Kasumi","Lat":35.6333,"Lon":134.6333,"CountryCode":null},{"ID":13688,"Name":"Kasumigaura","Lat":36.1517,"Lon":140.2371,"CountryCode":null},{"ID":11672,"Name":"Kasuya","Lat":33.6167,"Lon":130.4833,"CountryCode":null},{"ID":16816,"Name":"Katagami","Lat":39.8832,"Lon":139.9886,"CountryCode":null},{"ID":7654,"Name":"Katano","Lat":34.7833,"Lon":135.6833,"CountryCode":null},{"ID":13435,"Name":"Kato","Lat":34.9167,"Lon":134.9667,"CountryCode":null},{"ID":7926,"Name":"Katori","Lat":35.6833,"Lon":140.0333,"CountryCode":null},{"ID":14562,"Name":"Katsuragi","Lat":34.4833,"Lon":135.7333,"CountryCode":null},{"ID":13496,"Name":"Katsuren-haebaru","Lat":26.1911,"Lon":127.7286,"CountryCode":null},{"ID":1614,"Name":"Katsushika-ku","Lat":35.7333,"Lon":139.85,"CountryCode":null},{"ID":28327,"Name":"Katsuura","Lat":35.15,"Lon":140.3167,"CountryCode":null},{"ID":44457,"Name":"Katsuyama","Lat":35.0876,"Lon":133.6913,"CountryCode":null},{"ID":1521,"Name":"Kawachicho","Lat":34.6794,"Lon":135.6008,"CountryCode":null},{"ID":6126,"Name":"Kawachinagano","Lat":34.4667,"Lon":135.5667,"CountryCode":null},{"ID":1978,"Name":"Kawagoe","Lat":35.9251,"Lon":139.4858,"CountryCode":null},{"ID":30549,"Name":"Kawagoe","Lat":35.0167,"Lon":136.6667,"CountryCode":null},{"ID":1235,"Name":"Kawaguchi","Lat":35.8077,"Lon":139.7241,"CountryCode":null},{"ID":27993,"Name":"Kawai","Lat":34.5833,"Lon":135.7333,"CountryCode":null},{"ID":43779,"Name":"Kawai","Lat":35.2,"Lon":138.5667,"CountryCode":null},{"ID":32003,"Name":"Kawaii","Lat":38.0045,"Lon":140.0458,"CountryCode":null},{"ID":35002,"Name":"Kawamata","Lat":37.665,"Lon":140.5983,"CountryCode":null},{"ID":30412,"Name":"Kawaminami","Lat":32.1919,"Lon":131.5258,"CountryCode":null},{"ID":41606,"Name":"Kawara","Lat":33.6681,"Lon":130.8472,"CountryCode":null},{"ID":30433,"Name":"Kawasaki","Lat":33.6,"Lon":130.815,"CountryCode":null},{"ID":510,"Name":"Kawasaki","Lat":35.5167,"Lon":139.7,"CountryCode":null},{"ID":4192,"Name":"Kawashiri","Lat":34.8333,"Lon":135.4167,"CountryCode":null},{"ID":33387,"Name":"Kawatana","Lat":33.0667,"Lon":129.8667,"CountryCode":null},{"ID":5506,"Name":"Kazo","Lat":36.1314,"Lon":139.6018,"CountryCode":null},{"ID":34349,"Name":"Keisen","Lat":33.5833,"Lon":130.6833,"CountryCode":null},{"ID":37256,"Name":"Kemigawa","Lat":35.6514,"Lon":140.0662,"CountryCode":null},{"ID":9711,"Name":"Kesennuma","Lat":38.9081,"Lon":141.5699,"CountryCode":null},{"ID":39817,"Name":"Kibichuo","Lat":34.8633,"Lon":133.6936,"CountryCode":null},{"ID":40058,"Name":"Kiho","Lat":33.7333,"Lon":136,"CountryCode":null},{"ID":31674,"Name":"Kihoku","Lat":34.2114,"Lon":136.3372,"CountryCode":null},{"ID":12088,"Name":"Kikuchi","Lat":32.9833,"Lon":130.8167,"CountryCode":null},{"ID":11833,"Name":"Kikugawa","Lat":34.75,"Lon":138.0833,"CountryCode":null},{"ID":12693,"Name":"Kikuyo","Lat":32.85,"Lon":130.8167,"CountryCode":null},{"ID":7318,"Name":"Kimitsu","Lat":35.3304,"Lon":139.9027,"CountryCode":null},{"ID":37797,"Name":"Kin","Lat":26.4561,"Lon":127.9261,"CountryCode":null},{"ID":5043,"Name":"Kirishima","Lat":31.7406,"Lon":130.7631,"CountryCode":null},{"ID":5835,"Name":"Kiryu","Lat":36.4052,"Lon":139.4973,"CountryCode":null},{"ID":24820,"Name":"Kisai","Lat":36.1,"Lon":139.5667,"CountryCode":null},{"ID":32122,"Name":"Kisanuki","Lat":31.2792,"Lon":130.9925,"CountryCode":null},{"ID":4643,"Name":"Kisarazu","Lat":35.376,"Lon":139.9168,"CountryCode":null},{"ID":26535,"Name":"Kishi","Lat":35.3333,"Lon":139.1333,"CountryCode":null},{"ID":3479,"Name":"Kishiwada","Lat":34.4667,"Lon":135.3667,"CountryCode":null},{"ID":39989,"Name":"Kiso","Lat":35.9363,"Lon":137.7831,"CountryCode":null},{"ID":17739,"Name":"Kitaakita","Lat":40.226,"Lon":140.3708,"CountryCode":null},{"ID":26422,"Name":"Kitagata","Lat":35.4333,"Lon":136.6833,"CountryCode":null},{"ID":27114,"Name":"Kitahiroshima","Lat":34.6744,"Lon":132.5383,"CountryCode":null},{"ID":9883,"Name":"Kitahiroshima","Lat":42.9833,"Lon":141.5667,"CountryCode":null},{"ID":13246,"Name":"Kitaibaraki","Lat":36.8019,"Lon":140.751,"CountryCode":null},{"ID":22317,"Name":"Kitajima","Lat":34.1333,"Lon":134.55,"CountryCode":null},{"ID":6579,"Name":"Kitakami","Lat":39.2867,"Lon":141.1132,"CountryCode":null},{"ID":12180,"Name":"Kitakata","Lat":37.6511,"Lon":139.8748,"CountryCode":null},{"ID":7133,"Name":"Kitakoriyamacho","Lat":34.65,"Lon":135.7833,"CountryCode":null},{"ID":1987,"Name":"Kita-ku","Lat":35.75,"Lon":139.7333,"CountryCode":null},{"ID":828,"Name":"Kitakyushu","Lat":33.8833,"Lon":130.8833,"CountryCode":null},{"ID":8942,"Name":"Kitamoto","Lat":36.0269,"Lon":139.5302,"CountryCode":null},{"ID":6993,"Name":"Kitanagoya","Lat":35.2456,"Lon":136.8659,"CountryCode":null},{"ID":27901,"Name":"Kitanakagusuku","Lat":26.3011,"Lon":127.7931,"CountryCode":null},{"ID":25285,"Name":"Kitatajima","Lat":35.9821,"Lon":139.4816,"CountryCode":null},{"ID":18823,"Name":"Kitsuki","Lat":33.4169,"Lon":131.6161,"CountryCode":null},{"ID":27396,"Name":"Kiyama","Lat":33.4333,"Lon":130.5167,"CountryCode":null},{"ID":7843,"Name":"Kiyose","Lat":35.7857,"Lon":139.5265,"CountryCode":null},{"ID":8446,"Name":"Kiyosu","Lat":35.1998,"Lon":136.8529,"CountryCode":null},{"ID":7608,"Name":"Kizugawa","Lat":34.7372,"Lon":135.82,"CountryCode":null},{"ID":12769,"Name":"Kobayashi","Lat":31.9967,"Lon":130.9725,"CountryCode":null},{"ID":511,"Name":"Kobe","Lat":34.69,"Lon":135.1956,"CountryCode":null},{"ID":2148,"Name":"Kochi","Lat":33.5589,"Lon":133.5314,"CountryCode":null},{"ID":3350,"Name":"Kodaira","Lat":35.7285,"Lon":139.4774,"CountryCode":null},{"ID":5397,"Name":"Koencho","Lat":43.8031,"Lon":143.8947,"CountryCode":null},{"ID":3495,"Name":"Kofu","Lat":35.6621,"Lon":138.5682,"CountryCode":null},{"ID":4571,"Name":"Koga","Lat":36.1782,"Lon":139.7554,"CountryCode":null},{"ID":9708,"Name":"Koga","Lat":33.7333,"Lon":130.4667,"CountryCode":null},{"ID":4937,"Name":"Koganei","Lat":35.6995,"Lon":139.503,"CountryCode":null},{"ID":9803,"Name":"Koja","Lat":26.3344,"Lon":127.8057,"CountryCode":null},{"ID":6741,"Name":"Koka","Lat":34.9667,"Lon":136.1667,"CountryCode":null},{"ID":9518,"Name":"Kokawa","Lat":34.2664,"Lon":135.3653,"CountryCode":null},{"ID":4854,"Name":"Kokubunji","Lat":35.7109,"Lon":139.4622,"CountryCode":null},{"ID":7107,"Name":"Komae","Lat":35.6348,"Lon":139.5787,"CountryCode":null},{"ID":16731,"Name":"Komagane","Lat":35.7288,"Lon":137.9339,"CountryCode":null},{"ID":4321,"Name":"Komaki","Lat":35.291,"Lon":136.9121,"CountryCode":null},{"ID":5701,"Name":"Komatsu","Lat":36.4083,"Lon":136.4455,"CountryCode":null},{"ID":14929,"Name":"Komatsushimacho","Lat":34.0003,"Lon":134.5844,"CountryCode":null},{"ID":42111,"Name":"Kominato","Lat":40.9259,"Lon":140.9559,"CountryCode":null},{"ID":13553,"Name":"Komono","Lat":35.0167,"Lon":136.5,"CountryCode":null},{"ID":13337,"Name":"Komoro","Lat":36.3275,"Lon":138.4258,"CountryCode":null},{"ID":16559,"Name":"Konan","Lat":33.5667,"Lon":133.7,"CountryCode":null},{"ID":6294,"Name":"Konan","Lat":35.3321,"Lon":136.8707,"CountryCode":null},{"ID":10474,"Name":"Konan","Lat":35,"Lon":136.0833,"CountryCode":null},{"ID":5325,"Name":"Konosu","Lat":36.0659,"Lon":139.5222,"CountryCode":null},{"ID":37422,"Name":"Koori","Lat":37.8494,"Lon":140.5164,"CountryCode":null},{"ID":2141,"Name":"Koriyama","Lat":37.4004,"Lon":140.3597,"CountryCode":null},{"ID":15966,"Name":"Koryo","Lat":34.55,"Lon":135.75,"CountryCode":null},{"ID":9943,"Name":"Kosai","Lat":34.7184,"Lon":137.5316,"CountryCode":null},{"ID":2056,"Name":"Koshigaya","Lat":35.8911,"Lon":139.7909,"CountryCode":null},{"ID":9331,"Name":"Koshizuka","Lat":32.886,"Lon":130.7897,"CountryCode":null},{"ID":17969,"Name":"Koshu","Lat":35.7043,"Lon":138.7294,"CountryCode":null},{"ID":12921,"Name":"Kota","Lat":34.8645,"Lon":137.1657,"CountryCode":null},{"ID":1406,"Name":"Koto-ku","Lat":35.6667,"Lon":139.8167,"CountryCode":null},{"ID":29014,"Name":"Kotoura","Lat":35.5,"Lon":133.7,"CountryCode":null},{"ID":23090,"Name":"Kozakai-cho","Lat":34.8,"Lon":137.3667,"CountryCode":null},{"ID":10108,"Name":"Kudamatsu","Lat":34.015,"Lon":131.8703,"CountryCode":null},{"ID":15627,"Name":"Kuji","Lat":40.1905,"Lon":141.7757,"CountryCode":null},{"ID":31246,"Name":"Kujukuri","Lat":35.5333,"Lon":140.4333,"CountryCode":null},{"ID":4239,"Name":"Kukichuo","Lat":36.0621,"Lon":139.6668,"CountryCode":null},{"ID":3408,"Name":"Kumagaya","Lat":36.1474,"Lon":139.3886,"CountryCode":null},{"ID":28390,"Name":"Kumage","Lat":34.0495,"Lon":131.969,"CountryCode":null},{"ID":1009,"Name":"Kumamoto","Lat":32.8031,"Lon":130.7078,"CountryCode":null},{"ID":29554,"Name":"Kumano","Lat":33.8886,"Lon":136.1002,"CountryCode":null},{"ID":22237,"Name":"Kumano","Lat":34.3358,"Lon":132.5847,"CountryCode":null},{"ID":12661,"Name":"Kumatori","Lat":34.4,"Lon":135.35,"CountryCode":null},{"ID":30344,"Name":"Kumiyama","Lat":34.8814,"Lon":135.7328,"CountryCode":null},{"ID":19978,"Name":"Kunisakimachi-tsurugawa","Lat":33.5633,"Lon":131.7322,"CountryCode":null},{"ID":7864,"Name":"Kunitachi","Lat":35.6839,"Lon":139.4414,"CountryCode":null},{"ID":26255,"Name":"Kunitomi","Lat":31.9906,"Lon":131.3236,"CountryCode":null},{"ID":1550,"Name":"Kurashiki","Lat":34.585,"Lon":133.7722,"CountryCode":null},{"ID":30874,"Name":"Kurate","Lat":33.8,"Lon":130.6667,"CountryCode":null},{"ID":12016,"Name":"Kurayoshi","Lat":35.4333,"Lon":133.8167,"CountryCode":null},{"ID":3128,"Name":"Kure","Lat":34.2492,"Lon":132.5658,"CountryCode":null},{"ID":9119,"Name":"Kurihara","Lat":38.7301,"Lon":141.0215,"CountryCode":null},{"ID":37304,"Name":"Kuriyama","Lat":43.05,"Lon":141.7833,"CountryCode":null},{"ID":13767,"Name":"Kurobeshin","Lat":36.8667,"Lon":137.45,"CountryCode":null},{"ID":16793,"Name":"Kuroishi","Lat":40.6426,"Lon":140.6113,"CountryCode":null},{"ID":41076,"Name":"Kuroshio","Lat":33.0167,"Lon":133.0167,"CountryCode":null},{"ID":2276,"Name":"Kurume","Lat":33.3192,"Lon":130.5083,"CountryCode":null},{"ID":4599,"Name":"Kusatsu","Lat":35.0167,"Lon":135.9667,"CountryCode":null},{"ID":37424,"Name":"Kuse","Lat":35.0759,"Lon":133.7534,"CountryCode":null},{"ID":42602,"Name":"Kushijima","Lat":32.7333,"Lon":130.75,"CountryCode":null},{"ID":28298,"Name":"Kushima","Lat":31.4644,"Lon":131.2283,"CountryCode":null},{"ID":31229,"Name":"Kushimoto","Lat":33.4667,"Lon":135.7833,"CountryCode":null},{"ID":25255,"Name":"Kushiro","Lat":42.98,"Lon":144.38,"CountryCode":null},{"ID":3886,"Name":"Kushiro","Lat":42.9833,"Lon":144.3833,"CountryCode":null},{"ID":30451,"Name":"Kutchan","Lat":42.9,"Lon":140.7667,"CountryCode":null},{"ID":4559,"Name":"Kuwana","Lat":35.0667,"Lon":136.6833,"CountryCode":null},{"ID":34651,"Name":"Kyotamba","Lat":35.1667,"Lon":135.4167,"CountryCode":null},{"ID":7972,"Name":"Kyotanabe","Lat":34.8144,"Lon":135.7678,"CountryCode":null},{"ID":11090,"Name":"Kyotango","Lat":35.6242,"Lon":135.0611,"CountryCode":null},{"ID":537,"Name":"Kyoto","Lat":35.0117,"Lon":135.7683,"CountryCode":null},{"ID":1665,"Name":"Machida","Lat":35.5542,"Lon":139.4431,"CountryCode":null},{"ID":16750,"Name":"Maebara","Lat":35.114,"Lon":140.0989,"CountryCode":null},{"ID":2106,"Name":"Maebashi","Lat":36.3895,"Lon":139.0634,"CountryCode":null},{"ID":30468,"Name":"Maesawa","Lat":39.05,"Lon":141.1167,"CountryCode":null},{"ID":14216,"Name":"Maibara","Lat":35.3167,"Lon":136.2833,"CountryCode":null},{"ID":36408,"Name":"Maisaka","Lat":34.6857,"Lon":137.6272,"CountryCode":null},{"ID":7537,"Name":"Maizuru","Lat":35.4667,"Lon":135.3833,"CountryCode":null},{"ID":18250,"Name":"Maki","Lat":37.7605,"Lon":138.8893,"CountryCode":null},{"ID":12785,"Name":"Makinohara","Lat":34.7333,"Lon":138.2167,"CountryCode":null},{"ID":19531,"Name":"Makubetsu","Lat":42.9167,"Lon":143.35,"CountryCode":null},{"ID":24876,"Name":"Makurazaki","Lat":31.2728,"Lon":130.2969,"CountryCode":null},{"ID":12984,"Name":"Maniwa","Lat":35.0758,"Lon":133.7525,"CountryCode":null},{"ID":27554,"Name":"Manno","Lat":34.2,"Lon":133.8333,"CountryCode":null},{"ID":5670,"Name":"Marugame","Lat":34.2833,"Lon":133.8,"CountryCode":null},{"ID":35591,"Name":"Marumori","Lat":37.9114,"Lon":140.7654,"CountryCode":null},{"ID":13776,"Name":"Masaki","Lat":33.7833,"Lon":132.7167,"CountryCode":null},{"ID":16381,"Name":"Mashiki","Lat":32.7833,"Lon":130.8,"CountryCode":null},{"ID":23162,"Name":"Mashiko","Lat":36.4673,"Lon":140.0934,"CountryCode":null},{"ID":12457,"Name":"Masuda","Lat":34.6747,"Lon":131.8428,"CountryCode":null},{"ID":5284,"Name":"Matsubara","Lat":34.5833,"Lon":135.55,"CountryCode":null},{"ID":18367,"Name":"Matsubushi","Lat":35.9258,"Lon":139.8152,"CountryCode":null},{"ID":39319,"Name":"Matsuda-soryo","Lat":35.35,"Lon":139.1333,"CountryCode":null},{"ID":1485,"Name":"Matsudo","Lat":35.7876,"Lon":139.9032,"CountryCode":null},{"ID":3273,"Name":"Matsue","Lat":35.4681,"Lon":133.0486,"CountryCode":null},{"ID":35225,"Name":"Matsukawa","Lat":35.5972,"Lon":137.9097,"CountryCode":null},{"ID":2804,"Name":"Matsumoto","Lat":36.238,"Lon":137.972,"CountryCode":null},{"ID":38138,"Name":"Matsuo","Lat":35.633,"Lon":140.467,"CountryCode":null},{"ID":31149,"Name":"Matsushige","Lat":34.1339,"Lon":134.5803,"CountryCode":null},{"ID":33780,"Name":"Matsushima","Lat":38.3802,"Lon":141.0673,"CountryCode":null},{"ID":23521,"Name":"Matsuura","Lat":33.3333,"Lon":129.7167,"CountryCode":null},{"ID":1457,"Name":"Matsuyama","Lat":33.8333,"Lon":132.7667,"CountryCode":null},{"ID":4047,"Name":"Matsuzaka","Lat":34.5779,"Lon":136.5276,"CountryCode":null},{"ID":2386,"Name":"Meguro","Lat":35.6333,"Lon":139.6833,"CountryCode":null},{"ID":22409,"Name":"Meiwa","Lat":34.55,"Lon":136.6167,"CountryCode":null},{"ID":39221,"Name":"Meiwa","Lat":36.2113,"Lon":139.5342,"CountryCode":null},{"ID":26402,"Name":"Memuro-minami","Lat":42.9167,"Lon":143.05,"CountryCode":null},{"ID":13933,"Name":"Mibu","Lat":36.4271,"Lon":139.804,"CountryCode":null},{"ID":11431,"Name":"Midori","Lat":36.3948,"Lon":139.2811,"CountryCode":null},{"ID":28617,"Name":"Mifune","Lat":32.7167,"Lon":130.8,"CountryCode":null},{"ID":22466,"Name":"Mihama","Lat":34.7789,"Lon":136.9082,"CountryCode":null},{"ID":6728,"Name":"Mihara","Lat":34.3975,"Lon":133.0786,"CountryCode":null},{"ID":27561,"Name":"Miharu","Lat":37.441,"Lon":140.4926,"CountryCode":null},{"ID":31733,"Name":"Miho","Lat":36.0045,"Lon":140.3019,"CountryCode":null},{"ID":19290,"Name":"Miki","Lat":34.2667,"Lon":134.1333,"CountryCode":null},{"ID":7943,"Name":"Miki","Lat":34.7936,"Lon":134.9931,"CountryCode":null},{"ID":29174,"Name":"Mikkabi","Lat":34.8031,"Lon":137.5561,"CountryCode":null},{"ID":18594,"Name":"Mima","Lat":34.05,"Lon":134.1667,"CountryCode":null},{"ID":20173,"Name":"Mimasaka","Lat":35.0086,"Lon":134.1486,"CountryCode":null},{"ID":20185,"Name":"Mimata","Lat":31.7306,"Lon":131.125,"CountryCode":null},{"ID":35818,"Name":"Minabe","Lat":33.7725,"Lon":135.3206,"CountryCode":null},{"ID":27678,"Name":"Minakami","Lat":36.6786,"Lon":138.9991,"CountryCode":null},{"ID":21888,"Name":"Minamata","Lat":32.2167,"Lon":130.4,"CountryCode":null},{"ID":31985,"Name":"Minamiaizu","Lat":37.2004,"Lon":139.7732,"CountryCode":null},{"ID":8449,"Name":"Minami-Alps","Lat":35.6083,"Lon":138.465,"CountryCode":null},{"ID":40662,"Name":"Minamiaso","Lat":32.8167,"Lon":131.0333,"CountryCode":null},{"ID":14583,"Name":"Minami-Boso","Lat":35.0432,"Lon":139.84,"CountryCode":null},{"ID":28220,"Name":"Minamichita","Lat":34.7151,"Lon":136.9298,"CountryCode":null},{"ID":38682,"Name":"Minamiise","Lat":34.35,"Lon":136.7,"CountryCode":null},{"ID":21680,"Name":"Minamikarasuyama","Lat":35.6683,"Lon":139.6012,"CountryCode":null},{"ID":16166,"Name":"Minamikyushu","Lat":31.3778,"Lon":130.4419,"CountryCode":null},{"ID":29651,"Name":"Minamiminowa","Lat":35.8729,"Lon":137.9751,"CountryCode":null},{"ID":38747,"Name":"Minamisanriku","Lat":38.6793,"Lon":141.4608,"CountryCode":null},{"ID":16409,"Name":"Minamisatsuma","Lat":31.4169,"Lon":130.3228,"CountryCode":null},{"ID":26595,"Name":"Minamishibetsucho","Lat":43.55,"Lon":141.9167,"CountryCode":null},{"ID":13086,"Name":"Minamishimabara","Lat":32.6667,"Lon":130.3,"CountryCode":null},{"ID":15796,"Name":"Minamishiro","Lat":36.0227,"Lon":139.7227,"CountryCode":null},{"ID":10776,"Name":"Minami-Soma","Lat":37.6422,"Lon":140.9573,"CountryCode":null},{"ID":1870,"Name":"Minamisuita","Lat":34.7594,"Lon":135.5169,"CountryCode":null},{"ID":10414,"Name":"Minamiuonuma","Lat":37.0655,"Lon":138.8761,"CountryCode":null},{"ID":43464,"Name":"Minano","Lat":36.0708,"Lon":139.0988,"CountryCode":null},{"ID":2592,"Name":"Minato","Lat":35.6581,"Lon":139.7514,"CountryCode":null},{"ID":21828,"Name":"Mine","Lat":34.1631,"Lon":131.2083,"CountryCode":null},{"ID":5752,"Name":"Mineshita","Lat":35.1185,"Lon":138.9186,"CountryCode":null},{"ID":4612,"Name":"Mino","Lat":34.8269,"Lon":135.4706,"CountryCode":null},{"ID":23940,"Name":"Mino","Lat":35.5448,"Lon":136.9076,"CountryCode":null},{"ID":39960,"Name":"Minobu","Lat":35.4675,"Lon":138.4425,"CountryCode":null},{"ID":10056,"Name":"Minokamo","Lat":35.4402,"Lon":137.0157,"CountryCode":null},{"ID":4682,"Name":"Minoo","Lat":34.8333,"Lon":135.4667,"CountryCode":null},{"ID":20619,"Name":"Minowa","Lat":35.915,"Lon":137.9819,"CountryCode":null},{"ID":31280,"Name":"Misaki","Lat":34.3167,"Lon":135.15,"CountryCode":null},{"ID":34322,"Name":"Misaki","Lat":35.9981,"Lon":133.9581,"CountryCode":null},{"ID":21427,"Name":"Misato","Lat":38.5444,"Lon":141.0567,"CountryCode":null},{"ID":26220,"Name":"Misato","Lat":39.4211,"Lon":140.5439,"CountryCode":null},{"ID":4476,"Name":"Misato","Lat":35.8301,"Lon":139.8723,"CountryCode":null},{"ID":14185,"Name":"Misawa","Lat":40.6831,"Lon":141.3691,"CountryCode":null},{"ID":36912,"Name":"Mitai","Lat":32.7117,"Lon":131.3078,"CountryCode":null},{"ID":27296,"Name":"Mitake","Lat":35.4344,"Lon":137.1307,"CountryCode":null},{"ID":30805,"Name":"Mitane","Lat":40.1017,"Lon":140.005,"CountryCode":null},{"ID":2509,"Name":"Mito","Lat":36.3658,"Lon":140.4712,"CountryCode":null},{"ID":9353,"Name":"Mitoyo","Lat":34.1825,"Lon":133.715,"CountryCode":null},{"ID":13969,"Name":"Mitsuke","Lat":37.5316,"Lon":138.9127,"CountryCode":null},{"ID":13108,"Name":"Miura","Lat":35.15,"Lon":139.6167,"CountryCode":null},{"ID":46007,"Name":"Miyada","Lat":35.7689,"Lon":137.9443,"CountryCode":null},{"ID":15102,"Name":"Miyajima","Lat":33.1525,"Lon":130.4747,"CountryCode":null},{"ID":20242,"Name":"Miyaki","Lat":33.3167,"Lon":130.45,"CountryCode":null},{"ID":11091,"Name":"Miyako","Lat":39.6414,"Lon":141.9571,"CountryCode":null},{"ID":10822,"Name":"Miyakojima","Lat":24.8056,"Lon":125.2811,"CountryCode":null},{"ID":4002,"Name":"Miyakonojo","Lat":31.7194,"Lon":131.0617,"CountryCode":null},{"ID":19374,"Name":"Miyanaga","Lat":33.7167,"Lon":130.6667,"CountryCode":null},{"ID":39035,"Name":"Miyato","Lat":36.1772,"Lon":139.1814,"CountryCode":null},{"ID":26100,"Name":"Miyatoko","Lat":33.6992,"Lon":130.9203,"CountryCode":null},{"ID":26846,"Name":"Miyauchi","Lat":38.0667,"Lon":140.1333,"CountryCode":null},{"ID":1801,"Name":"Miyazaki","Lat":31.9078,"Lon":131.4203,"CountryCode":null},{"ID":28503,"Name":"Miyazu","Lat":35.5333,"Lon":135.2,"CountryCode":null},{"ID":21634,"Name":"Miyoshi","Lat":34.026,"Lon":133.8072,"CountryCode":null},{"ID":11233,"Name":"Miyoshi","Lat":34.8,"Lon":132.85,"CountryCode":null},{"ID":9210,"Name":"Miyoshi","Lat":35.0894,"Lon":137.0748,"CountryCode":null},{"ID":14182,"Name":"Miyoshidai","Lat":35.8284,"Lon":139.5265,"CountryCode":null},{"ID":29861,"Name":"Miyota","Lat":36.3212,"Lon":138.5088,"CountryCode":null},{"ID":16566,"Name":"Mizuho","Lat":35.772,"Lon":139.354,"CountryCode":null},{"ID":10196,"Name":"Mizuho","Lat":35.3918,"Lon":136.6909,"CountryCode":null},{"ID":18738,"Name":"Mizumaki","Lat":33.8556,"Lon":130.6917,"CountryCode":null},{"ID":14404,"Name":"Mizunami","Lat":35.3618,"Lon":137.2545,"CountryCode":null},{"ID":9554,"Name":"Mizusawa","Lat":39.1438,"Lon":141.139,"CountryCode":null},{"ID":6832,"Name":"Mobara","Lat":35.4285,"Lon":140.2881,"CountryCode":null},{"ID":22047,"Name":"Mobetsu","Lat":44.35,"Lon":143.35,"CountryCode":null},{"ID":39959,"Name":"Mochizuki","Lat":36.2644,"Lon":138.3622,"CountryCode":null},{"ID":7548,"Name":"Mooka","Lat":36.4404,"Lon":140.0134,"CountryCode":null},{"ID":30945,"Name":"Mori","Lat":42.1,"Lon":140.5833,"CountryCode":null},{"ID":27543,"Name":"Mori","Lat":34.8333,"Lon":137.9333,"CountryCode":null},{"ID":4478,"Name":"Moriguchi","Lat":34.7375,"Lon":135.5642,"CountryCode":null},{"ID":2370,"Name":"Morioka","Lat":39.7021,"Lon":141.1545,"CountryCode":null},{"ID":8513,"Name":"Moriya","Lat":35.9514,"Lon":139.9754,"CountryCode":null},{"ID":7165,"Name":"Moriyama","Lat":35.0586,"Lon":135.9942,"CountryCode":null},{"ID":15220,"Name":"Morohongo","Lat":35.9415,"Lon":139.316,"CountryCode":null},{"ID":36942,"Name":"Motegi","Lat":36.5321,"Lon":140.1876,"CountryCode":null},{"ID":33930,"Name":"Motobu","Lat":26.6581,"Lon":127.8981,"CountryCode":null},{"ID":25754,"Name":"Motomachi","Lat":43.825,"Lon":144.1056,"CountryCode":null},{"ID":17355,"Name":"Motomiya","Lat":37.5132,"Lon":140.3938,"CountryCode":null},{"ID":15608,"Name":"Motosu","Lat":35.483,"Lon":136.6786,"CountryCode":null},{"ID":25291,"Name":"Mukaiengaru","Lat":44.0667,"Lon":143.5333,"CountryCode":null},{"ID":10191,"Name":"Mukocho","Lat":34.9486,"Lon":135.6983,"CountryCode":null},{"ID":6311,"Name":"Munakata","Lat":33.8,"Lon":130.5333,"CountryCode":null},{"ID":9858,"Name":"Murakami","Lat":38.224,"Lon":139.48,"CountryCode":null},{"ID":39779,"Name":"Murata","Lat":38.1185,"Lon":140.7224,"CountryCode":null},{"ID":22641,"Name":"Murayama","Lat":38.4833,"Lon":140.3833,"CountryCode":null},{"ID":26639,"Name":"Mure","Lat":34.3376,"Lon":134.1397,"CountryCode":null},{"ID":7296,"Name":"Muroran","Lat":42.3167,"Lon":140.9667,"CountryCode":null},{"ID":37138,"Name":"Muroto-misakicho","Lat":33.29,"Lon":134.1519,"CountryCode":null},{"ID":8256,"Name":"Musashimurayama","Lat":35.7548,"Lon":139.3874,"CountryCode":null},{"ID":4283,"Name":"Musashino","Lat":35.7177,"Lon":139.5661,"CountryCode":null},{"ID":10636,"Name":"Mutsu","Lat":41.2928,"Lon":141.1836,"CountryCode":null},{"ID":16895,"Name":"Myoko","Lat":37.0252,"Lon":138.2535,"CountryCode":null},{"ID":7690,"Name":"Nabari","Lat":34.6276,"Lon":136.1084,"CountryCode":null},{"ID":32450,"Name":"Nachikatsuura","Lat":33.6333,"Lon":135.9333,"CountryCode":null},{"ID":5368,"Name":"Nagahama","Lat":35.3833,"Lon":136.2833,"CountryCode":null},{"ID":19952,"Name":"Nagai","Lat":38.1075,"Lon":140.0405,"CountryCode":null},{"ID":12745,"Name":"Nagaizumi","Lat":35.1377,"Lon":138.8972,"CountryCode":null},{"ID":9269,"Name":"Nagakute","Lat":35.184,"Lon":137.0487,"CountryCode":null},{"ID":1912,"Name":"Nagano","Lat":36.6486,"Lon":138.1947,"CountryCode":null},{"ID":39757,"Name":"Naganuma","Lat":43.0167,"Lon":141.7,"CountryCode":null},{"ID":2543,"Name":"Nagaoka","Lat":37.4462,"Lon":138.8512,"CountryCode":null},{"ID":7383,"Name":"Nagaoka","Lat":34.9269,"Lon":135.6958,"CountryCode":null},{"ID":44263,"Name":"Nagaoki","Lat":33.0167,"Lon":130.6167,"CountryCode":null},{"ID":3306,"Name":"Nagareyama","Lat":35.8563,"Lon":139.9029,"CountryCode":null},{"ID":1779,"Name":"Nagasaki","Lat":32.7447,"Lon":129.8736,"CountryCode":null},{"ID":30207,"Name":"Nagasu","Lat":32.9333,"Lon":130.45,"CountryCode":null},{"ID":16527,"Name":"Nagato","Lat":34.3706,"Lon":131.1825,"CountryCode":null},{"ID":9199,"Name":"Nago","Lat":26.5917,"Lon":127.9775,"CountryCode":null},{"ID":47,"Name":"Nagoya","Lat":35.1833,"Lon":136.9,"CountryCode":null},{"ID":2207,"Name":"Naha","Lat":26.2122,"Lon":127.6792,"CountryCode":null},{"ID":10699,"Name":"Naka","Lat":36.4574,"Lon":140.4868,"CountryCode":null},{"ID":42671,"Name":"Nakaechi","Lat":35.5499,"Lon":139.4476,"CountryCode":null},{"ID":39581,"Name":"Nakagawa","Lat":33.9511,"Lon":134.6622,"CountryCode":null},{"ID":11205,"Name":"Nakagawa","Lat":33.5,"Lon":130.4167,"CountryCode":null},{"ID":30844,"Name":"Nakagawa","Lat":36.7382,"Lon":140.1715,"CountryCode":null},{"ID":22903,"Name":"Nakagusuku","Lat":26.2678,"Lon":127.7914,"CountryCode":null},{"ID":11960,"Name":"Nakai","Lat":33.5833,"Lon":133.6333,"CountryCode":null},{"ID":13792,"Name":"Nakama","Lat":33.8208,"Lon":130.7083,"CountryCode":null},{"ID":12872,"Name":"Nakano","Lat":36.742,"Lon":138.3694,"CountryCode":null},{"ID":2043,"Name":"Nakano","Lat":35.7074,"Lon":139.6638,"CountryCode":null},{"ID":30367,"Name":"Nakanojomachi","Lat":36.5898,"Lon":138.841,"CountryCode":null},{"ID":28646,"Name":"Nakanoto","Lat":36.9894,"Lon":136.9015,"CountryCode":null},{"ID":43663,"Name":"Nakao","Lat":35.3333,"Lon":139.2167,"CountryCode":null},{"ID":40127,"Name":"Nakasato","Lat":40.9649,"Lon":140.44,"CountryCode":null},{"ID":21847,"Name":"Nakashunbetsu","Lat":43.55,"Lon":144.9667,"CountryCode":null},{"ID":7223,"Name":"Nakatsu","Lat":33.5983,"Lon":131.1883,"CountryCode":null},{"ID":7522,"Name":"Nakatsugawa","Lat":35.4876,"Lon":137.5006,"CountryCode":null},{"ID":39472,"Name":"Nakayama","Lat":38.3331,"Lon":140.2831,"CountryCode":null},{"ID":43653,"Name":"Nakoushi","Lat":26.6825,"Lon":127.9728,"CountryCode":null},{"ID":16703,"Name":"Namegata","Lat":35.9905,"Lon":140.489,"CountryCode":null},{"ID":24816,"Name":"Namegawa","Lat":36.066,"Lon":139.361,"CountryCode":null},{"ID":16474,"Name":"Namerikawa","Lat":36.7644,"Lon":137.3412,"CountryCode":null},{"ID":24141,"Name":"Namioka","Lat":40.7,"Lon":140.5833,"CountryCode":null},{"ID":11337,"Name":"Nanao","Lat":37.0431,"Lon":136.9674,"CountryCode":null},{"ID":13372,"Name":"Nanbei","Lat":35.3167,"Lon":139.1,"CountryCode":null},{"ID":28634,"Name":"Nanbu","Lat":40.4669,"Lon":141.3817,"CountryCode":null},{"ID":40476,"Name":"Nanbu","Lat":35.3333,"Lon":133.3333,"CountryCode":null},{"ID":12501,"Name":"Nanjo","Lat":26.1631,"Lon":127.7706,"CountryCode":null},{"ID":17046,"Name":"Nantan","Lat":35.1,"Lon":135.4667,"CountryCode":null},{"ID":11785,"Name":"Nanto","Lat":36.5878,"Lon":136.9194,"CountryCode":null},{"ID":17375,"Name":"Nanyo","Lat":38.0551,"Lon":140.1476,"CountryCode":null},{"ID":1992,"Name":"Nara","Lat":34.6844,"Lon":135.805,"CountryCode":null},{"ID":3693,"Name":"Narashino","Lat":35.6804,"Lon":140.0265,"CountryCode":null},{"ID":4805,"Name":"Narita","Lat":35.7767,"Lon":140.3183,"CountryCode":null},{"ID":20773,"Name":"Naruto","Lat":35.5864,"Lon":140.4136,"CountryCode":null},{"ID":10391,"Name":"Narutocho-mitsuishi","Lat":34.1667,"Lon":134.6167,"CountryCode":null},{"ID":21686,"Name":"Nasu","Lat":37.0198,"Lon":140.121,"CountryCode":null},{"ID":20916,"Name":"Nasukarasuyama","Lat":36.6569,"Lon":140.1514,"CountryCode":null},{"ID":5388,"Name":"Nasushiobara","Lat":36.9617,"Lon":140.0461,"CountryCode":null},{"ID":7494,"Name":"Natori-shi","Lat":38.1715,"Lon":140.8918,"CountryCode":null},{"ID":19145,"Name":"Nayoro","Lat":44.3558,"Lon":142.4633,"CountryCode":null},{"ID":19113,"Name":"Nemuro","Lat":43.33,"Lon":145.5828,"CountryCode":null},{"ID":992,"Name":"Nerima","Lat":35.7356,"Lon":139.6517,"CountryCode":null},{"ID":2932,"Name":"Neya","Lat":34.7667,"Lon":135.6333,"CountryCode":null},{"ID":11154,"Name":"Nichinan","Lat":31.6019,"Lon":131.3786,"CountryCode":null},{"ID":10465,"Name":"Nihonmatsu","Lat":37.5849,"Lon":140.4312,"CountryCode":null},{"ID":956,"Name":"Niigata","Lat":37.9161,"Lon":139.0364,"CountryCode":null},{"ID":5421,"Name":"Niihama","Lat":33.9667,"Lon":133.2833,"CountryCode":null},{"ID":18908,"Name":"Niimi","Lat":34.9739,"Lon":133.4731,"CountryCode":null},{"ID":25066,"Name":"Niiyama","Lat":35.0533,"Lon":138.9455,"CountryCode":null},{"ID":3883,"Name":"Niiza","Lat":35.7935,"Lon":139.5653,"CountryCode":null},{"ID":22068,"Name":"Nikaho","Lat":39.203,"Lon":139.9077,"CountryCode":null},{"ID":41217,"Name":"Nikaido-kaminoshocho","Lat":34.5914,"Lon":135.7962,"CountryCode":null},{"ID":7689,"Name":"Nikko","Lat":36.7198,"Lon":139.6982,"CountryCode":null},{"ID":20456,"Name":"Ninohe","Lat":40.2713,"Lon":141.3048,"CountryCode":null},{"ID":18903,"Name":"Ninomiya","Lat":35.2995,"Lon":139.2555,"CountryCode":null},{"ID":18552,"Name":"Nirasaki","Lat":35.7089,"Lon":138.4461,"CountryCode":null},{"ID":38738,"Name":"Nishi","Lat":32.2,"Lon":130.8333,"CountryCode":null},{"ID":24186,"Name":"Nishigo","Lat":37.1417,"Lon":140.1554,"CountryCode":null},{"ID":15604,"Name":"Nishihara","Lat":26.2167,"Lon":127.7667,"CountryCode":null},{"ID":1518,"Name":"Nishinomiya-hama","Lat":34.7376,"Lon":135.3416,"CountryCode":null},{"ID":31191,"Name":"Nishinoomote","Lat":30.7322,"Lon":130.9967,"CountryCode":null},{"ID":3816,"Name":"Nishio","Lat":34.83,"Lon":137.0697,"CountryCode":null},{"ID":3191,"Name":"Nishitokyo","Lat":35.7256,"Lon":139.5383,"CountryCode":null},{"ID":14142,"Name":"Nishiwaki","Lat":34.9903,"Lon":134.9722,"CountryCode":null},{"ID":6546,"Name":"Nisshin","Lat":35.132,"Lon":137.0394,"CountryCode":null},{"ID":35380,"Name":"Nobeji","Lat":40.8644,"Lon":141.1287,"CountryCode":null},{"ID":5290,"Name":"Nobeoka","Lat":32.5822,"Lon":131.665,"CountryCode":null},{"ID":11898,"Name":"Noboribetsu","Lat":42.4167,"Lon":141.1,"CountryCode":null},{"ID":4145,"Name":"Noda","Lat":35.95,"Lon":139.8667,"CountryCode":null},{"ID":10258,"Name":"Nogata","Lat":33.7417,"Lon":130.7322,"CountryCode":null},{"ID":20611,"Name":"Nogi","Lat":36.2332,"Lon":139.7407,"CountryCode":null},{"ID":11495,"Name":"Nomimachi","Lat":36.447,"Lon":136.5541,"CountryCode":null},{"ID":10038,"Name":"Nonoichi","Lat":36.5194,"Lon":136.6098,"CountryCode":null},{"ID":11343,"Name":"Noshiromachi","Lat":40.2121,"Lon":140.0266,"CountryCode":null},{"ID":29701,"Name":"Noto","Lat":37.3066,"Lon":137.15,"CountryCode":null},{"ID":12271,"Name":"Numata","Lat":36.646,"Lon":139.0442,"CountryCode":null},{"ID":3484,"Name":"Numazu","Lat":35.0956,"Lon":138.8634,"CountryCode":null},{"ID":21606,"Name":"Nyuzen","Lat":36.9335,"Lon":137.5021,"CountryCode":null},{"ID":2308,"Name":"Oakashicho","Lat":34.65,"Lon":135,"CountryCode":null},{"ID":11467,"Name":"Oamishirasato","Lat":35.5167,"Lon":140.3167,"CountryCode":null},{"ID":29583,"Name":"Oarai","Lat":36.3133,"Lon":140.5749,"CountryCode":null},{"ID":18556,"Name":"Obama","Lat":35.4957,"Lon":135.7466,"CountryCode":null},{"ID":31081,"Name":"Obanazawa","Lat":38.6,"Lon":140.4,"CountryCode":null},{"ID":3888,"Name":"Obihiro","Lat":42.9167,"Lon":143.2,"CountryCode":null},{"ID":13251,"Name":"Obita","Lat":32.8167,"Lon":129.8833,"CountryCode":null},{"ID":6583,"Name":"Obu","Lat":35.0117,"Lon":136.9637,"CountryCode":null},{"ID":39770,"Name":"Obuse","Lat":36.6975,"Lon":138.3121,"CountryCode":null},{"ID":29746,"Name":"Ochiai","Lat":35.0181,"Lon":133.7524,"CountryCode":null},{"ID":16570,"Name":"Odacho-oda","Lat":35.1919,"Lon":132.4994,"CountryCode":null},{"ID":8629,"Name":"Odate","Lat":40.2714,"Lon":140.5642,"CountryCode":null},{"ID":3465,"Name":"Odawara","Lat":35.25,"Lon":139.15,"CountryCode":null},{"ID":15562,"Name":"Ofunato","Lat":39.068,"Lon":141.7252,"CountryCode":null},{"ID":15182,"Name":"Ofunato","Lat":39.062,"Lon":141.7132,"CountryCode":null},{"ID":20762,"Name":"Oga","Lat":39.8868,"Lon":139.8476,"CountryCode":null},{"ID":4049,"Name":"Ogaki","Lat":35.3594,"Lon":136.6129,"CountryCode":null},{"ID":39118,"Name":"Ogano","Lat":36.0171,"Lon":139.0086,"CountryCode":null},{"ID":18420,"Name":"Ogawa","Lat":36.0567,"Lon":139.2618,"CountryCode":null},{"ID":21564,"Name":"Ogawara","Lat":38.0494,"Lon":140.7308,"CountryCode":null},{"ID":12169,"Name":"Ogimachi","Lat":33.25,"Lon":130.2,"CountryCode":null},{"ID":9851,"Name":"Ogori","Lat":33.3964,"Lon":130.5556,"CountryCode":null},{"ID":38729,"Name":"Ogose","Lat":35.9645,"Lon":139.2942,"CountryCode":null},{"ID":9468,"Name":"Ogoshi","Lat":32.8833,"Lon":130.7833,"CountryCode":null},{"ID":21157,"Name":"Oguchi","Lat":35.3325,"Lon":136.9078,"CountryCode":null},{"ID":24172,"Name":"Ohara","Lat":35.2508,"Lon":140.3886,"CountryCode":null},{"ID":16473,"Name":"Oharu","Lat":35.1751,"Lon":136.8201,"CountryCode":null},{"ID":45779,"Name":"Ohata","Lat":41.4034,"Lon":141.162,"CountryCode":null},{"ID":27773,"Name":"Oi","Lat":35.3333,"Lon":139.15,"CountryCode":null},{"ID":20950,"Name":"Oirase","Lat":40.5992,"Lon":141.3977,"CountryCode":null},{"ID":16961,"Name":"Oiso","Lat":35.3086,"Lon":139.3128,"CountryCode":null},{"ID":1545,"Name":"Oita","Lat":33.2333,"Lon":131.6067,"CountryCode":null},{"ID":36524,"Name":"Oiwa","Lat":34.5254,"Lon":135.8498,"CountryCode":null},{"ID":13083,"Name":"Oizumi","Lat":36.2478,"Lon":139.4049,"CountryCode":null},{"ID":21478,"Name":"Oji","Lat":34.6,"Lon":135.7167,"CountryCode":null},{"ID":15922,"Name":"Ojiya","Lat":37.3144,"Lon":138.7951,"CountryCode":null},{"ID":35677,"Name":"Okabecho-okabe","Lat":34.9167,"Lon":138.2833,"CountryCode":null},{"ID":17124,"Name":"Okagaki","Lat":33.85,"Lon":130.6167,"CountryCode":null},{"ID":11762,"Name":"Okaya","Lat":36.0671,"Lon":138.0493,"CountryCode":null},{"ID":1035,"Name":"Okayama","Lat":34.65,"Lon":133.9167,"CountryCode":null},{"ID":1855,"Name":"Okazaki","Lat":34.9543,"Lon":137.1744,"CountryCode":null},{"ID":7956,"Name":"Okegawa","Lat":36.0057,"Lon":139.5427,"CountryCode":null},{"ID":32587,"Name":"Oki","Lat":33.2106,"Lon":130.4397,"CountryCode":null},{"ID":4471,"Name":"Okinawa","Lat":26.3342,"Lon":127.8056,"CountryCode":null},{"ID":33033,"Name":"Okinoshima","Lat":36.2,"Lon":133.3167,"CountryCode":null},{"ID":23147,"Name":"Okuchi-shinohara","Lat":32.05,"Lon":130.6167,"CountryCode":null},{"ID":37073,"Name":"Okuizumo","Lat":35.1975,"Lon":133.0025,"CountryCode":null},{"ID":19914,"Name":"Omachi","Lat":36.503,"Lon":137.8511,"CountryCode":null},{"ID":16435,"Name":"Omaezaki","Lat":34.6379,"Lon":138.1281,"CountryCode":null},{"ID":14048,"Name":"Omagari","Lat":39.4531,"Lon":140.4754,"CountryCode":null},{"ID":4772,"Name":"Ome","Lat":35.788,"Lon":139.2758,"CountryCode":null},{"ID":20222,"Name":"Omigawa","Lat":35.85,"Lon":140.6167,"CountryCode":null},{"ID":7255,"Name":"Omihachiman","Lat":35.1283,"Lon":136.0981,"CountryCode":null},{"ID":11558,"Name":"Omitama","Lat":36.2393,"Lon":140.3526,"CountryCode":null},{"ID":4935,"Name":"Omiyacho","Lat":35.2221,"Lon":138.6216,"CountryCode":null},{"ID":6340,"Name":"Omura","Lat":32.9,"Lon":129.9583,"CountryCode":null},{"ID":5627,"Name":"Omuta","Lat":33.0303,"Lon":130.4458,"CountryCode":null},{"ID":41037,"Name":"Onan","Lat":34.8939,"Lon":132.4378,"CountryCode":null},{"ID":26089,"Name":"Onga","Lat":33.85,"Lon":130.6667,"CountryCode":null},{"ID":38869,"Name":"Onna","Lat":26.4833,"Lon":127.85,"CountryCode":null},{"ID":21925,"Name":"Ono","Lat":35.4706,"Lon":136.6276,"CountryCode":null},{"ID":11739,"Name":"Ono","Lat":34.8497,"Lon":134.9342,"CountryCode":null},{"ID":15959,"Name":"Ono","Lat":35.9797,"Lon":136.4875,"CountryCode":null},{"ID":17329,"Name":"Ono","Lat":35.9797,"Lon":136.4875,"CountryCode":null},{"ID":6053,"Name":"Onojo","Lat":33.5333,"Lon":130.4833,"CountryCode":null},{"ID":4827,"Name":"Onomichi","Lat":34.4167,"Lon":133.2,"CountryCode":null},{"ID":19647,"Name":"Ora","Lat":36.2524,"Lon":139.4623,"CountryCode":null},{"ID":25,"Name":"Osaka","Lat":34.6939,"Lon":135.5022,"CountryCode":null},{"ID":9818,"Name":"Osakasayama","Lat":34.5,"Lon":135.55,"CountryCode":null},{"ID":4883,"Name":"Osaki","Lat":38.5771,"Lon":140.9556,"CountryCode":null},{"ID":35912,"Name":"Osako","Lat":31.4422,"Lon":130.9775,"CountryCode":null},{"ID":16375,"Name":"Osawa","Lat":33.2067,"Lon":130.3839,"CountryCode":null},{"ID":5516,"Name":"Oshu","Lat":39.1445,"Lon":141.1391,"CountryCode":null},{"ID":2973,"Name":"Ota","Lat":36.2911,"Lon":139.3754,"CountryCode":null},{"ID":19861,"Name":"Otake","Lat":34.2378,"Lon":132.2222,"CountryCode":null},{"ID":45428,"Name":"Otaki","Lat":35.2852,"Lon":140.2454,"CountryCode":null},{"ID":999,"Name":"Ota-ku","Lat":35.5614,"Lon":139.7161,"CountryCode":null},{"ID":5519,"Name":"Otaru","Lat":43.1833,"Lon":141,"CountryCode":null},{"ID":8046,"Name":"Otawara","Lat":36.8711,"Lon":140.0156,"CountryCode":null},{"ID":12564,"Name":"Otofuke","Lat":43,"Lon":143.2,"CountryCode":null},{"ID":2044,"Name":"Otsu","Lat":35.0167,"Lon":135.85,"CountryCode":null},{"ID":39210,"Name":"Otsuchi","Lat":39.3582,"Lon":141.8994,"CountryCode":null},{"ID":22967,"Name":"Otsuki","Lat":35.6106,"Lon":138.94,"CountryCode":null},{"ID":45832,"Name":"Ouda-daito","Lat":34.4789,"Lon":135.9281,"CountryCode":null},{"ID":18776,"Name":"Ouda-yamaguchi","Lat":34.5167,"Lon":135.9667,"CountryCode":null},{"ID":45758,"Name":"Owani","Lat":40.5184,"Lon":140.5678,"CountryCode":null},{"ID":7250,"Name":"Owariasahi","Lat":35.2165,"Lon":137.0354,"CountryCode":null},{"ID":29142,"Name":"Owase","Lat":34.0708,"Lon":136.191,"CountryCode":null},{"ID":18288,"Name":"Oyabe","Lat":36.6755,"Lon":136.8687,"CountryCode":null},{"ID":26555,"Name":"Oyama","Lat":35.3601,"Lon":138.9873,"CountryCode":null},{"ID":3849,"Name":"Oyama","Lat":36.3146,"Lon":139.8002,"CountryCode":null},{"ID":28938,"Name":"Oyamazaki","Lat":34.9028,"Lon":135.6883,"CountryCode":null},{"ID":28614,"Name":"Oyodo","Lat":34.3833,"Lon":135.7833,"CountryCode":null},{"ID":13568,"Name":"Ozu","Lat":33.5,"Lon":132.55,"CountryCode":null},{"ID":15399,"Name":"Ozu","Lat":32.8667,"Lon":130.8667,"CountryCode":null},{"ID":26830,"Name":"Ranzan","Lat":36.0565,"Lon":139.3205,"CountryCode":null},{"ID":15156,"Name":"Rifu","Lat":38.3329,"Lon":140.9772,"CountryCode":null},{"ID":26554,"Name":"Rikuzen-Takata","Lat":39.028,"Lon":141.6254,"CountryCode":null},{"ID":8453,"Name":"Ritto","Lat":35.0167,"Lon":136,"CountryCode":null},{"ID":40999,"Name":"Rokkasho","Lat":40.9672,"Lon":141.3744,"CountryCode":null},{"ID":39875,"Name":"Rokunohe","Lat":40.6095,"Lon":141.3248,"CountryCode":null},{"ID":24399,"Name":"Rumoi","Lat":43.9333,"Lon":141.6333,"CountryCode":null},{"ID":7785,"Name":"Ryugasaki","Lat":35.9116,"Lon":140.1823,"CountryCode":null},{"ID":36611,"Name":"Ryuo","Lat":35.0667,"Lon":136.1167,"CountryCode":null},{"ID":24934,"Name":"Ryuyo","Lat":34.6783,"Lon":137.8167,"CountryCode":null},{"ID":8550,"Name":"Sabae","Lat":35.9565,"Lon":136.1843,"CountryCode":null},{"ID":10492,"Name":"Sado","Lat":38.0183,"Lon":138.3683,"CountryCode":null},{"ID":2881,"Name":"Saga","Lat":33.2667,"Lon":130.3,"CountryCode":null},{"ID":13714,"Name":"Sagae","Lat":38.3809,"Lon":140.276,"CountryCode":null},{"ID":1033,"Name":"Sagamihara","Lat":35.5667,"Lon":139.3667,"CountryCode":null},{"ID":20071,"Name":"Sagara","Lat":34.6863,"Lon":138.1987,"CountryCode":null},{"ID":5939,"Name":"Saijo","Lat":33.9167,"Lon":133.1833,"CountryCode":null},{"ID":18206,"Name":"Saikaicho-kobago","Lat":32.9333,"Lon":129.65,"CountryCode":null},{"ID":8783,"Name":"Saiki","Lat":32.9597,"Lon":131.9,"CountryCode":null},{"ID":578,"Name":"Saitama","Lat":35.8614,"Lon":139.6456,"CountryCode":null},{"ID":18294,"Name":"Saito","Lat":32.1086,"Lon":131.4014,"CountryCode":null},{"ID":34854,"Name":"Saka","Lat":34.3411,"Lon":132.5136,"CountryCode":null},{"ID":6098,"Name":"Sakado","Lat":35.9573,"Lon":139.403,"CountryCode":null},{"ID":24800,"Name":"Sakae","Lat":35.8333,"Lon":140.25,"CountryCode":null},{"ID":21237,"Name":"Sakai","Lat":36.1085,"Lon":139.7949,"CountryCode":null},{"ID":6852,"Name":"Sakai","Lat":36.1669,"Lon":136.2314,"CountryCode":null},{"ID":928,"Name":"Sakai","Lat":34.5733,"Lon":135.4831,"CountryCode":null},{"ID":11143,"Name":"Sakaidecho","Lat":34.3167,"Lon":133.8667,"CountryCode":null},{"ID":16611,"Name":"Sakaiminato","Lat":35.5333,"Lon":133.2333,"CountryCode":null},{"ID":32387,"Name":"Sakaki","Lat":36.4618,"Lon":138.1801,"CountryCode":null},{"ID":6200,"Name":"Sakata","Lat":38.9145,"Lon":139.8364,"CountryCode":null},{"ID":35757,"Name":"Sakawa","Lat":33.5,"Lon":133.2833,"CountryCode":null},{"ID":6245,"Name":"Saku","Lat":36.2488,"Lon":138.4769,"CountryCode":null},{"ID":41188,"Name":"Sakuho","Lat":36.161,"Lon":138.4834,"CountryCode":null},{"ID":3711,"Name":"Sakura","Lat":35.7167,"Lon":140.2167,"CountryCode":null},{"ID":12385,"Name":"Sakura","Lat":36.6853,"Lon":139.9664,"CountryCode":null},{"ID":14082,"Name":"Sakuragawa","Lat":36.3273,"Lon":140.0906,"CountryCode":null},{"ID":10483,"Name":"Sakurai","Lat":34.5167,"Lon":135.85,"CountryCode":null},{"ID":5666,"Name":"Sandacho","Lat":34.8833,"Lon":135.2333,"CountryCode":null},{"ID":21674,"Name":"Sanga","Lat":34.6,"Lon":135.7,"CountryCode":null},{"ID":6501,"Name":"Sanjo","Lat":37.6368,"Lon":138.9617,"CountryCode":null},{"ID":11627,"Name":"Sanmu","Lat":35.6,"Lon":140.4167,"CountryCode":null},{"ID":5428,"Name":"Sano","Lat":36.3145,"Lon":139.5783,"CountryCode":null},{"ID":11921,"Name":"Sanuki","Lat":34.32,"Lon":134.1794,"CountryCode":null},{"ID":9666,"Name":"Sanyo-Onoda","Lat":34.0031,"Lon":131.1819,"CountryCode":null},{"ID":424,"Name":"Sapporo","Lat":43.0619,"Lon":141.3544,"CountryCode":null},{"ID":7904,"Name":"Sasagawa","Lat":37.2865,"Lon":140.3727,"CountryCode":null},{"ID":17039,"Name":"Sasaguri","Lat":33.6167,"Lon":130.5333,"CountryCode":null},{"ID":2770,"Name":"Sasebo","Lat":33.18,"Lon":129.715,"CountryCode":null},{"ID":38563,"Name":"Satosho","Lat":34.5139,"Lon":133.5569,"CountryCode":null},{"ID":24555,"Name":"Satsuma","Lat":31.9,"Lon":130.45,"CountryCode":null},{"ID":6598,"Name":"Satsumasendai","Lat":31.8167,"Lon":130.3,"CountryCode":null},{"ID":11284,"Name":"Satte","Lat":36.0781,"Lon":139.7259,"CountryCode":null},{"ID":4301,"Name":"Sayama","Lat":35.853,"Lon":139.4122,"CountryCode":null},{"ID":29934,"Name":"Sayo","Lat":35,"Lon":134.35,"CountryCode":null},{"ID":14995,"Name":"Seika","Lat":34.7608,"Lon":135.7858,"CountryCode":null},{"ID":32627,"Name":"Seiro","Lat":37.9745,"Lon":139.2742,"CountryCode":null},{"ID":15446,"Name":"Seiyo","Lat":33.3628,"Lon":132.5108,"CountryCode":null},{"ID":7016,"Name":"Sekimachi","Lat":35.4958,"Lon":136.918,"CountryCode":null},{"ID":45219,"Name":"Sekimachi","Lat":33.05,"Lon":130.5333,"CountryCode":null},{"ID":17213,"Name":"Sekiyado","Lat":36.0967,"Lon":139.7803,"CountryCode":null},{"ID":21226,"Name":"Senboku","Lat":39.7017,"Lon":140.7315,"CountryCode":null},{"ID":725,"Name":"Sendai","Lat":38.2682,"Lon":140.8694,"CountryCode":null},{"ID":34167,"Name":"Senmayacho-senmaya","Lat":38.9369,"Lon":141.3314,"CountryCode":null},{"ID":9668,"Name":"Sennan","Lat":34.3628,"Lon":135.2761,"CountryCode":null},{"ID":30911,"Name":"Sera","Lat":34.5869,"Lon":133.0567,"CountryCode":null},{"ID":821,"Name":"Setagaya","Lat":35.6466,"Lon":139.6532,"CountryCode":null},{"ID":46337,"Name":"Setana","Lat":42.45,"Lon":139.85,"CountryCode":null},{"ID":4934,"Name":"Seto","Lat":35.2236,"Lon":137.0842,"CountryCode":null},{"ID":15117,"Name":"Setouchi","Lat":34.6667,"Lon":134.1,"CountryCode":null},{"ID":6983,"Name":"Settsu","Lat":34.7772,"Lon":135.5622,"CountryCode":null},{"ID":6471,"Name":"Shibata","Lat":37.9479,"Lon":139.3273,"CountryCode":null},{"ID":14097,"Name":"Shibata","Lat":38.0566,"Lon":140.7658,"CountryCode":null},{"ID":8061,"Name":"Shibukawa","Lat":36.3894,"Lon":139.0633,"CountryCode":null},{"ID":17955,"Name":"Shibushi","Lat":31.5,"Lon":131.05,"CountryCode":null},{"ID":6025,"Name":"Shibuya","Lat":35.6536,"Lon":139.7092,"CountryCode":null},{"ID":2856,"Name":"Shibuya-ku","Lat":35.6594,"Lon":139.7006,"CountryCode":null},{"ID":27005,"Name":"Shichigahama","Lat":38.3045,"Lon":141.0591,"CountryCode":null},{"ID":31963,"Name":"Shichinohe","Lat":40.7447,"Lon":141.1579,"CountryCode":null},{"ID":10365,"Name":"Shijonawate","Lat":34.74,"Lon":135.6394,"CountryCode":null},{"ID":26122,"Name":"Shika","Lat":37.0062,"Lon":136.778,"CountryCode":null},{"ID":7251,"Name":"Shikokuchuo","Lat":33.9833,"Lon":133.55,"CountryCode":null},{"ID":16177,"Name":"Shima","Lat":39.5544,"Lon":141.1555,"CountryCode":null},{"ID":12128,"Name":"Shima","Lat":34.3333,"Lon":136.8333,"CountryCode":null},{"ID":12827,"Name":"Shimabara","Lat":32.7878,"Lon":130.3697,"CountryCode":null},{"ID":6411,"Name":"Shimada","Lat":34.8363,"Lon":138.1927,"CountryCode":null},{"ID":31857,"Name":"Shimada","Lat":40.599,"Lon":141.3976,"CountryCode":null},{"ID":16394,"Name":"Shimanto","Lat":33,"Lon":132.9333,"CountryCode":null},{"ID":29890,"Name":"Shimanto","Lat":33.2167,"Lon":133.1333,"CountryCode":null},{"ID":12035,"Name":"Shimeo","Lat":33.5833,"Lon":130.4833,"CountryCode":null},{"ID":43567,"Name":"Shimizu","Lat":43.0167,"Lon":142.8833,"CountryCode":null},{"ID":16779,"Name":"Shimizucho","Lat":35.099,"Lon":138.9029,"CountryCode":null},{"ID":24195,"Name":"Shimogamo","Lat":34.6795,"Lon":138.9453,"CountryCode":null},{"ID":30260,"Name":"Shimohata","Lat":36.2,"Lon":137.85,"CountryCode":null},{"ID":25549,"Name":"Shimokizukuri","Lat":40.8085,"Lon":140.3805,"CountryCode":null},{"ID":26268,"Name":"Shimokodanaka","Lat":35.6616,"Lon":139.6666,"CountryCode":null},{"ID":25896,"Name":"Shimomura","Lat":36.0696,"Lon":138.0802,"CountryCode":null},{"ID":16946,"Name":"Shimotoba","Lat":34.8833,"Lon":135.6667,"CountryCode":null},{"ID":11510,"Name":"Shimotsucho-kominami","Lat":34.15,"Lon":135.2167,"CountryCode":null},{"ID":9698,"Name":"Shimotsuke","Lat":36.3872,"Lon":139.8421,"CountryCode":null},{"ID":13204,"Name":"Shimotsuma","Lat":36.1844,"Lon":139.9675,"CountryCode":null},{"ID":1732,"Name":"Shinagawa-ku","Lat":35.6,"Lon":139.7333,"CountryCode":null},{"ID":16210,"Name":"Shingu","Lat":33.7167,"Lon":130.45,"CountryCode":null},{"ID":18929,"Name":"Shingu","Lat":33.7167,"Lon":136,"CountryCode":null},{"ID":28069,"Name":"Shingucho-shingu","Lat":34.9186,"Lon":134.5493,"CountryCode":null},{"ID":22942,"Name":"Shinhidaka","Lat":42.25,"Lon":142.5667,"CountryCode":null},{"ID":24973,"Name":"Shinjo","Lat":34.4892,"Lon":135.7266,"CountryCode":null},{"ID":15673,"Name":"Shinjo","Lat":38.7667,"Lon":140.3,"CountryCode":null},{"ID":2014,"Name":"Shinjuku","Lat":35.7014,"Lon":139.7097,"CountryCode":null},{"ID":7745,"Name":"Shinkai","Lat":35.8367,"Lon":139.5803,"CountryCode":null},{"ID":27368,"Name":"Shin-Kamigoto","Lat":32.9844,"Lon":129.0733,"CountryCode":null},{"ID":33680,"Name":"Shin'onsen","Lat":35.6167,"Lon":134.45,"CountryCode":null},{"ID":2652,"Name":"Shinozaki","Lat":33.9578,"Lon":130.9414,"CountryCode":null},{"ID":12652,"Name":"Shinshiro","Lat":34.9159,"Lon":137.4986,"CountryCode":null},{"ID":32007,"Name":"Shinto","Lat":36.4384,"Lon":138.9671,"CountryCode":null},{"ID":28585,"Name":"Shintomi","Lat":32.0689,"Lon":131.4881,"CountryCode":null},{"ID":10893,"Name":"Shiogama","Lat":38.3144,"Lon":141.022,"CountryCode":null},{"ID":8702,"Name":"Shiojiri","Lat":36.115,"Lon":137.9534,"CountryCode":null},{"ID":36177,"Name":"Shiotacho-matsusaki","Lat":33.1268,"Lon":130.0589,"CountryCode":null},{"ID":40831,"Name":"Shioya","Lat":36.7776,"Lon":139.8506,"CountryCode":null},{"ID":24734,"Name":"Shirahama","Lat":33.6817,"Lon":135.3444,"CountryCode":null},{"ID":9700,"Name":"Shirakawa","Lat":37.1263,"Lon":140.2109,"CountryCode":null},{"ID":16082,"Name":"Shirakawa-tsuda","Lat":38.0025,"Lon":140.6197,"CountryCode":null},{"ID":40463,"Name":"Shirako","Lat":35.45,"Lon":140.3667,"CountryCode":null},{"ID":28417,"Name":"Shiraoi","Lat":42.55,"Lon":141.35,"CountryCode":null},{"ID":10869,"Name":"Shiraoka","Lat":36.0191,"Lon":139.6769,"CountryCode":null},{"ID":34742,"Name":"Shirataka","Lat":38.1831,"Lon":140.0986,"CountryCode":null},{"ID":5623,"Name":"Shirayamamachi","Lat":36.5166,"Lon":136.5656,"CountryCode":null},{"ID":9380,"Name":"Shiroi","Lat":35.7915,"Lon":140.0563,"CountryCode":null},{"ID":22920,"Name":"Shiroishi","Lat":33.1808,"Lon":130.1431,"CountryCode":null},{"ID":16083,"Name":"Shiroishi","Lat":38.0025,"Lon":140.6197,"CountryCode":null},{"ID":13762,"Name":"Shirone","Lat":37.7658,"Lon":139.0192,"CountryCode":null},{"ID":26863,"Name":"Shirosato","Lat":36.4792,"Lon":140.3762,"CountryCode":null},{"ID":15749,"Name":"Shiso","Lat":35,"Lon":134.55,"CountryCode":null},{"ID":24379,"Name":"Shisui","Lat":35.7167,"Lon":140.2667,"CountryCode":null},{"ID":29828,"Name":"Shizukuishi","Lat":39.6952,"Lon":140.9758,"CountryCode":null},{"ID":1091,"Name":"Shizuoka","Lat":34.9756,"Lon":138.3828,"CountryCode":null},{"ID":16052,"Name":"Shobara","Lat":34.8544,"Lon":133.0192,"CountryCode":null},{"ID":32932,"Name":"Shodoshima","Lat":34.4833,"Lon":134.2333,"CountryCode":null},{"ID":24733,"Name":"Shonai","Lat":38.8499,"Lon":139.9047,"CountryCode":null},{"ID":38661,"Name":"Shoo","Lat":35.05,"Lon":134.1167,"CountryCode":null},{"ID":23836,"Name":"Showa","Lat":35.6333,"Lon":138.5333,"CountryCode":null},{"ID":4580,"Name":"Shunan","Lat":34.055,"Lon":131.8061,"CountryCode":null},{"ID":28809,"Name":"Shuzenji","Lat":34.9717,"Lon":138.9304,"CountryCode":null},{"ID":16276,"Name":"So","Lat":31.6533,"Lon":131.0192,"CountryCode":null},{"ID":9083,"Name":"Sodegaura","Lat":35.43,"Lon":139.9544,"CountryCode":null},{"ID":45340,"Name":"Soeda","Lat":33.5719,"Lon":130.8539,"CountryCode":null},{"ID":8468,"Name":"Soja","Lat":34.6728,"Lon":133.7464,"CountryCode":null},{"ID":2670,"Name":"Soka","Lat":35.8254,"Lon":139.8053,"CountryCode":null},{"ID":14723,"Name":"Soma","Lat":37.7967,"Lon":140.9196,"CountryCode":null},{"ID":15096,"Name":"Sosa","Lat":35.7075,"Lon":140.5642,"CountryCode":null},{"ID":18373,"Name":"Sue","Lat":33.5833,"Lon":130.5,"CountryCode":null},{"ID":1280,"Name":"Suginami-ku","Lat":35.6994,"Lon":139.6364,"CountryCode":null},{"ID":12621,"Name":"Sugito","Lat":36.0258,"Lon":139.7367,"CountryCode":null},{"ID":25360,"Name":"Sukumo","Lat":32.9333,"Lon":132.7167,"CountryCode":null},{"ID":2496,"Name":"Sumida","Lat":35.7,"Lon":139.8167,"CountryCode":null},{"ID":13339,"Name":"Sumoto","Lat":34.35,"Lon":134.9,"CountryCode":null},{"ID":28561,"Name":"Sunagawa","Lat":43.5,"Lon":141.9,"CountryCode":null},{"ID":31319,"Name":"Suo-Oshima","Lat":33.9167,"Lon":132.2333,"CountryCode":null},{"ID":24251,"Name":"Susaki","Lat":33.3925,"Lon":133.2931,"CountryCode":null},{"ID":11156,"Name":"Susono","Lat":35.1739,"Lon":138.9068,"CountryCode":null},{"ID":11478,"Name":"Suwa","Lat":36.0391,"Lon":138.114,"CountryCode":null},{"ID":11393,"Name":"Suzaka","Lat":36.6511,"Lon":138.3073,"CountryCode":null},{"ID":34341,"Name":"Suzu","Lat":37.4363,"Lon":137.2605,"CountryCode":null},{"ID":3381,"Name":"Suzuka","Lat":34.882,"Lon":136.5842,"CountryCode":null},{"ID":11563,"Name":"Suzukawa","Lat":35.3767,"Lon":139.3847,"CountryCode":null},{"ID":31456,"Name":"Tabuse","Lat":33.9547,"Lon":132.0414,"CountryCode":null},{"ID":29167,"Name":"Tachiarai","Lat":33.3722,"Lon":130.6225,"CountryCode":null},{"ID":3578,"Name":"Tachikawa","Lat":35.6942,"Lon":139.4197,"CountryCode":null},{"ID":28425,"Name":"Tadaoka-higashi","Lat":34.4833,"Lon":135.4,"CountryCode":null},{"ID":22195,"Name":"Tadotsu","Lat":34.2667,"Lon":133.75,"CountryCode":null},{"ID":9342,"Name":"Tagajo","Lat":38.2938,"Lon":141.0043,"CountryCode":null},{"ID":37928,"Name":"Tagami","Lat":37.6988,"Lon":139.058,"CountryCode":null},{"ID":9750,"Name":"Tahara","Lat":34.6688,"Lon":137.2809,"CountryCode":null},{"ID":29689,"Name":"Taima","Lat":34.5111,"Lon":135.7069,"CountryCode":null},{"ID":18631,"Name":"Tainai","Lat":38.0597,"Lon":139.4103,"CountryCode":null},{"ID":28883,"Name":"Taishacho-kizukikita","Lat":35.3867,"Lon":132.6902,"CountryCode":null},{"ID":16089,"Name":"Taishi","Lat":34.8333,"Lon":134.5667,"CountryCode":null},{"ID":33890,"Name":"Taishi","Lat":34.5167,"Lon":135.65,"CountryCode":null},{"ID":3131,"Name":"Taito","Lat":35.7125,"Lon":139.78,"CountryCode":null},{"ID":18461,"Name":"Taiwa","Lat":38.4373,"Lon":140.8864,"CountryCode":null},{"ID":5783,"Name":"Tajimi","Lat":35.3328,"Lon":137.1316,"CountryCode":null},{"ID":25574,"Name":"Taka","Lat":35.05,"Lon":134.9236,"CountryCode":null},{"ID":18912,"Name":"Takahagi","Lat":36.7192,"Lon":140.7167,"CountryCode":null},{"ID":11531,"Name":"Takahama","Lat":34.9275,"Lon":136.9878,"CountryCode":null},{"ID":41166,"Name":"Takahama","Lat":35.4903,"Lon":135.551,"CountryCode":null},{"ID":46303,"Name":"Takaharu","Lat":31.9283,"Lon":131.0078,"CountryCode":null},{"ID":18198,"Name":"Takahashi","Lat":34.7914,"Lon":133.6164,"CountryCode":null},{"ID":22621,"Name":"Takahata","Lat":38.0027,"Lon":140.1891,"CountryCode":null},{"ID":10224,"Name":"Takaishi","Lat":34.5167,"Lon":135.45,"CountryCode":null},{"ID":1726,"Name":"Takamatsu","Lat":34.35,"Lon":134.05,"CountryCode":null},{"ID":34772,"Name":"Takamori","Lat":35.5138,"Lon":137.8739,"CountryCode":null},{"ID":24626,"Name":"Takanabe","Lat":32.1281,"Lon":131.5033,"CountryCode":null},{"ID":18021,"Name":"Takanezawa","Lat":36.631,"Lon":139.9865,"CountryCode":null},{"ID":3884,"Name":"Takaoka","Lat":36.7541,"Lon":137.0257,"CountryCode":null},{"ID":2978,"Name":"Takarazuka","Lat":34.8114,"Lon":135.3406,"CountryCode":null},{"ID":6925,"Name":"Takasagocho-takasemachi","Lat":34.7667,"Lon":134.7833,"CountryCode":null},{"ID":1898,"Name":"Takasaki","Lat":36.3219,"Lon":139.0033,"CountryCode":null},{"ID":12024,"Name":"Takashima","Lat":35.35,"Lon":136.0333,"CountryCode":null},{"ID":2025,"Name":"Takatsuki","Lat":34.8461,"Lon":135.6175,"CountryCode":null},{"ID":7049,"Name":"Takayama","Lat":36.146,"Lon":137.2522,"CountryCode":null},{"ID":21744,"Name":"Takehara","Lat":34.3417,"Lon":132.9069,"CountryCode":null},{"ID":11501,"Name":"Takeocho-takeo","Lat":33.2,"Lon":130.0167,"CountryCode":null},{"ID":24996,"Name":"Taketa","Lat":32.9736,"Lon":131.3978,"CountryCode":null},{"ID":12778,"Name":"Taketoyo","Lat":34.8511,"Lon":136.9147,"CountryCode":null},{"ID":32059,"Name":"Taki","Lat":34.4961,"Lon":136.5462,"CountryCode":null},{"ID":13900,"Name":"Takikawa","Lat":43.55,"Lon":141.9167,"CountryCode":null},{"ID":10205,"Name":"Takizawa","Lat":39.7347,"Lon":141.0771,"CountryCode":null},{"ID":32659,"Name":"Tako","Lat":35.7333,"Lon":140.4667,"CountryCode":null},{"ID":26521,"Name":"Taku","Lat":33.2833,"Lon":130.1167,"CountryCode":null},{"ID":10149,"Name":"Tama","Lat":34.4886,"Lon":133.9486,"CountryCode":null},{"ID":4339,"Name":"Tama","Lat":35.6369,"Lon":139.4463,"CountryCode":null},{"ID":12097,"Name":"Tamagawa","Lat":33.6389,"Lon":130.8061,"CountryCode":null},{"ID":30463,"Name":"Tamaki","Lat":34.4833,"Lon":136.6333,"CountryCode":null},{"ID":14958,"Name":"Tamamura","Lat":36.3044,"Lon":139.1149,"CountryCode":null},{"ID":8335,"Name":"Tamana","Lat":32.9281,"Lon":130.5594,"CountryCode":null},{"ID":9490,"Name":"Tamba","Lat":35.1833,"Lon":135.0333,"CountryCode":null},{"ID":13911,"Name":"Tamba-Sasayama","Lat":35.0725,"Lon":135.2219,"CountryCode":null},{"ID":15434,"Name":"Tamura","Lat":37.4333,"Lon":140.5667,"CountryCode":null},{"ID":8514,"Name":"Tanabe","Lat":33.7333,"Lon":135.3833,"CountryCode":null},{"ID":33589,"Name":"Tanagura","Lat":37.0299,"Lon":140.3796,"CountryCode":null},{"ID":7594,"Name":"Tanashicho","Lat":35.7275,"Lon":139.5489,"CountryCode":null},{"ID":25621,"Name":"Tanbaichicho","Lat":34.5966,"Lon":135.8374,"CountryCode":null},{"ID":33260,"Name":"Taneichi","Lat":40.4167,"Lon":141.7167,"CountryCode":null},{"ID":12864,"Name":"Taniyama-chuo","Lat":31.5211,"Lon":130.5176,"CountryCode":null},{"ID":45287,"Name":"Taragi","Lat":32.2667,"Lon":130.9333,"CountryCode":null},{"ID":19459,"Name":"Tarui","Lat":35.3702,"Lon":136.5437,"CountryCode":null},{"ID":32865,"Name":"Tarumizu","Lat":31.5228,"Lon":130.7594,"CountryCode":null},{"ID":7970,"Name":"Tatebayashi","Lat":36.2448,"Lon":139.5421,"CountryCode":null},{"ID":20564,"Name":"Tateyama","Lat":36.6636,"Lon":137.3137,"CountryCode":null},{"ID":12358,"Name":"Tateyama","Lat":34.9966,"Lon":139.87,"CountryCode":null},{"ID":26206,"Name":"Tatsuno","Lat":35.9824,"Lon":137.9876,"CountryCode":null},{"ID":7974,"Name":"Tatsunocho-tominaga","Lat":34.8508,"Lon":134.5453,"CountryCode":null},{"ID":17097,"Name":"Tawaramoto","Lat":34.55,"Lon":135.8,"CountryCode":null},{"ID":9334,"Name":"Tendo","Lat":38.3623,"Lon":140.3779,"CountryCode":null},{"ID":9106,"Name":"Tenri","Lat":34.5967,"Lon":135.8372,"CountryCode":null},{"ID":27055,"Name":"Toba","Lat":34.4813,"Lon":136.8434,"CountryCode":null},{"ID":24366,"Name":"Tobe","Lat":33.75,"Lon":132.8,"CountryCode":null},{"ID":29793,"Name":"Tobetsu","Lat":43.2167,"Lon":141.5167,"CountryCode":null},{"ID":4160,"Name":"Tochigi","Lat":36.3813,"Lon":139.7303,"CountryCode":null},{"ID":4463,"Name":"Toda","Lat":35.8176,"Lon":139.6779,"CountryCode":null},{"ID":9962,"Name":"Togane","Lat":35.5599,"Lon":140.3661,"CountryCode":null},{"ID":18086,"Name":"Togitsu","Lat":32.8333,"Lon":129.85,"CountryCode":null},{"ID":12551,"Name":"Togo","Lat":35.0966,"Lon":137.0525,"CountryCode":null},{"ID":28635,"Name":"Tohoku","Lat":40.7281,"Lon":141.2578,"CountryCode":null},{"ID":20069,"Name":"Toin","Lat":35.0667,"Lon":136.6,"CountryCode":null},{"ID":14408,"Name":"Tokai","Lat":36.473,"Lon":140.5661,"CountryCode":null},{"ID":5497,"Name":"Tokai","Lat":35.0231,"Lon":136.9022,"CountryCode":null},{"ID":10646,"Name":"Tokamachi","Lat":37.1333,"Lon":138.75,"CountryCode":null},{"ID":10318,"Name":"Toki","Lat":35.4192,"Lon":137.1832,"CountryCode":null},{"ID":39884,"Name":"Tokigawa","Lat":36.0086,"Lon":139.2968,"CountryCode":null},{"ID":9973,"Name":"Tokoname","Lat":34.8865,"Lon":136.8323,"CountryCode":null},{"ID":2060,"Name":"Tokorozawa","Lat":35.7996,"Lon":139.4686,"CountryCode":null},{"ID":40716,"Name":"Tokunoshima","Lat":27.7672,"Lon":129.0017,"CountryCode":null},{"ID":2638,"Name":"Tokushima","Lat":34.0667,"Lon":134.55,"CountryCode":null},{"ID":1,"Name":"Tokyo","Lat":35.6897,"Lon":139.6922,"CountryCode":null},{"ID":3786,"Name":"Tomakomai","Lat":42.6333,"Lon":141.6,"CountryCode":null},{"ID":17980,"Name":"Tomi","Lat":36.3594,"Lon":138.3304,"CountryCode":null},{"ID":8983,"Name":"Tomigusuku","Lat":26.1611,"Lon":127.6689,"CountryCode":null},{"ID":11879,"Name":"Tomioka","Lat":36.2599,"Lon":138.8899,"CountryCode":null},{"ID":11374,"Name":"Tomisato","Lat":35.7,"Lon":140.5667,"CountryCode":null},{"ID":10917,"Name":"Tomiya","Lat":38.4,"Lon":140.8833,"CountryCode":null},{"ID":15195,"Name":"Tomobe","Lat":36.345,"Lon":140.3042,"CountryCode":null},{"ID":11731,"Name":"Tonami","Lat":36.6475,"Lon":136.9622,"CountryCode":null},{"ID":5689,"Name":"Tondabayashicho","Lat":34.5,"Lon":135.6,"CountryCode":null},{"ID":30575,"Name":"Tone","Lat":35.8578,"Lon":140.1392,"CountryCode":null},{"ID":19752,"Name":"Tono","Lat":39.3279,"Lon":141.5334,"CountryCode":null},{"ID":33903,"Name":"Tonosho","Lat":35.8333,"Lon":140.6667,"CountryCode":null},{"ID":34270,"Name":"Tonosho","Lat":34.4833,"Lon":134.1833,"CountryCode":null},{"ID":15718,"Name":"Toon","Lat":33.7833,"Lon":132.8667,"CountryCode":null},{"ID":5933,"Name":"Toride","Lat":35.9115,"Lon":140.0504,"CountryCode":null},{"ID":42559,"Name":"Torihama","Lat":35.6006,"Lon":135.9406,"CountryCode":null},{"ID":20064,"Name":"Tosa","Lat":33.5,"Lon":133.4333,"CountryCode":null},{"ID":36309,"Name":"Tosashimizu","Lat":32.7833,"Lon":132.95,"CountryCode":null},{"ID":2318,"Name":"Toshima","Lat":35.7333,"Lon":139.7167,"CountryCode":null},{"ID":7912,"Name":"Tosu","Lat":33.3833,"Lon":130.5,"CountryCode":null},{"ID":3488,"Name":"Tottori","Lat":35.5,"Lon":134.2333,"CountryCode":null},{"ID":9581,"Name":"Towada","Lat":40.6127,"Lon":141.2059,"CountryCode":null},{"ID":1744,"Name":"Toyama","Lat":36.6959,"Lon":137.2137,"CountryCode":null},{"ID":8470,"Name":"Toyoake","Lat":35.0509,"Lon":137.0128,"CountryCode":null},{"ID":1900,"Name":"Toyohashi","Lat":34.7692,"Lon":137.3915,"CountryCode":null},{"ID":3537,"Name":"Toyokawa","Lat":34.8268,"Lon":137.3759,"CountryCode":null},{"ID":7619,"Name":"Toyomamachi-teraike","Lat":38.6918,"Lon":141.1877,"CountryCode":null},{"ID":1790,"Name":"Toyonaka","Lat":34.7833,"Lon":135.4667,"CountryCode":null},{"ID":26736,"Name":"Toyono","Lat":34.9189,"Lon":135.4942,"CountryCode":null},{"ID":7692,"Name":"Toyooka","Lat":35.55,"Lon":134.8167,"CountryCode":null},{"ID":1700,"Name":"Toyota","Lat":35.0824,"Lon":137.1563,"CountryCode":null},{"ID":29646,"Name":"Toyoyama","Lat":35.2505,"Lon":136.9121,"CountryCode":null},{"ID":2488,"Name":"Tsu","Lat":34.7184,"Lon":136.5057,"CountryCode":null},{"ID":7656,"Name":"Tsubame","Lat":37.6731,"Lon":138.8822,"CountryCode":null},{"ID":14730,"Name":"Tsubata","Lat":36.6692,"Lon":136.7288,"CountryCode":null},{"ID":4574,"Name":"Tsuchiura","Lat":36.0667,"Lon":140.2,"CountryCode":null},{"ID":28191,"Name":"Tsuiki","Lat":33.6561,"Lon":131.0561,"CountryCode":null},{"ID":31814,"Name":"Tsukawaki","Lat":33.2831,"Lon":131.1515,"CountryCode":null},{"ID":2730,"Name":"Tsukuba-kenkyugakuen-toshi","Lat":36.0835,"Lon":140.0764,"CountryCode":null},{"ID":11043,"Name":"Tsukubamirai","Lat":35.9631,"Lon":140.037,"CountryCode":null},{"ID":29729,"Name":"Tsukumiura","Lat":33.0722,"Lon":131.8614,"CountryCode":null},{"ID":41548,"Name":"Tsuno","Lat":32.2564,"Lon":131.5597,"CountryCode":null},{"ID":17445,"Name":"Tsuru","Lat":35.5515,"Lon":138.9054,"CountryCode":null},{"ID":8819,"Name":"Tsuruga","Lat":35.6452,"Lon":136.0555,"CountryCode":null},{"ID":8383,"Name":"Tsurugashima","Lat":35.9345,"Lon":139.3931,"CountryCode":null},{"ID":17190,"Name":"Tsuruno","Lat":40.8087,"Lon":140.3801,"CountryCode":null},{"ID":5130,"Name":"Tsuruoka","Lat":38.7272,"Lon":139.8267,"CountryCode":null},{"ID":35674,"Name":"Tsuruta","Lat":40.7588,"Lon":140.4285,"CountryCode":null},{"ID":9479,"Name":"Tsushima","Lat":35.1771,"Lon":136.7413,"CountryCode":null},{"ID":18384,"Name":"Tsushima","Lat":34.2,"Lon":129.2833,"CountryCode":null},{"ID":6291,"Name":"Tsuyama","Lat":35.0692,"Lon":134.0044,"CountryCode":null},{"ID":3946,"Name":"Ube","Lat":33.9517,"Lon":131.2467,"CountryCode":null},{"ID":30359,"Name":"Uchiko","Lat":33.5333,"Lon":132.65,"CountryCode":null},{"ID":19497,"Name":"Uchinada","Lat":36.6535,"Lon":136.6454,"CountryCode":null},{"ID":4175,"Name":"Ueda","Lat":36.4019,"Lon":138.2491,"CountryCode":null},{"ID":22383,"Name":"Uenohara","Lat":35.6302,"Lon":139.1113,"CountryCode":null},{"ID":33104,"Name":"Ugo","Lat":39.1981,"Lon":140.4128,"CountryCode":null},{"ID":3618,"Name":"Uji","Lat":34.8844,"Lon":135.7997,"CountryCode":null},{"ID":10037,"Name":"Uki","Lat":32.645,"Lon":130.6864,"CountryCode":null},{"ID":18942,"Name":"Ukiha","Lat":33.35,"Lon":130.75,"CountryCode":null},{"ID":14397,"Name":"Umi","Lat":33.5667,"Lon":130.5167,"CountryCode":null},{"ID":35951,"Name":"Unebicho","Lat":34.4806,"Lon":135.7926,"CountryCode":null},{"ID":15221,"Name":"Unnan","Lat":35.3078,"Lon":132.9003,"CountryCode":null},{"ID":13346,"Name":"Unzen","Lat":32.8353,"Lon":130.1875,"CountryCode":null},{"ID":15752,"Name":"Uonuma","Lat":37.2301,"Lon":138.9615,"CountryCode":null},{"ID":12994,"Name":"Uozu","Lat":36.8273,"Lon":137.4092,"CountryCode":null},{"ID":36155,"Name":"Urakawa","Lat":42.1667,"Lon":142.7667,"CountryCode":null},{"ID":5377,"Name":"Urasoe","Lat":26.2458,"Lon":127.7219,"CountryCode":null},{"ID":3798,"Name":"Urayasu","Lat":35.6539,"Lon":139.9022,"CountryCode":null},{"ID":19242,"Name":"Ureshinomachi-shimojuku","Lat":33.1333,"Lon":130.0667,"CountryCode":null},{"ID":5099,"Name":"Uruma","Lat":26.3792,"Lon":127.8575,"CountryCode":null},{"ID":10746,"Name":"Usa","Lat":33.5319,"Lon":131.3494,"CountryCode":null},{"ID":7103,"Name":"Ushiku","Lat":35.9794,"Lon":140.1496,"CountryCode":null},{"ID":29645,"Name":"Usuda","Lat":36.1955,"Lon":138.4792,"CountryCode":null},{"ID":15092,"Name":"Usuki","Lat":33.1261,"Lon":131.8053,"CountryCode":null},{"ID":25789,"Name":"Utazu","Lat":34.3167,"Lon":133.8333,"CountryCode":null},{"ID":14997,"Name":"Uto","Lat":32.6828,"Lon":130.6669,"CountryCode":null},{"ID":1426,"Name":"Utsunomiya","Lat":36.5551,"Lon":139.8826,"CountryCode":null},{"ID":8450,"Name":"Uwajima","Lat":33.2167,"Lon":132.5667,"CountryCode":null},{"ID":18806,"Name":"Wajimazakimachi","Lat":37.3906,"Lon":136.8992,"CountryCode":null},{"ID":16202,"Name":"Wakabadai","Lat":45.4157,"Lon":141.6731,"CountryCode":null},{"ID":32548,"Name":"Wakasa","Lat":35.5489,"Lon":135.9082,"CountryCode":null},{"ID":1985,"Name":"Wakayama","Lat":34.2333,"Lon":135.1667,"CountryCode":null},{"ID":33382,"Name":"Wake","Lat":34.8028,"Lon":134.1575,"CountryCode":null},{"ID":7128,"Name":"Wako","Lat":35.7812,"Lon":139.6057,"CountryCode":null},{"ID":30378,"Name":"Wakuya","Lat":38.5397,"Lon":141.1282,"CountryCode":null},{"ID":7888,"Name":"Warabi","Lat":35.8256,"Lon":139.6797,"CountryCode":null},{"ID":16279,"Name":"Watari","Lat":38.0378,"Lon":140.8526,"CountryCode":null},{"ID":22687,"Name":"Yabu","Lat":35.4,"Lon":134.7667,"CountryCode":null},{"ID":28205,"Name":"Yabuki","Lat":37.2013,"Lon":140.3386,"CountryCode":null},{"ID":8787,"Name":"Yachimata","Lat":35.6667,"Lon":140.3167,"CountryCode":null},{"ID":3296,"Name":"Yachiyo","Lat":35.7224,"Lon":140.0999,"CountryCode":null},{"ID":23863,"Name":"Yachiyo","Lat":36.1816,"Lon":139.8911,"CountryCode":null},{"ID":17089,"Name":"Yaese","Lat":26.1581,"Lon":127.7186,"CountryCode":null},{"ID":18845,"Name":"Yahaba","Lat":39.606,"Lon":141.1429,"CountryCode":null},{"ID":17006,"Name":"Yaita","Lat":36.8067,"Lon":139.9241,"CountryCode":null},{"ID":4641,"Name":"Yaizu","Lat":34.8669,"Lon":138.3247,"CountryCode":null},{"ID":33674,"Name":"Yakage","Lat":34.6275,"Lon":133.5872,"CountryCode":null},{"ID":29715,"Name":"Yakumo","Lat":42.25,"Lon":140.2667,"CountryCode":null},{"ID":36558,"Name":"Yakushima","Lat":30.39,"Lon":130.6511,"CountryCode":null},{"ID":31685,"Name":"Yamada","Lat":39.4676,"Lon":141.9489,"CountryCode":null},{"ID":11454,"Name":"Yamaga","Lat":33.0169,"Lon":130.6828,"CountryCode":null},{"ID":2726,"Name":"Yamagata","Lat":38.2554,"Lon":140.3396,"CountryCode":null},{"ID":20288,"Name":"Yamagata","Lat":35.5061,"Lon":136.7811,"CountryCode":null},{"ID":3427,"Name":"Yamaguchi","Lat":34.1781,"Lon":131.4739,"CountryCode":null},{"ID":42247,"Name":"Yamaguchi","Lat":33.1833,"Lon":129.95,"CountryCode":null},{"ID":42912,"Name":"Yamakita","Lat":35.35,"Lon":139.0667,"CountryCode":null},{"ID":36726,"Name":"Yamamoto","Lat":37.9624,"Lon":140.8775,"CountryCode":null},{"ID":16255,"Name":"Yamanashi","Lat":35.6934,"Lon":138.6869,"CountryCode":null},{"ID":33001,"Name":"Yamanobe","Lat":38.2833,"Lon":140.2667,"CountryCode":null},{"ID":38167,"Name":"Yamanouchi","Lat":36.7446,"Lon":138.4127,"CountryCode":null},{"ID":33685,"Name":"Yamato","Lat":32.6833,"Lon":131.0333,"CountryCode":null},{"ID":9496,"Name":"Yamatotakada","Lat":34.5167,"Lon":135.7333,"CountryCode":null},{"ID":9560,"Name":"Yame","Lat":33.2119,"Lon":130.5578,"CountryCode":null},{"ID":9069,"Name":"Yanagawa","Lat":33.1631,"Lon":130.4058,"CountryCode":null},{"ID":24051,"Name":"Yanagawamachi-saiwaicho","Lat":37.85,"Lon":140.6,"CountryCode":null},{"ID":17324,"Name":"Yanai","Lat":33.9639,"Lon":132.1186,"CountryCode":null},{"ID":2572,"Name":"Yao","Lat":34.6269,"Lon":135.601,"CountryCode":null},{"ID":41089,"Name":"Yaotsu","Lat":35.476,"Lon":137.1416,"CountryCode":null},{"ID":6515,"Name":"Yashio","Lat":35.8225,"Lon":139.8392,"CountryCode":null},{"ID":11232,"Name":"Yasu","Lat":35.0667,"Lon":136.0333,"CountryCode":null},{"ID":14735,"Name":"Yasugicho","Lat":35.4314,"Lon":133.2508,"CountryCode":null},{"ID":2803,"Name":"Yato","Lat":35.4833,"Lon":139.45,"CountryCode":null},