[{"ID":17357,"Name":"Banlung","Lat":13.7468,"Lon":107.0045,"CountryCode":null},{"ID":4836,"Name":"Battambang","Lat":13.1,"Lon":103.2,"CountryCode":null},{"ID":11184,"Name":"Chbar Mon","Lat":11.45,"Lon":104.5,"CountryCode":null},{"ID":5260,"Name":"Kampong Cham","Lat":11.987,"Lon":105.462,"CountryCode":null},{"ID":13145,"Name":"Kampong Chhnang","Lat":12.25,"Lon":104.6667,"CountryCode":null},{"ID":16123,"Name":"Kampong Speu","Lat":11.452,"Lon":104.519,"CountryCode":null},{"ID":16679,"Name":"Kampong Thom","Lat":12.7,"Lon":104.9,"CountryCode":null},{"ID":24751,"Name":"Kampong Thum","Lat":12.712,"Lon":104.889,"CountryCode":null},{"ID":7199,"Name":"Kampong Trach","Lat":10.55,"Lon":104.4667,"CountryCode":null},{"ID":13924,"Name":"Kampot","Lat":10.6,"Lon":104.1667,"CountryCode":null},{"ID":15972,"Name":"Koh Kong","Lat":11.6167,"Lon":102.9833,"CountryCode":null},{"ID":9607,"Name":"Kratie","Lat":12.48,"Lon":106.03,"CountryCode":null},{"ID":14987,"Name":"Krong Kep","Lat":10.4875,"Lon":104.3208,"CountryCode":null},{"ID":25447,"Name":"Lumphat","Lat":13.507,"Lon":106.981,"CountryCode":null},{"ID":47791,"Name":"Pailin","Lat":12.8489,"Lon":102.6093,"CountryCode":null},{"ID":6215,"Name":"Paoy Paet","Lat":13.65,"Lon":102.5667,"CountryCode":null},{"ID":389,"Name":"Phnom Penh","Lat":11.5694,"Lon":104.9211,"CountryCode":null},{"ID":20984,"Name":"Preah Vihear","Lat":13.8167,"Lon":104.9667,"CountryCode":null},{"ID":14873,"Name":"Prey Veng","Lat":11.4833,"Lon":105.3167,"CountryCode":null},{"ID":9866,"Name":"Pursat","Lat":12.5333,"Lon":103.9167,"CountryCode":null},{"ID":8284,"Name":"Samraong","Lat":14.25,"Lon":103.5833,"CountryCode":null},{"ID":46426,"Name":"Sen Monorom","Lat":12.45,"Lon":107.2,"CountryCode":null},{"ID":4323,"Name":"Siem Reap","Lat":13.3622,"Lon":103.8597,"CountryCode":null},{"ID":8267,"Name":"Sihanoukville","Lat":10.6333,"Lon":103.5,"CountryCode":null},{"ID":6210,"Name":"Sisophon","Lat":13.5833,"Lon":102.9833,"CountryCode":null},{"ID":17761,"Name":"Stung Treng","Lat":13.5167,"Lon":105.9667,"CountryCode":null},{"ID":15343,"Name":"Suong","Lat":11.9167,"Lon":105.65,"CountryCode":null},{"ID":25627,"Name":"Svay Pak","Lat":11.6467,"Lon":104.8715,"CountryCode":null},{"ID":13223,"Name":"Svay Rieng","Lat":11.0833,"Lon":105.8,"CountryCode":null},{"ID":47792,"Name":"Ta Khmau","Lat":11.4833,"Lon":104.95,"CountryCode":null},{"ID":10892,"Name":"Takeo","Lat":10.9833,"Lon":104.7833,"CountryCode":null},{"ID":20972,"Name":"Tbeng Meanchey","Lat":13.8167,"Lon":104.9667,"CountryCode":null}]