[{"ID":46724,"Name":"Balzers","Lat":47.0667,"Lon":9.5,"CountryCode":null},{"ID":46746,"Name":"Eschen","Lat":47.2167,"Lon":9.5167,"CountryCode":null},{"ID":47121,"Name":"Gamprin","Lat":47.2167,"Lon":9.5,"CountryCode":null},{"ID":46751,"Name":"Mauren","Lat":47.2167,"Lon":9.5333,"CountryCode":null},{"ID":47381,"Name":"Planken","Lat":47.1833,"Lon":9.5333,"CountryCode":null},{"ID":47021,"Name":"Ruggell","Lat":47.245,"Lon":9.5332,"CountryCode":null},{"ID":46575,"Name":"Schaan","Lat":47.1667,"Lon":9.5097,"CountryCode":null},{"ID":47229,"Name":"Schellenberg","Lat":47.2336,"Lon":9.5481,"CountryCode":null},{"ID":46656,"Name":"Triesen","Lat":47.1,"Lon":9.5333,"CountryCode":null},{"ID":46971,"Name":"Triesenberg","Lat":47.1181,"Lon":9.5433,"CountryCode":null},{"ID":46604,"Name":"Vaduz","Lat":47.141,"Lon":9.521,"CountryCode":null}]