[{"ID":41305,"Name":"Butha-Buthe","Lat":-28.7833,"Lon":28.2333,"CountryCode":null},{"ID":22933,"Name":"Kueneng","Lat":-29.0161,"Lon":27.9981,"CountryCode":null},{"ID":14123,"Name":"Leribe","Lat":-28.8734,"Lon":28.0416,"CountryCode":null},{"ID":10046,"Name":"Mafeteng","Lat":-29.8167,"Lon":27.25,"CountryCode":null},{"ID":22944,"Name":"Maghalleen","Lat":-30.0942,"Lon":27.4189,"CountryCode":null},{"ID":21318,"Name":"Mapoteng","Lat":-29.1097,"Lon":27.9739,"CountryCode":null},{"ID":16560,"Name":"Maputsoe","Lat":-28.895,"Lon":27.907,"CountryCode":null},{"ID":2045,"Name":"Maseru","Lat":-29.31,"Lon":27.48,"CountryCode":null},{"ID":18889,"Name":"Mazenod","Lat":-29.4642,"Lon":27.4969,"CountryCode":null},{"ID":20566,"Name":"Mohale's Hoek","Lat":-30.15,"Lon":27.4667,"CountryCode":null},{"ID":41819,"Name":"Mohlanapeng","Lat":-29.6975,"Lon":28.6947,"CountryCode":null},{"ID":45254,"Name":"Mokhotlong","Lat":-29.2885,"Lon":29.0656,"CountryCode":null},{"ID":33789,"Name":"Nako","Lat":-29.6481,"Lon":27.7336,"CountryCode":null},{"ID":38753,"Name":"Nyakosoba","Lat":-29.5047,"Lon":27.8692,"CountryCode":null},{"ID":27751,"Name":"Peka","Lat":-28.9667,"Lon":27.7667,"CountryCode":null},{"ID":25746,"Name":"Pitseng","Lat":-29.0097,"Lon":28.2575,"CountryCode":null},{"ID":47591,"Name":"Qacha's Nek","Lat":-30.1167,"Lon":28.6833,"CountryCode":null},{"ID":21203,"Name":"Qiloane","Lat":-29.3625,"Lon":27.6319,"CountryCode":null},{"ID":30632,"Name":"Quthing","Lat":-30.4001,"Lon":27.7002,"CountryCode":null},{"ID":35634,"Name":"Ramabitsa","Lat":-29.7625,"Lon":27.6139,"CountryCode":null},{"ID":39741,"Name":"Rasebetsane","Lat":-29.8992,"Lon":27.6628,"CountryCode":null},{"ID":19444,"Name":"Ratau","Lat":-29.3828,"Lon":27.7892,"CountryCode":null},{"ID":42311,"Name":"Seforong","Lat":-30.1028,"Lon":28.1864,"CountryCode":null},{"ID":22596,"Name":"Senekane","Lat":-29.2525,"Lon":27.7433,"CountryCode":null},{"ID":26466,"Name":"Siloe","Lat":-29.9836,"Lon":27.2792,"CountryCode":null},{"ID":7868,"Name":"Teyateyaneng","Lat":-29.1511,"Lon":27.7425,"CountryCode":null},{"ID":46638,"Name":"Thaba-Tseka","Lat":-29.5333,"Lon":28.6,"CountryCode":null}]