[{"ID":46435,"Name":"Adazi","Lat":57.0667,"Lon":24.3333,"CountryCode":null},{"ID":46477,"Name":"Aizkraukle","Lat":56.6042,"Lon":25.2539,"CountryCode":null},{"ID":46540,"Name":"Aluksne","Lat":57.4167,"Lon":27.05,"CountryCode":null},{"ID":46607,"Name":"Balvi","Lat":57.1333,"Lon":27.25,"CountryCode":null},{"ID":42086,"Name":"Bauska","Lat":56.4083,"Lon":24.1931,"CountryCode":null},{"ID":31166,"Name":"Cesis","Lat":57.3167,"Lon":25.2667,"CountryCode":null},{"ID":7529,"Name":"Daugavpils","Lat":55.875,"Lon":26.5356,"CountryCode":null},{"ID":45842,"Name":"Dobele","Lat":56.6167,"Lon":23.2667,"CountryCode":null},{"ID":46496,"Name":"Gulbene","Lat":57.1667,"Lon":26.75,"CountryCode":null},{"ID":23323,"Name":"Jekabpils","Lat":56.4994,"Lon":25.8783,"CountryCode":null},{"ID":10413,"Name":"Jelgava","Lat":56.6483,"Lon":23.7139,"CountryCode":null},{"ID":11038,"Name":"Jurmala","Lat":56.9681,"Lon":23.7703,"CountryCode":null},{"ID":46675,"Name":"Kekava","Lat":56.8333,"Lon":24.2333,"CountryCode":null},{"ID":46473,"Name":"Kraslava","Lat":55.8833,"Lon":27.1667,"CountryCode":null},{"ID":41247,"Name":"Kuldiga","Lat":56.9667,"Lon":21.9667,"CountryCode":null},{"ID":8718,"Name":"Liepaja","Lat":56.5117,"Lon":21.0139,"CountryCode":null},{"ID":46501,"Name":"Limbazi","Lat":57.5167,"Lon":24.7167,"CountryCode":null},{"ID":46483,"Name":"Livani","Lat":56.3667,"Lon":26.1833,"CountryCode":null},{"ID":46414,"Name":"Ludza","Lat":56.55,"Lon":27.7167,"CountryCode":null},{"ID":46503,"Name":"Madona","Lat":56.85,"Lon":26.2167,"CountryCode":null},{"ID":29180,"Name":"Marupe","Lat":56.9069,"Lon":24.0583,"CountryCode":null},{"ID":22129,"Name":"Ogre","Lat":56.8186,"Lon":24.6056,"CountryCode":null},{"ID":41123,"Name":"Olaine","Lat":56.7833,"Lon":23.9333,"CountryCode":null},{"ID":46580,"Name":"Preili","Lat":56.3,"Lon":26.7167,"CountryCode":null},{"ID":19576,"Name":"Rezekne","Lat":56.5127,"Lon":27.3427,"CountryCode":null},{"ID":833,"Name":"Riga","Lat":56.9489,"Lon":24.1064,"CountryCode":null},{"ID":47118,"Name":"Ropazi","Lat":56.9718,"Lon":24.6318,"CountryCode":null},{"ID":27001,"Name":"Salaspils","Lat":56.8667,"Lon":24.35,"CountryCode":null},{"ID":43019,"Name":"Saldus","Lat":56.6667,"Lon":22.5,"CountryCode":null},{"ID":46900,"Name":"Saulkrasti","Lat":57.25,"Lon":24.4167,"CountryCode":null},{"ID":31348,"Name":"Sigulda","Lat":57.15,"Lon":24.8667,"CountryCode":null},{"ID":46672,"Name":"Smiltene","Lat":57.4333,"Lon":25.9,"CountryCode":null},{"ID":45603,"Name":"Talsi","Lat":57.2444,"Lon":22.5867,"CountryCode":null},{"ID":28474,"Name":"Tukums","Lat":56.9667,"Lon":23.15,"CountryCode":null},{"ID":46919,"Name":"Ulbroka","Lat":56.9333,"Lon":24.2833,"CountryCode":null},{"ID":46732,"Name":"Valka","Lat":57.7667,"Lon":26,"CountryCode":null},{"ID":22368,"Name":"Valmiera","Lat":57.55,"Lon":25.4,"CountryCode":null},{"ID":47115,"Name":"Varaklani","Lat":56.6,"Lon":26.75,"CountryCode":null},{"ID":16243,"Name":"Ventspils","Lat":57.3906,"Lon":21.5733,"CountryCode":null}]