[{"ID":9913,"Name":"Allanmyo","Lat":19.3783,"Lon":95.2279,"CountryCode":null},{"ID":21853,"Name":"Amarapura","Lat":21.9,"Lon":96.05,"CountryCode":null},{"ID":5207,"Name":"An","Lat":19.7833,"Lon":94.0333,"CountryCode":null},{"ID":17298,"Name":"Aungban","Lat":20.6667,"Lon":96.6333,"CountryCode":null},{"ID":2418,"Name":"Bago","Lat":17.3333,"Lon":96.4833,"CountryCode":null},{"ID":27662,"Name":"Bawgalegyi","Lat":18.9144,"Lon":96.7856,"CountryCode":null},{"ID":11682,"Name":"Bhamo","Lat":24.2667,"Lon":97.2333,"CountryCode":null},{"ID":10287,"Name":"Buthidaung","Lat":20.8667,"Lon":92.5333,"CountryCode":null},{"ID":12506,"Name":"Chauk","Lat":20.8833,"Lon":94.8167,"CountryCode":null},{"ID":40747,"Name":"Chaungtha","Lat":16.9667,"Lon":94.45,"CountryCode":null},{"ID":38039,"Name":"Chikha","Lat":23.8898,"Lon":93.5335,"CountryCode":null},{"ID":4347,"Name":"Dawei","Lat":14.0833,"Lon":98.2,"CountryCode":null},{"ID":17537,"Name":"Du Yar","Lat":15.2617,"Lon":97.7819,"CountryCode":null},{"ID":42913,"Name":"Falam","Lat":22.9136,"Lon":93.6778,"CountryCode":null},{"ID":24669,"Name":"Haka","Lat":22.9833,"Lon":94.0167,"CountryCode":null},{"ID":17674,"Name":"Hakha","Lat":22.6455,"Lon":93.605,"CountryCode":null},{"ID":3780,"Name":"Hinthada","Lat":17.6461,"Lon":95.4603,"CountryCode":null},{"ID":37206,"Name":"Hlaingbwe","Lat":17.1333,"Lon":97.8333,"CountryCode":null},{"ID":1705,"Name":"Hpa-An","Lat":16.8906,"Lon":97.6333,"CountryCode":null},{"ID":43302,"Name":"Hsenwi","Lat":23.3,"Lon":97.9667,"CountryCode":null},{"ID":5797,"Name":"Htison","Lat":15.9,"Lon":98.1833,"CountryCode":null},{"ID":22638,"Name":"Ingabu","Lat":17.8167,"Lon":95.2667,"CountryCode":null},{"ID":23799,"Name":"Kamamaung","Lat":17.3469,"Lon":97.6528,"CountryCode":null},{"ID":3848,"Name":"Katha","Lat":24.1822,"Lon":96.3306,"CountryCode":null},{"ID":27480,"Name":"Kawa","Lat":17.0897,"Lon":96.4663,"CountryCode":null},{"ID":11577,"Name":"Kawkareik","Lat":16.5556,"Lon":98.24,"CountryCode":null},{"ID":20331,"Name":"Kawlin","Lat":23.7903,"Lon":95.6806,"CountryCode":null},{"ID":9903,"Name":"Kawthoung","Lat":9.9833,"Lon":98.55,"CountryCode":null},{"ID":7801,"Name":"Kengtung","Lat":21.2917,"Lon":99.6083,"CountryCode":null},{"ID":30086,"Name":"Khampat","Lat":23.7823,"Lon":94.1442,"CountryCode":null},{"ID":22319,"Name":"Khaw Zar Chaung Wa","Lat":15.0375,"Lon":97.8293,"CountryCode":null},{"ID":13695,"Name":"Kyaukme","Lat":22.5392,"Lon":97.0283,"CountryCode":null},{"ID":30669,"Name":"Kyaukmyaung","Lat":22.5833,"Lon":95.95,"CountryCode":null},{"ID":23826,"Name":"Kyaukpyu","Lat":19.4264,"Lon":93.5458,"CountryCode":null},{"ID":1005,"Name":"Kyaukse","Lat":21.6131,"Lon":96.1303,"CountryCode":null},{"ID":3944,"Name":"Kyaunggon","Lat":17.1,"Lon":95.1833,"CountryCode":null},{"ID":21569,"Name":"Kyeintali","Lat":18.0061,"Lon":94.49,"CountryCode":null},{"ID":21294,"Name":"Kyonpyaw","Lat":17.3,"Lon":95.2,"CountryCode":null},{"ID":12042,"Name":"Labutta","Lat":16.1467,"Lon":94.7611,"CountryCode":null},{"ID":4274,"Name":"Lashio","Lat":22.9333,"Lon":97.75,"CountryCode":null},{"ID":11551,"Name":"Leiktho","Lat":19.2222,"Lon":96.5811,"CountryCode":null},{"ID":3658,"Name":"Letpandan","Lat":17.7866,"Lon":95.7507,"CountryCode":null},{"ID":17437,"Name":"Lewe","Lat":19.6333,"Lon":96.1167,"CountryCode":null},{"ID":38476,"Name":"Loikaw","Lat":19.6742,"Lon":97.2092,"CountryCode":null},{"ID":2379,"Name":"Magway","Lat":20.15,"Lon":94.95,"CountryCode":null},{"ID":4060,"Name":"Mahlaing","Lat":21.09,"Lon":95.64,"CountryCode":null},{"ID":581,"Name":"Mandalay","Lat":21.9831,"Lon":96.0844,"CountryCode":null},{"ID":10971,"Name":"Maubin","Lat":16.73,"Lon":95.65,"CountryCode":null},{"ID":1794,"Name":"Maungdaw","Lat":20.8167,"Lon":92.3667,"CountryCode":null},{"ID":27276,"Name":"Mawkanin","Lat":15.5106,"Lon":97.8533,"CountryCode":null},{"ID":12443,"Name":"Mawlaik","Lat":23.2833,"Lon":94.0833,"CountryCode":null},{"ID":2646,"Name":"Mawlamyine","Lat":16.4847,"Lon":97.6258,"CountryCode":null},{"ID":3646,"Name":"Meiktila","Lat":20.8833,"Lon":95.8833,"CountryCode":null},{"ID":22064,"Name":"Minbu","Lat":20.18,"Lon":94.87,"CountryCode":null},{"ID":3808,"Name":"Minbya","Lat":20.3622,"Lon":93.2733,"CountryCode":null},{"ID":12080,"Name":"Mindat","Lat":21.3667,"Lon":93.9833,"CountryCode":null},{"ID":4753,"Name":"Mogaung","Lat":25.3014,"Lon":96.9417,"CountryCode":null},{"ID":3856,"Name":"Mogok","Lat":22.9167,"Lon":96.5,"CountryCode":null},{"ID":16099,"Name":"Mohnyin","Lat":24.7833,"Lon":96.3667,"CountryCode":null},{"ID":6717,"Name":"Mong Tun","Lat":20.3,"Lon":98.9333,"CountryCode":null},{"ID":3190,"Name":"Monywa","Lat":22.1083,"Lon":95.1417,"CountryCode":null},{"ID":4186,"Name":"Mudon","Lat":16.2578,"Lon":97.7164,"CountryCode":null},{"ID":12987,"Name":"Myanaung","Lat":18.2833,"Lon":95.3167,"CountryCode":null},{"ID":10213,"Name":"Myaungmya","Lat":16.6036,"Lon":94.9289,"CountryCode":null},{"ID":3371,"Name":"Myawadi","Lat":16.6878,"Lon":98.5083,"CountryCode":null},{"ID":8156,"Name":"Myaydo","Lat":19.3667,"Lon":95.2167,"CountryCode":null},{"ID":4604,"Name":"Myebon","Lat":20.05,"Lon":93.3667,"CountryCode":null},{"ID":13060,"Name":"Myedu","Lat":23.1833,"Lon":95.4,"CountryCode":null},{"ID":3004,"Name":"Myeik","Lat":12.4333,"Lon":98.6,"CountryCode":null},{"ID":6619,"Name":"Myingyan","Lat":21.46,"Lon":95.3883,"CountryCode":null},{"ID":2766,"Name":"Myitkyina","Lat":25.3833,"Lon":97.4,"CountryCode":null},{"ID":16060,"Name":"Namhkam","Lat":23.8333,"Lon":97.6833,"CountryCode":null},{"ID":11554,"Name":"Namtu","Lat":23.0925,"Lon":97.4011,"CountryCode":null},{"ID":8394,"Name":"Nansang","Lat":20.8889,"Lon":97.7361,"CountryCode":null},{"ID":2689,"Name":"Natogyi","Lat":21.4167,"Lon":95.65,"CountryCode":null},{"ID":28865,"Name":"Nawnghkio","Lat":22.3167,"Lon":96.8,"CountryCode":null},{"ID":665,"Name":"Nay Pyi Taw","Lat":19.7475,"Lon":96.115,"CountryCode":null},{"ID":39435,"Name":"Ngaputaw","Lat":16.5378,"Lon":94.6936,"CountryCode":null},{"ID":25954,"Name":"Ngathainggyaung","Lat":17.4,"Lon":95.0833,"CountryCode":null},{"ID":14907,"Name":"Nyaungdon","Lat":17.0461,"Lon":95.6374,"CountryCode":null},{"ID":11564,"Name":"Nyaungu","Lat":21.2,"Lon":94.9167,"CountryCode":null},{"ID":37173,"Name":"Okpo","Lat":18.1167,"Lon":95.6667,"CountryCode":null},{"ID":6811,"Name":"Paingkyon","Lat":17.0242,"Lon":97.9844,"CountryCode":null},{"ID":4943,"Name":"Pakokku","Lat":21.332,"Lon":95.0866,"CountryCode":null},{"ID":22592,"Name":"Palaw","Lat":12.9597,"Lon":98.6545,"CountryCode":null},{"ID":6321,"Name":"Paletwa","Lat":21.3,"Lon":92.85,"CountryCode":null},{"ID":20840,"Name":"Panglong","Lat":24.1003,"Lon":98.3139,"CountryCode":null},{"ID":24502,"Name":"Pantanaw","Lat":16.985,"Lon":95.4656,"CountryCode":null},{"ID":2394,"Name":"Pathein","Lat":16.7842,"Lon":94.7333,"CountryCode":null},{"ID":25505,"Name":"Pauktaw","Lat":20.2128,"Lon":93.1308,"CountryCode":null},{"ID":4847,"Name":"Ponnagyun","Lat":20.3342,"Lon":93.0039,"CountryCode":null},{"ID":41385,"Name":"Putao","Lat":27.3258,"Lon":97.4225,"CountryCode":null},{"ID":7714,"Name":"Pyapon","Lat":16.286,"Lon":95.6658,"CountryCode":null},{"ID":4674,"Name":"Pyay","Lat":18.82,"Lon":95.2156,"CountryCode":null},{"ID":6139,"Name":"Pyinmana","Lat":19.75,"Lon":96.2,"CountryCode":null},{"ID":12417,"Name":"Pyu","Lat":18.4819,"Lon":96.4369,"CountryCode":null},{"ID":42733,"Name":"Ramree","Lat":19.0833,"Lon":93.8667,"CountryCode":null},{"ID":122,"Name":"Rangoon","Lat":16.795,"Lon":96.16,"CountryCode":null},{"ID":35569,"Name":"Razua","Lat":22.0529,"Lon":93.4086,"CountryCode":null},{"ID":39813,"Name":"Sadon","Lat":25.3927,"Lon":97.8996,"CountryCode":null},{"ID":8422,"Name":"Sagaing","Lat":21.8822,"Lon":95.9786,"CountryCode":null},{"ID":16582,"Name":"Sami","Lat":21.2933,"Lon":93.0965,"CountryCode":null},{"ID":23063,"Name":"Shanywathit","Lat":17.4244,"Lon":97.8878,"CountryCode":null},{"ID":37350,"Name":"Shingbwiyang","Lat":26.6667,"Lon":96.2167,"CountryCode":null},{"ID":6789,"Name":"Shwebo","Lat":22.5667,"Lon":95.7,"CountryCode":null},{"ID":6104,"Name":"Sittwe","Lat":20.167,"Lon":92.785,"CountryCode":null},{"ID":10967,"Name":"Tachilek","Lat":20.45,"Lon":99.8833,"CountryCode":null},{"ID":12912,"Name":"Tamu","Lat":24.2167,"Lon":94.3097,"CountryCode":null},{"ID":4366,"Name":"Taungdwingyi","Lat":20.0017,"Lon":95.5461,"CountryCode":null},{"ID":2558,"Name":"Taunggyi","Lat":20.7836,"Lon":97.0354,"CountryCode":null},{"ID":5697,"Name":"Taungoo","Lat":18.9333,"Lon":96.4333,"CountryCode":null},{"ID":18282,"Name":"Taungup","Lat":18.85,"Lon":94.2333,"CountryCode":null},{"ID":16273,"Name":"Tawsalun","Lat":21.406,"Lon":94.136,"CountryCode":null},{"ID":4387,"Name":"Thanatpin","Lat":17.2942,"Lon":96.58,"CountryCode":null},{"ID":4721,"Name":"Thandwe","Lat":18.4667,"Lon":94.3667,"CountryCode":null},{"ID":3580,"Name":"Thanhlyin","Lat":16.7333,"Lon":96.25,"CountryCode":null},{"ID":4798,"Name":"Thaton","Lat":16.9333,"Lon":97.3667,"CountryCode":null},{"ID":3789,"Name":"Thingangyun","Lat":16.8281,"Lon":96.1842,"CountryCode":null},{"ID":10805,"Name":"Thongwa","Lat":16.7547,"Lon":96.5193,"CountryCode":null},{"ID":6334,"Name":"Tiddim","Lat":23.3758,"Lon":93.6539,"CountryCode":null},{"ID":11583,"Name":"Wakema","Lat":16.6,"Lon":95.1833,"CountryCode":null},{"ID":30668,"Name":"Wan Long","Lat":22.1667,"Lon":99.1833,"CountryCode":null},{"ID":15622,"Name":"Ye","Lat":15.2467,"Lon":97.8556,"CountryCode":null},{"ID":11555,"Name":"Yenangyaung","Lat":20.4597,"Lon":94.8742,"CountryCode":null},{"ID":21558,"Name":"Yesagyo","Lat":21.6333,"Lon":95.2414,"CountryCode":null},{"ID":8667,"Name":"Zigon","Lat":18.3385,"Lon":95.623,"CountryCode":null}]