[{"ID":29561,"Name":"Altay","Lat":46.3728,"Lon":96.2572,"CountryCode":null},{"ID":24670,"Name":"Arvayheer","Lat":46.2661,"Lon":102.7778,"CountryCode":null},{"ID":31829,"Name":"Baruun-Urt","Lat":46.6814,"Lon":113.2803,"CountryCode":null},{"ID":19653,"Name":"Bayanhongor","Lat":46.1917,"Lon":100.7178,"CountryCode":null},{"ID":35443,"Name":"Bulgan","Lat":48.8119,"Lon":103.5336,"CountryCode":null},{"ID":14250,"Name":"Choybalsan","Lat":48.0783,"Lon":114.535,"CountryCode":null},{"ID":39980,"Name":"Choyr","Lat":46.3606,"Lon":108.365,"CountryCode":null},{"ID":47600,"Name":"Dalandzadgad","Lat":43.5708,"Lon":104.425,"CountryCode":null},{"ID":25251,"Name":"Dalanzadgad","Lat":43.57,"Lon":104.4258,"CountryCode":null},{"ID":7905,"Name":"Darhan","Lat":49.4689,"Lon":105.9575,"CountryCode":null},{"ID":7906,"Name":"Darhan","Lat":49.6167,"Lon":106.35,"CountryCode":null},{"ID":25865,"Name":"Dzuunharaa","Lat":48.8666,"Lon":106.4666,"CountryCode":null},{"ID":31230,"Name":"Dzuunmod","Lat":47.7069,"Lon":106.9494,"CountryCode":null},{"ID":5779,"Name":"Erdenet","Lat":49.0278,"Lon":104.0444,"CountryCode":null},{"ID":31070,"Name":"Harhorin","Lat":47.1972,"Lon":102.8239,"CountryCode":null},{"ID":45494,"Name":"Hoshoot","Lat":48.9408,"Lon":89.1383,"CountryCode":null},{"ID":19811,"Name":"Hovd","Lat":48.0042,"Lon":91.6406,"CountryCode":null},{"ID":35407,"Name":"Mandalgovi","Lat":45.7667,"Lon":106.2697,"CountryCode":null},{"ID":4678,"Name":"Moron","Lat":49.6356,"Lon":100.1556,"CountryCode":null},{"ID":18550,"Name":"Nalayh","Lat":47.7725,"Lon":107.2536,"CountryCode":null},{"ID":13489,"Name":"Olgiy","Lat":48.9683,"Lon":89.9686,"CountryCode":null},{"ID":23767,"Name":"Ondorhaan","Lat":47.3233,"Lon":110.6611,"CountryCode":null},{"ID":24809,"Name":"Saynshand","Lat":44.8917,"Lon":110.1367,"CountryCode":null},{"ID":25423,"Name":"Suhbaatar","Lat":50.2364,"Lon":106.2064,"CountryCode":null},{"ID":26192,"Name":"Tsetserleg","Lat":47.4769,"Lon":101.4503,"CountryCode":null},{"ID":554,"Name":"Ulaanbaatar","Lat":47.9203,"Lon":106.9172,"CountryCode":null},{"ID":19616,"Name":"Ulaangom","Lat":49.9833,"Lon":92.0667,"CountryCode":null},{"ID":46819,"Name":"Ulaan-Uul","Lat":44.3337,"Lon":111.2333,"CountryCode":null},{"ID":22829,"Name":"Uliastay","Lat":47.7428,"Lon":96.8433,"CountryCode":null}]