[{"ID":47606,"Name":"Dhihdhoo","Lat":6.8874,"Lon":73.114,"CountryCode":null},{"ID":46970,"Name":"Eydhafushi","Lat":5.1038,"Lon":73.0704,"CountryCode":null},{"ID":47370,"Name":"Felidhoo","Lat":3.4717,"Lon":73.5472,"CountryCode":null},{"ID":44013,"Name":"Foammulah","Lat":-0.2932,"Lon":73.4236,"CountryCode":null},{"ID":47607,"Name":"Fonadhoo","Lat":1.8342,"Lon":73.5031,"CountryCode":null},{"ID":47060,"Name":"Funadhoo","Lat":6.1482,"Lon":73.29,"CountryCode":null},{"ID":40079,"Name":"Hithadhoo","Lat":-0.6094,"Lon":73.0899,"CountryCode":null},{"ID":46899,"Name":"Kudahuvadhoo","Lat":2.6711,"Lon":72.8935,"CountryCode":null},{"ID":29463,"Name":"Kulhudhuffushi","Lat":6.6225,"Lon":73.0703,"CountryCode":null},{"ID":46926,"Name":"Mahibadhoo","Lat":3.7575,"Lon":72.9686,"CountryCode":null},{"ID":4739,"Name":"Male","Lat":4.1753,"Lon":73.5089,"CountryCode":null},{"ID":47067,"Name":"Manadhoo","Lat":5.7628,"Lon":73.4106,"CountryCode":null},{"ID":47605,"Name":"Muli","Lat":2.9217,"Lon":73.5811,"CountryCode":null},{"ID":46778,"Name":"Naifaru","Lat":5.4444,"Lon":73.3657,"CountryCode":null},{"ID":47608,"Name":"Nilandhoo","Lat":3.0567,"Lon":72.89,"CountryCode":null},{"ID":47604,"Name":"Rasdhoo","Lat":4.2631,"Lon":72.9919,"CountryCode":null},{"ID":46660,"Name":"Thinadhoo","Lat":0.5302,"Lon":72.9965,"CountryCode":null},{"ID":47609,"Name":"Thulusdhoo","Lat":4.3742,"Lon":73.6517,"CountryCode":null},{"ID":47144,"Name":"Ungoofaaru","Lat":5.6681,"Lon":73.0306,"CountryCode":null},{"ID":47179,"Name":"Veymandoo","Lat":2.1881,"Lon":73.0947,"CountryCode":null},{"ID":46947,"Name":"Viligili","Lat":0.7569,"Lon":73.4361,"CountryCode":null}]