[{"ID":18103,"Name":"Abasolo","Lat":20.45,"Lon":-101.517,"CountryCode":null},{"ID":36434,"Name":"Abasolo","Lat":24.0559,"Lon":-98.3733,"CountryCode":null},{"ID":30629,"Name":"Acala","Lat":16.5533,"Lon":-92.8069,"CountryCode":null},{"ID":10117,"Name":"Acambaro","Lat":20.0361,"Lon":-100.7314,"CountryCode":null},{"ID":10089,"Name":"Acambay","Lat":19.9539,"Lon":-99.8431,"CountryCode":null},{"ID":38566,"Name":"Acanceh","Lat":20.8133,"Lon":-89.4524,"CountryCode":null},{"ID":19267,"Name":"Acapetahua","Lat":15.2333,"Lon":-92.7667,"CountryCode":null},{"ID":1106,"Name":"Acapulco de Juarez","Lat":16.8636,"Lon":-99.8825,"CountryCode":null},{"ID":23233,"Name":"Acatic","Lat":20.7803,"Lon":-102.91,"CountryCode":null},{"ID":22591,"Name":"Acatlan","Lat":20.1444,"Lon":-98.4383,"CountryCode":null},{"ID":20334,"Name":"Acatlan","Lat":20.2333,"Lon":-103.5333,"CountryCode":null},{"ID":15825,"Name":"Acatlan de Osorio","Lat":18.2086,"Lon":-98.0575,"CountryCode":null},{"ID":12962,"Name":"Acatlan de Perez Figueroa","Lat":18.5333,"Lon":-96.6,"CountryCode":null},{"ID":10873,"Name":"Acatzingo","Lat":18.9817,"Lon":-97.7822,"CountryCode":null},{"ID":12059,"Name":"Acaxochitlan","Lat":20.1667,"Lon":-98.2,"CountryCode":null},{"ID":7150,"Name":"Acayucan","Lat":17.9422,"Lon":-94.9103,"CountryCode":null},{"ID":12701,"Name":"Actopan","Lat":19.5036,"Lon":-96.6192,"CountryCode":null},{"ID":17975,"Name":"Actopan","Lat":20.2681,"Lon":-98.9442,"CountryCode":null},{"ID":40348,"Name":"Agua Blanca Iturbide","Lat":20.35,"Lon":-98.35,"CountryCode":null},{"ID":6648,"Name":"Agua Prieta","Lat":31.3258,"Lon":-109.5489,"CountryCode":null},{"ID":829,"Name":"Aguascalientes","Lat":21.876,"Lon":-102.296,"CountryCode":null},{"ID":21542,"Name":"Ahualulco de Mercado","Lat":20.6167,"Lon":-103.8667,"CountryCode":null},{"ID":46071,"Name":"Ahumada","Lat":30.6186,"Lon":-106.5122,"CountryCode":null},{"ID":25815,"Name":"Ajacuba","Lat":20.0833,"Lon":-99.1167,"CountryCode":null},{"ID":37388,"Name":"Ajijic","Lat":20.3,"Lon":-103.2833,"CountryCode":null},{"ID":40758,"Name":"Akil","Lat":20.2656,"Lon":-89.3478,"CountryCode":null},{"ID":20406,"Name":"Alamo","Lat":20.9167,"Lon":-97.675,"CountryCode":null},{"ID":38582,"Name":"Alamos","Lat":27.0275,"Lon":-108.94,"CountryCode":null},{"ID":32902,"Name":"Aldama","Lat":22.9194,"Lon":-98.0736,"CountryCode":null},{"ID":26051,"Name":"Aldama","Lat":28.8386,"Lon":-105.9111,"CountryCode":null},{"ID":28150,"Name":"Alfajayucan","Lat":20.4,"Lon":-99.35,"CountryCode":null},{"ID":23378,"Name":"Allende","Lat":28.3333,"Lon":-100.8333,"CountryCode":null},{"ID":39425,"Name":"Almoloya","Lat":19.7,"Lon":-98.4,"CountryCode":null},{"ID":32001,"Name":"Almoloya de Alquisiras","Lat":18.85,"Lon":-99.85,"CountryCode":null},{"ID":44825,"Name":"Almoloya del Rio","Lat":19.1586,"Lon":-99.4886,"CountryCode":null},{"ID":9680,"Name":"Altamira","Lat":22.3375,"Lon":-97.8694,"CountryCode":null},{"ID":39469,"Name":"Altamirano","Lat":16.7361,"Lon":-92.0389,"CountryCode":null},{"ID":47076,"Name":"Altata","Lat":24.6333,"Lon":-107.9167,"CountryCode":null},{"ID":23606,"Name":"Altepexi","Lat":18.35,"Lon":-97.3167,"CountryCode":null},{"ID":10052,"Name":"Alvarado","Lat":18.7811,"Lon":-95.7572,"CountryCode":null},{"ID":27217,"Name":"Amacuzac","Lat":18.6,"Lon":-99.37,"CountryCode":null},{"ID":20875,"Name":"Amatan","Lat":17.3667,"Lon":-92.8167,"CountryCode":null},{"ID":16745,"Name":"Amatenango de la Frontera","Lat":15.5333,"Lon":-92.0833,"CountryCode":null},{"ID":37718,"Name":"Amatenango del Valle","Lat":16.5167,"Lon":-92.4,"CountryCode":null},{"ID":19172,"Name":"Amatepec","Lat":18.65,"Lon":-100.15,"CountryCode":null},{"ID":30149,"Name":"Amatitan","Lat":20.835,"Lon":-103.731,"CountryCode":null},{"ID":44142,"Name":"Amatlan de los Reyes","Lat":18.8457,"Lon":-96.9149,"CountryCode":null},{"ID":14330,"Name":"Ameca","Lat":20.5486,"Lon":-104.0431,"CountryCode":null},{"ID":16767,"Name":"Amecameca de Juarez","Lat":19.75,"Lon":-99.1711,"CountryCode":null},{"ID":41616,"Name":"Anahuac","Lat":28.48,"Lon":-106.7442,"CountryCode":null},{"ID":37862,"Name":"Anenecuilco","Lat":18.7781,"Lon":-98.985,"CountryCode":null},{"ID":36811,"Name":"Angel R. Cabada","Lat":18.5969,"Lon":-95.4453,"CountryCode":null},{"ID":13910,"Name":"Apan","Lat":19.7,"Lon":-98.4333,"CountryCode":null},{"ID":9028,"Name":"Apaseo el Alto","Lat":20.45,"Lon":-100.6167,"CountryCode":null},{"ID":7042,"Name":"Apaseo el Grande","Lat":20.5531,"Lon":-100.6347,"CountryCode":null},{"ID":4894,"Name":"Apatzingan de la Constitucion","Lat":19.0886,"Lon":-102.3508,"CountryCode":null},{"ID":18913,"Name":"Apaxco de Ocampo","Lat":19.98,"Lon":-99.17,"CountryCode":null},{"ID":7298,"Name":"Apizaco","Lat":19.4167,"Lon":-98.1333,"CountryCode":null},{"ID":20263,"Name":"Arriaga","Lat":16.2361,"Lon":-93.8995,"CountryCode":null},{"ID":33242,"Name":"Ascension","Lat":31.0928,"Lon":-107.9964,"CountryCode":null},{"ID":26189,"Name":"Asuncion Nochixtlan","Lat":17.45,"Lon":-97.2167,"CountryCode":null},{"ID":12848,"Name":"Atenco","Lat":19.5167,"Lon":-98.9167,"CountryCode":null},{"ID":19259,"Name":"Atitalaquia","Lat":20.0583,"Lon":-99.2208,"CountryCode":null},{"ID":24883,"Name":"Atlapexco","Lat":21.0221,"Lon":-98.3543,"CountryCode":null},{"ID":20349,"Name":"Atlatlahucan","Lat":18.935,"Lon":-98.9,"CountryCode":null},{"ID":18826,"Name":"Atlautla","Lat":19,"Lon":-98.7167,"CountryCode":null},{"ID":9527,"Name":"Atotonilco el Alto","Lat":20.5333,"Lon":-102.5,"CountryCode":null},{"ID":21401,"Name":"Atotonilco el Grande","Lat":20.6667,"Lon":-98.6667,"CountryCode":null},{"ID":24175,"Name":"Atoyac de Alvarez","Lat":17.2,"Lon":-100.4333,"CountryCode":null},{"ID":8971,"Name":"Autlan de Navarro","Lat":19.7667,"Lon":-104.3667,"CountryCode":null},{"ID":22909,"Name":"Axapusco","Lat":19.7194,"Lon":-98.7972,"CountryCode":null},{"ID":13925,"Name":"Axochiapan","Lat":18.5,"Lon":-98.75,"CountryCode":null},{"ID":45073,"Name":"Ayapango","Lat":19.1264,"Lon":-98.8028,"CountryCode":null},{"ID":46131,"Name":"Ayotoxco de Guerrero","Lat":20.1,"Lon":-97.4,"CountryCode":null},{"ID":34335,"Name":"Ayutla","Lat":20.0333,"Lon":-104.4333,"CountryCode":null},{"ID":30116,"Name":"Ayutla de los Libres","Lat":16.9,"Lon":-99.2167,"CountryCode":null},{"ID":35022,"Name":"Bacalar","Lat":18.6769,"Lon":-88.3953,"CountryCode":null},{"ID":46198,"Name":"Bacobampo","Lat":26.9889,"Lon":-109.65,"CountryCode":null},{"ID":9824,"Name":"Balancan","Lat":17.8,"Lon":-91.5333,"CountryCode":null},{"ID":41227,"Name":"Benemerito","Lat":16.5158,"Lon":-90.6533,"CountryCode":null},{"ID":27187,"Name":"Benito Juarez","Lat":20.8833,"Lon":-98.2,"CountryCode":null},{"ID":14944,"Name":"Berriozabal","Lat":16.8003,"Lon":-93.2733,"CountryCode":null},{"ID":4407,"Name":"Boca del Rio","Lat":19.1056,"Lon":-96.1078,"CountryCode":null},{"ID":31991,"Name":"Bochil","Lat":16.9833,"Lon":-92.9167,"CountryCode":null},{"ID":11763,"Name":"Buena Vista Tomatlan","Lat":19.2102,"Lon":-102.5869,"CountryCode":null},{"ID":8574,"Name":"Cabo San Lucas","Lat":22.8897,"Lon":-109.9156,"CountryCode":null},{"ID":25560,"Name":"Cacahoatan","Lat":14.9898,"Lon":-92.1681,"CountryCode":null},{"ID":33420,"Name":"Cadereyta","Lat":20.7,"Lon":-99.8167,"CountryCode":null},{"ID":7814,"Name":"Cadereyta Jimenez","Lat":25.6,"Lon":-100,"CountryCode":null},{"ID":11862,"Name":"Calimaya","Lat":19.1608,"Lon":-99.6172,"CountryCode":null},{"ID":30824,"Name":"Calkini","Lat":20.3667,"Lon":-90.05,"CountryCode":null},{"ID":27747,"Name":"Calnali","Lat":20.9,"Lon":-98.5833,"CountryCode":null},{"ID":14379,"Name":"Calpulalpan","Lat":19.5869,"Lon":-98.5683,"CountryCode":null},{"ID":24944,"Name":"Calvillo","Lat":21.85,"Lon":-102.7167,"CountryCode":null},{"ID":13583,"Name":"Camargo","Lat":27.667,"Lon":-105.167,"CountryCode":null},{"ID":2700,"Name":"Campeche","Lat":19.85,"Lon":-90.5306,"CountryCode":null},{"ID":14255,"Name":"Cananea","Lat":30.9828,"Lon":-110.3017,"CountryCode":null},{"ID":40243,"Name":"Canatlan","Lat":24.52,"Lon":-104.78,"CountryCode":null},{"ID":868,"Name":"Cancun","Lat":21.1606,"Lon":-86.8475,"CountryCode":null},{"ID":38133,"Name":"Candelaria","Lat":18.1835,"Lon":-91.0463,"CountryCode":null},{"ID":39810,"Name":"Candelaria Loxicha","Lat":15.9167,"Lon":-96.4833,"CountryCode":null},{"ID":29762,"Name":"Capilla de Guadalupe","Lat":20.65,"Lon":-102.8,"CountryCode":null},{"ID":17153,"Name":"Capulhuac","Lat":19.2,"Lon":-99.4667,"CountryCode":null},{"ID":43038,"Name":"Caracuaro","Lat":19.0167,"Lon":-101.1261,"CountryCode":null},{"ID":24671,"Name":"Cardenas","Lat":22.01,"Lon":-99.652,"CountryCode":null},{"ID":25221,"Name":"Cardonal","Lat":20.6167,"Lon":-99.1167,"CountryCode":null},{"ID":20841,"Name":"Carlos A. Carrillo","Lat":18.3667,"Lon":-95.75,"CountryCode":null},{"ID":2708,"Name":"Carmen","Lat":18.6431,"Lon":-91.8306,"CountryCode":null},{"ID":19012,"Name":"Castanos","Lat":26.7833,"Lon":-101.4167,"CountryCode":null},{"ID":24611,"Name":"Castillo de Teayo","Lat":20.75,"Lon":-97.6333,"CountryCode":null},{"ID":11383,"Name":"Catemaco","Lat":18.4167,"Lon":-95.1167,"CountryCode":null},{"ID":21518,"Name":"Cazones de Herrera","Lat":20.7044,"Lon":-97.3106,"CountryCode":null},{"ID":1876,"Name":"Celaya","Lat":20.5222,"Lon":-100.8122,"CountryCode":null},{"ID":31013,"Name":"Cerritos","Lat":22.4275,"Lon":-100.2783,"CountryCode":null},{"ID":21578,"Name":"Cerro Azul","Lat":21.192,"Lon":-97.7409,"CountryCode":null},{"ID":24059,"Name":"Chachahuantla","Lat":20.2756,"Lon":-98.1503,"CountryCode":null},{"ID":22908,"Name":"Chalchihuitan","Lat":17.0333,"Lon":-92.6167,"CountryCode":null},{"ID":2242,"Name":"Chalco","Lat":19.2647,"Lon":-98.8975,"CountryCode":null},{"ID":33205,"Name":"Chalma","Lat":21.2167,"Lon":-98.4,"CountryCode":null},{"ID":17129,"Name":"Champoton","Lat":19.35,"Lon":-90.7167,"CountryCode":null},{"ID":42898,"Name":"Chanal","Lat":16.6601,"Lon":-92.2599,"CountryCode":null},{"ID":23052,"Name":"Chapa de Mota","Lat":19.8144,"Lon":-99.5269,"CountryCode":null},{"ID":23186,"Name":"Chapala","Lat":20.2961,"Lon":-103.1911,"CountryCode":null},{"ID":34172,"Name":"Chapantongo","Lat":20.2833,"Lon":-99.4,"CountryCode":null},{"ID":24111,"Name":"Chapulhuacan","Lat":21.1547,"Lon":-98.9039,"CountryCode":null},{"ID":32118,"Name":"Charcas","Lat":23.1261,"Lon":-101.1128,"CountryCode":null},{"ID":23014,"Name":"Charo","Lat":19.75,"Lon":-101.05,"CountryCode":null},{"ID":40530,"Name":"Chavinda","Lat":20.0167,"Lon":-102.45,"CountryCode":null},{"ID":30894,"Name":"Chemax","Lat":20.655,"Lon":-87.9372,"CountryCode":null},{"ID":11788,"Name":"Chenalho","Lat":16.9333,"Lon":-92.5667,"CountryCode":null},{"ID":25590,"Name":"Cheran","Lat":19.6833,"Lon":-101.95,"CountryCode":null},{"ID":3814,"Name":"Chetumal","Lat":18.5036,"Lon":-88.3053,"CountryCode":null},{"ID":10221,"Name":"Chiapa de Corzo","Lat":16.7069,"Lon":-93.0139,"CountryCode":null},{"ID":36630,"Name":"Chiautla de Tapia","Lat":18.3,"Lon":-98.6039,"CountryCode":null},{"ID":41054,"Name":"Chichihualco","Lat":17.655,"Lon":-99.674,"CountryCode":null},{"ID":3687,"Name":"Chicoloapan","Lat":19.4167,"Lon":-98.9,"CountryCode":null},{"ID":25021,"Name":"Chiconcuac","Lat":19.55,"Lon":-98.9,"CountryCode":null},{"ID":31670,"Name":"Chiconquiaco","Lat":19.75,"Lon":-96.8167,"CountryCode":null},{"ID":876,"Name":"Chihuahua","Lat":28.6369,"Lon":-106.0769,"CountryCode":null},{"ID":5158,"Name":"Chilapa de Alvarez","Lat":17.5944,"Lon":-99.1778,"CountryCode":null},{"ID":30226,"Name":"Chilcuautla","Lat":20.3333,"Lon":-99.2333,"CountryCode":null},{"ID":44680,"Name":"Chilon","Lat":17.1055,"Lon":-92.2715,"CountryCode":null},{"ID":5569,"Name":"Chilon","Lat":17.1167,"Lon":-92.2833,"CountryCode":null},{"ID":3493,"Name":"Chilpancingo","Lat":17.55,"Lon":-99.5,"CountryCode":null},{"ID":1226,"Name":"Chimalhuacan","Lat":19.4167,"Lon":-98.9,"CountryCode":null},{"ID":41386,"Name":"China","Lat":25.7033,"Lon":-99.2365,"CountryCode":null},{"ID":28302,"Name":"Chinampa de Gorostiza","Lat":21.3667,"Lon":-97.7333,"CountryCode":null},{"ID":23604,"Name":"Chocaman","Lat":19.0167,"Lon":-97.0333,"CountryCode":null},{"ID":43563,"Name":"Choix","Lat":26.7086,"Lon":-108.3253,"CountryCode":null},{"ID":4868,"Name":"Cholula de Rivadabia","Lat":19.0633,"Lon":-98.3064,"CountryCode":null},{"ID":31718,"Name":"Churumuco de Morelos","Lat":18.6167,"Lon":-101.6333,"CountryCode":null},{"ID":31883,"Name":"Cienega de Flores","Lat":25.95,"Lon":-100.1833,"CountryCode":null},{"ID":13621,"Name":"Cihuatlan","Lat":19.25,"Lon":-104.5667,"CountryCode":null},{"ID":11429,"Name":"Cintalapa de Figueroa","Lat":16.6978,"Lon":-93.7203,"CountryCode":null},{"ID":35865,"Name":"Citlaltepec","Lat":21.3366,"Lon":-97.8784,"CountryCode":null},{"ID":4008,"Name":"Ciudad Acuna","Lat":29.3242,"Lon":-100.9317,"CountryCode":null},{"ID":19940,"Name":"Ciudad Altamirano","Lat":18.3472,"Lon":-100.6531,"CountryCode":null},{"ID":1407,"Name":"Ciudad Apodaca","Lat":25.7817,"Lon":-100.1886,"CountryCode":null},{"ID":2251,"Name":"Ciudad Benito Juarez","Lat":25.65,"Lon":-100.0833,"CountryCode":null},{"ID":12610,"Name":"Ciudad Constitucion","Lat":25.0322,"Lon":-111.6703,"CountryCode":null},{"ID":42259,"Name":"Ciudad Cuauhtemoc","Lat":21.2833,"Lon":-98.3667,"CountryCode":null},{"ID":15251,"Name":"Ciudad de Allende","Lat":25.2833,"Lon":-100.0167,"CountryCode":null},{"ID":6764,"Name":"Ciudad de Atlixco","Lat":18.9,"Lon":-98.45,"CountryCode":null},{"ID":12229,"Name":"Ciudad de Huajuapam de Leon","Lat":17.8,"Lon":-97.7667,"CountryCode":null},{"ID":29213,"Name":"Ciudad de Huitzuco","Lat":18.3,"Lon":-99.35,"CountryCode":null},{"ID":3432,"Name":"Ciudad del Carmen","Lat":18.6333,"Lon":-91.8333,"CountryCode":null},{"ID":2312,"Name":"Ciudad General Escobedo","Lat":25.7933,"Lon":-100.1583,"CountryCode":null},{"ID":28566,"Name":"Ciudad Guadalupe Victoria","Lat":24.4497,"Lon":-104.1225,"CountryCode":null},{"ID":5417,"Name":"Ciudad Guzman","Lat":19.7,"Lon":-103.4667,"CountryCode":null},{"ID":5088,"Name":"Ciudad Hidalgo","Lat":19.6917,"Lon":-100.5536,"CountryCode":null},{"ID":27356,"Name":"Ciudad Hidalgo","Lat":14.6792,"Lon":-92.1497,"CountryCode":null},{"ID":44117,"Name":"Ciudad Insurgentes","Lat":25.2617,"Lon":-111.7744,"CountryCode":null},{"ID":7499,"Name":"Ciudad Lazaro Cardenas","Lat":17.9561,"Lon":-102.1922,"CountryCode":null},{"ID":7453,"Name":"Ciudad Lerdo","Lat":25.55,"Lon":-103.5167,"CountryCode":null},{"ID":1511,"Name":"Ciudad Lopez Mateos","Lat":19.55,"Lon":-99.2833,"CountryCode":null},{"ID":3347,"Name":"Ciudad Madero","Lat":22.25,"Lon":-97.8333,"CountryCode":null},{"ID":7083,"Name":"Ciudad Mante","Lat":22.7333,"Lon":-98.95,"CountryCode":null},{"ID":14582,"Name":"Ciudad Manuel Doblado","Lat":20.7303,"Lon":-101.9533,"CountryCode":null},{"ID":13982,"Name":"Ciudad Melchor Muzquiz","Lat":27.8667,"Lon":-101.5,"CountryCode":null},{"ID":24713,"Name":"Ciudad Miguel Aleman","Lat":26.4003,"Lon":-99.0253,"CountryCode":null},{"ID":719,"Name":"Ciudad Nezahualcoyotl","Lat":19.4006,"Lon":-99.0148,"CountryCode":null},{"ID":2125,"Name":"Ciudad Obregon","Lat":27.4939,"Lon":-109.9389,"CountryCode":null},{"ID":6058,"Name":"Ciudad Rio Bravo","Lat":25.9861,"Lon":-98.0889,"CountryCode":null},{"ID":16592,"Name":"Ciudad Sabinas Hidalgo","Lat":26.5,"Lon":-100.1833,"CountryCode":null},{"ID":18299,"Name":"Ciudad Sahagun","Lat":19.7714,"Lon":-98.5803,"CountryCode":null},{"ID":2263,"Name":"Ciudad Santa Catarina","Lat":25.6833,"Lon":-100.45,"CountryCode":null},{"ID":21399,"Name":"Ciudad Serdan","Lat":18.9833,"Lon":-97.45,"CountryCode":null},{"ID":41177,"Name":"Ciudad Tula","Lat":23,"Lon":-99.72,"CountryCode":null},{"ID":3654,"Name":"Ciudad Valles","Lat":21.9833,"Lon":-99.0167,"CountryCode":null},{"ID":2266,"Name":"Ciudad Victoria","Lat":23.7389,"Lon":-99.1431,"CountryCode":null},{"ID":2350,"Name":"Coacalco","Lat":19.6333,"Lon":-99.0931,"CountryCode":null},{"ID":39850,"Name":"Coacoatzintla","Lat":19.65,"Lon":-96.9333,"CountryCode":null},{"ID":46102,"Name":"Coahuitlan","Lat":20.2667,"Lon":-97.7167,"CountryCode":null},{"ID":26270,"Name":"Coalcoman de Vazquez Pallares","Lat":18.7833,"Lon":-103.1667,"CountryCode":null},{"ID":6587,"Name":"Coatepec","Lat":19.4522,"Lon":-96.9614,"CountryCode":null},{"ID":14868,"Name":"Coatepec Harinas","Lat":18.9,"Lon":-99.7167,"CountryCode":null},{"ID":44253,"Name":"Coatetelco","Lat":18.7294,"Lon":-99.3256,"CountryCode":null},{"ID":2188,"Name":"Coatzacoalcos","Lat":18.15,"Lon":-94.4333,"CountryCode":null},{"ID":29854,"Name":"Cochoapa el Grande","Lat":17.2,"Lon":-98.45,"CountryCode":null},{"ID":35807,"Name":"Cocotitlan","Lat":19.2167,"Lon":-98.85,"CountryCode":null},{"ID":4346,"Name":"Colima","Lat":19.2433,"Lon":-103.7247,"CountryCode":null},{"ID":11656,"Name":"Colonia del Sol","Lat":22.9125,"Lon":-109.9208,"CountryCode":null},{"ID":24181,"Name":"Colonia General Felipe Angeles","Lat":23.9167,"Lon":-104.6,"CountryCode":null},{"ID":24994,"Name":"Colotlan","Lat":22.2,"Lon":-103.3,"CountryCode":null},{"ID":42541,"Name":"Comala","Lat":19.3208,"Lon":-103.7603,"CountryCode":null},{"ID":23070,"Name":"Comalapa","Lat":15.65,"Lon":-92.15,"CountryCode":null},{"ID":3095,"Name":"Comalcalco","Lat":18.2801,"Lon":-93.2018,"CountryCode":null},{"ID":24844,"Name":"Comapa","Lat":19.165,"Lon":-96.8856,"CountryCode":null},{"ID":5480,"Name":"Comitan","Lat":16.25,"Lon":-92.1333,"CountryCode":null},{"ID":27251,"Name":"Compostela","Lat":21.2333,"Lon":-104.9,"CountryCode":null},{"ID":18862,"Name":"Contla","Lat":19.3333,"Lon":-98.1667,"CountryCode":null},{"ID":30884,"Name":"Coquimatlan","Lat":19.2038,"Lon":-103.8086,"CountryCode":null},{"ID":3223,"Name":"Cordoba","Lat":18.8942,"Lon":-96.9347,"CountryCode":null},{"ID":40230,"Name":"Coroneo","Lat":20.1333,"Lon":-100.3333,"CountryCode":null},{"ID":9383,"Name":"Cortazar","Lat":20.4828,"Lon":-100.9611,"CountryCode":null},{"ID":10031,"Name":"Cosamaloapan","Lat":18.3667,"Lon":-95.8,"CountryCode":null},{"ID":28772,"Name":"Cosautlan","Lat":19.3333,"Lon":-96.9833,"CountryCode":null},{"ID":29843,"Name":"Cosio","Lat":22.3667,"Lon":-102.3,"CountryCode":null},{"ID":25652,"Name":"Cotija de la Paz","Lat":19.8167,"Lon":-102.6833,"CountryCode":null},{"ID":41669,"Name":"Coycoyan de las Flores","Lat":17.2667,"Lon":-98.2667,"CountryCode":null},{"ID":13106,"Name":"Coyotepec","Lat":19.75,"Lon":-99.1711,"CountryCode":null},{"ID":13035,"Name":"Coyuca de Catalan","Lat":18.3256,"Lon":-100.6992,"CountryCode":null},{"ID":8976,"Name":"Coyula","Lat":20.6586,"Lon":-103.2264,"CountryCode":null},{"ID":7667,"Name":"Cozumel","Lat":20.5104,"Lon":-86.9493,"CountryCode":null},{"ID":24475,"Name":"Cruz Grande","Lat":16.7333,"Lon":-99.1333,"CountryCode":null},{"ID":19421,"Name":"Cuajinicuilapa","Lat":16.4717,"Lon":-98.4153,"CountryCode":null},{"ID":40989,"Name":"Cuapiaxtla de Madero","Lat":18.9167,"Lon":-97.8167,"CountryCode":null},{"ID":40090,"Name":"Cuatro Cienegas de Carranza","Lat":26.9861,"Lon":-102.0664,"CountryCode":null},{"ID":16957,"Name":"Cuauhtemoc","Lat":19.3281,"Lon":-103.6028,"CountryCode":null},{"ID":3586,"Name":"Cuauhtemoc","Lat":28.405,"Lon":-106.8667,"CountryCode":null},{"ID":12194,"Name":"Cuautepec de Hinojosa","Lat":20.15,"Lon":-98.4333,"CountryCode":null},{"ID":3631,"Name":"Cuautitlan","Lat":19.6833,"Lon":-99.1833,"CountryCode":null},{"ID":26352,"Name":"Cuautitlan","Lat":19.4522,"Lon":-104.3583,"CountryCode":null},{"ID":1329,"Name":"Cuautitlan Izcalli","Lat":19.65,"Lon":-99.25,"CountryCode":null},{"ID":3389,"Name":"Cuautla","Lat":18.8167,"Lon":-98.95,"CountryCode":null},{"ID":41931,"Name":"Cuencame de Ceniceros","Lat":24.8667,"Lon":-103.7,"CountryCode":null},{"ID":19015,"Name":"Cueramaro","Lat":20.6258,"Lon":-101.6739,"CountryCode":null},{"ID":2067,"Name":"Cuernavaca","Lat":18.9186,"Lon":-99.2342,"CountryCode":null},{"ID":42757,"Name":"Cuervos","Lat":32.6308,"Lon":-114.8569,"CountryCode":null},{"ID":11670,"Name":"Cuetzalan","Lat":20.0333,"Lon":-97.5167,"CountryCode":null},{"ID":41636,"Name":"Cuicatlan","Lat":17.8,"Lon":-96.95,"CountryCode":null},{"ID":35624,"Name":"Cuichapa","Lat":18.7667,"Lon":-96.8667,"CountryCode":null},{"ID":23185,"Name":"Cuilapan de Guerrero","Lat":16.9972,"Lon":-96.7817,"CountryCode":null},{"ID":18503,"Name":"Cuitzeo del Porvenir","Lat":19.9686,"Lon":-101.1394,"CountryCode":null},{"ID":941,"Name":"Culiacan","Lat":24.8069,"Lon":-107.3939,"CountryCode":null},{"ID":4600,"Name":"Cunduacan","Lat":18.0667,"Lon":-93.1667,"CountryCode":null},{"ID":26802,"Name":"Cuquio","Lat":20.929,"Lon":-103.0229,"CountryCode":null},{"ID":23507,"Name":"Degollado","Lat":20.4667,"Lon":-102.15,"CountryCode":null},{"ID":4230,"Name":"Delicias","Lat":28.1931,"Lon":-105.4717,"CountryCode":null},{"ID":43461,"Name":"Doctor Arroyo","Lat":23.6667,"Lon":-100.1667,"CountryCode":null},{"ID":21765,"Name":"Doctor Mora","Lat":21.1425,"Lon":-100.3192,"CountryCode":null},{"ID":8717,"Name":"Dolores Hidalgo Cuna de la Independencia Nacional","Lat":21.1516,"Lon":-100.9369,"CountryCode":null},{"ID":1143,"Name":"Durango","Lat":24.025,"Lon":-104.6675,"CountryCode":null},{"ID":27973,"Name":"Dzitbalche","Lat":20.3167,"Lon":-90.05,"CountryCode":null},{"ID":428,"Name":"Ecatepec","Lat":19.6097,"Lon":-99.06,"CountryCode":null},{"ID":43370,"Name":"Ecatzingo","Lat":18.95,"Lon":-98.75,"CountryCode":null},{"ID":27669,"Name":"Ejutla de Crespo","Lat":16.5672,"Lon":-96.7308,"CountryCode":null},{"ID":30567,"Name":"El Arenal","Lat":20.2167,"Lon":-98.9167,"CountryCode":null},{"ID":24802,"Name":"El Arenal","Lat":20.7,"Lon":-103.6167,"CountryCode":null},{"ID":31865,"Name":"El Barrio de la Soledad","Lat":16.8,"Lon":-95.1167,"CountryCode":null},{"ID":895,"Name":"El Dorado","Lat":24.808,"Lon":-107.397,"CountryCode":null},{"ID":46070,"Name":"El Espinal","Lat":16.4906,"Lon":-95.0444,"CountryCode":null},{"ID":34945,"Name":"El Fuerte","Lat":26.4214,"Lon":-108.62,"CountryCode":null},{"ID":16692,"Name":"El Oro de Hidalgo","Lat":19.8008,"Lon":-100.1314,"CountryCode":null},{"ID":36266,"Name":"El Parral","Lat":16.3662,"Lon":-93.0067,"CountryCode":null},{"ID":5406,"Name":"El Pueblito","Lat":20.5397,"Lon":-100.4414,"CountryCode":null},{"ID":29245,"Name":"El Rosario","Lat":22.9922,"Lon":-105.8572,"CountryCode":null},{"ID":21085,"Name":"El Salto","Lat":23.7823,"Lon":-105.3585,"CountryCode":null},{"ID":35034,"Name":"Eloxochitlan","Lat":18.5088,"Lon":-96.9227,"CountryCode":null},{"ID":35471,"Name":"Emiliano Zapata","Lat":19.65,"Lon":-98.55,"CountryCode":null},{"ID":39032,"Name":"Emiliano Zapata","Lat":16.5392,"Lon":-92.8967,"CountryCode":null},{"ID":22451,"Name":"Emiliano Zapata","Lat":17.7446,"Lon":-91.7651,"CountryCode":null},{"ID":14018,"Name":"Empalme","Lat":27.9617,"Lon":-110.8125,"CountryCode":null},{"ID":10606,"Name":"Encarnacion de Diaz","Lat":21.5167,"Lon":-102.2333,"CountryCode":null},{"ID":1638,"Name":"Ensenada","Lat":31.8578,"Lon":-116.6058,"CountryCode":null},{"ID":37181,"Name":"Epazoyucan","Lat":20.0177,"Lon":-98.6361,"CountryCode":null},{"ID":28433,"Name":"Epitacio Huerta","Lat":20.1348,"Lon":-100.2934,"CountryCode":null},{"ID":30216,"Name":"Erongaricuaro","Lat":19.5833,"Lon":-101.7167,"CountryCode":null},{"ID":17856,"Name":"Escarcega","Lat":18.6067,"Lon":-90.7344,"CountryCode":null},{"ID":17176,"Name":"Escuinapa","Lat":22.835,"Lon":-105.778,"CountryCode":null},{"ID":39448,"Name":"Escuintla","Lat":15.3333,"Lon":-92.6333,"CountryCode":null},{"ID":46809,"Name":"Esperanza","Lat":27.58,"Lon":-109.9298,"CountryCode":null},{"ID":37119,"Name":"Espita","Lat":21.0128,"Lon":-88.3047,"CountryCode":null},{"ID":41986,"Name":"Etchojoa","Lat":26.8667,"Lon":-109.65,"CountryCode":null},{"ID":24641,"Name":"Etzatlan","Lat":20.7667,"Lon":-104.1333,"CountryCode":null},{"ID":32211,"Name":"Ezequiel Montes","Lat":20.6667,"Lon":-99.8833,"CountryCode":null},{"ID":20021,"Name":"Felipe Carrillo Puerto","Lat":19.5786,"Lon":-88.0453,"CountryCode":null},{"ID":26358,"Name":"Filomeno Mata","Lat":20.2,"Lon":-97.7,"CountryCode":null},{"ID":23388,"Name":"Fortin de las Flores","Lat":18.9,"Lon":-97,"CountryCode":null},{"ID":11225,"Name":"Francisco I. Madero","Lat":25.7753,"Lon":-103.2731,"CountryCode":null},{"ID":2898,"Name":"Fresnillo","Lat":23.175,"Lon":-102.8675,"CountryCode":null},{"ID":7857,"Name":"Frontera","Lat":26.926,"Lon":-101.449,"CountryCode":null},{"ID":21998,"Name":"Frontera","Lat":18.5336,"Lon":-92.6469,"CountryCode":null},{"ID":14002,"Name":"Galeana","Lat":24.8333,"Lon":-100.0667,"CountryCode":null},{"ID":2861,"Name":"Garcia","Lat":25.8167,"Lon":-100.5833,"CountryCode":null},{"ID":21617,"Name":"General Panfilo Natera","Lat":22.665,"Lon":-102.1097,"CountryCode":null},{"ID":2053,"Name":"Gomez Palacio","Lat":25.5611,"Lon":-103.4983,"CountryCode":null},{"ID":37903,"Name":"Gonzalez","Lat":22.8281,"Lon":-98.4306,"CountryCode":null},{"ID":32060,"Name":"Grajales","Lat":19.25,"Lon":-97.7833,"CountryCode":null},{"ID":12189,"Name":"Guacharachi","Lat":27.15,"Lon":-107.3167,"CountryCode":null},{"ID":31460,"Name":"Guachochi","Lat":26.8194,"Lon":-107.07,"CountryCode":null},{"ID":110,"Name":"Guadalajara","Lat":20.6767,"Lon":-103.3475,"CountryCode":null},{"ID":1082,"Name":"Guadalupe","Lat":25.6775,"Lon":-100.2597,"CountryCode":null},{"ID":3134,"Name":"Guadalupe","Lat":22.7528,"Lon":-102.5078,"CountryCode":null},{"ID":28065,"Name":"Guadalupe Victoria","Lat":19.2833,"Lon":-97.3333,"CountryCode":null},{"ID":9112,"Name":"Guamuchil","Lat":25.4639,"Lon":-108.0794,"CountryCode":null},{"ID":3392,"Name":"Guanajuato","Lat":21.0178,"Lon":-101.2567,"CountryCode":null},{"ID":6971,"Name":"Guasave","Lat":25.5655,"Lon":-108.4718,"CountryCode":null},{"ID":2183,"Name":"Guasavito","Lat":25.5744,"Lon":-108.4706,"CountryCode":null},{"ID":4082,"Name":"Guaymas","Lat":27.9183,"Lon":-110.8933,"CountryCode":null},{"ID":33028,"Name":"Guerrero Negro","Lat":27.9589,"Lon":-114.0561,"CountryCode":null},{"ID":43250,"Name":"Halacho","Lat":20.4764,"Lon":-90.0819,"CountryCode":null},{"ID":40444,"Name":"Hecelchakan","Lat":20.1667,"Lon":-90.1333,"CountryCode":null},{"ID":900,"Name":"Hermosillo","Lat":29.0989,"Lon":-110.9542,"CountryCode":null},{"ID":8661,"Name":"Heroica Caborca","Lat":30.7167,"Lon":-112.15,"CountryCode":null},{"ID":13626,"Name":"Heroica Ciudad de Tlaxiaco","Lat":17.2077,"Lon":-97.6798,"CountryCode":null},{"ID":5305,"Name":"Heroica Guaymas","Lat":27.9183,"Lon":-110.8989,"CountryCode":null},{"ID":1366,"Name":"Heroica Matamoros","Lat":25.8797,"Lon":-97.5042,"CountryCode":null},{"ID":2587,"Name":"Heroica Nogales","Lat":31.3186,"Lon":-110.9458,"CountryCode":null},{"ID":25086,"Name":"Hidalgotitlan","Lat":17.7833,"Lon":-94.6333,"CountryCode":null},{"ID":44702,"Name":"Higuera de Zaragoza","Lat":25.95,"Lon":-109.2833,"CountryCode":null},{"ID":45543,"Name":"Hostotipaquillo","Lat":21.2167,"Lon":-103.85,"CountryCode":null},{"ID":10894,"Name":"Huamantla","Lat":19.3133,"Lon":-97.9228,"CountryCode":null},{"ID":37025,"Name":"Huandacareo","Lat":19.9906,"Lon":-101.275,"CountryCode":null},{"ID":24536,"Name":"Huanimaro","Lat":20.3675,"Lon":-101.4969,"CountryCode":null},{"ID":19747,"Name":"Huaquechula","Lat":18.7667,"Lon":-98.55,"CountryCode":null},{"ID":30337,"Name":"Huasca de Ocampo","Lat":20.2028,"Lon":-98.5758,"CountryCode":null},{"ID":17382,"Name":"Huatabampo","Lat":27.05,"Lon":-109.4167,"CountryCode":null},{"ID":9512,"Name":"Huatusco","Lat":19.1489,"Lon":-96.9661,"CountryCode":null},{"ID":9756,"Name":"Huauchinango","Lat":20.1767,"Lon":-98.0528,"CountryCode":null},{"ID":22410,"Name":"Huautla","Lat":21.0308,"Lon":-98.285,"CountryCode":null},{"ID":34550,"Name":"Huazalingo","Lat":21.8156,"Lon":-98.5078,"CountryCode":null},{"ID":7636,"Name":"Huebampo","Lat":26.7228,"Lon":-109.4856,"CountryCode":null},{"ID":25893,"Name":"Huehuetla","Lat":20.1075,"Lon":-97.6233,"CountryCode":null},{"ID":9654,"Name":"Huehuetoca","Lat":19.8342,"Lon":-99.2033,"CountryCode":null},{"ID":20054,"Name":"Huejotzingo","Lat":19.1619,"Lon":-98.4064,"CountryCode":null},{"ID":22754,"Name":"Huejucar","Lat":22.3591,"Lon":-103.2108,"CountryCode":null},{"ID":41258,"Name":"Huejuquilla el Alto","Lat":22.6256,"Lon":-103.8964,"CountryCode":null},{"ID":4838,"Name":"Huejutla de Reyes","Lat":21.1333,"Lon":-98.4167,"CountryCode":null},{"ID":12715,"Name":"Hueyapan de Ocampo","Lat":18.15,"Lon":-95.15,"CountryCode":null},{"ID":46302,"Name":"Hueyotlipan","Lat":18.9,"Lon":-97.85,"CountryCode":null},{"ID":41912,"Name":"Huichapan","Lat":20.3733,"Lon":-99.6489,"CountryCode":null},{"ID":30484,"Name":"Huitzilan","Lat":19.9667,"Lon":-97.6833,"CountryCode":null},{"ID":31002,"Name":"Huixcolotla","Lat":18.9147,"Lon":-97.7736,"CountryCode":null},{"ID":2411,"Name":"Huixquilucan","Lat":19.3611,"Lon":-99.3508,"CountryCode":null},{"ID":16565,"Name":"Huixtla","Lat":15.1383,"Lon":-92.4658,"CountryCode":null},{"ID":20604,"Name":"Hunucma","Lat":21.0153,"Lon":-89.8744,"CountryCode":null},{"ID":27817,"Name":"Ignacio de la Llave","Lat":18.6618,"Lon":-95.9721,"CountryCode":null},{"ID":4517,"Name":"Iguala de la Independencia","Lat":18.345,"Lon":-99.5383,"CountryCode":null},{"ID":33211,"Name":"Ilamatlan","Lat":20.7833,"Lon":-98.45,"CountryCode":null},{"ID":1263,"Name":"Irapuato","Lat":20.6667,"Lon":-101.35,"CountryCode":null},{"ID":12707,"Name":"Isla","Lat":18.0333,"Lon":-95.5333,"CountryCode":null},{"ID":34788,"Name":"Isla Mujeres","Lat":21.2333,"Lon":-86.7333,"CountryCode":null},{"ID":33039,"Name":"Ixcatepec","Lat":21.2333,"Lon":-98,"CountryCode":null},{"ID":10519,"Name":"Ixhuatlan de Madero","Lat":20.6833,"Lon":-98.0167,"CountryCode":null},{"ID":29562,"Name":"Ixhuatlan del Sureste","Lat":18.017,"Lon":-94.38,"CountryCode":null},{"ID":20614,"Name":"Ixhuatlancillo","Lat":18.9,"Lon":-97.15,"CountryCode":null},{"ID":6227,"Name":"Ixmiquilpan","Lat":20.4819,"Lon":-99.2181,"CountryCode":null},{"ID":8535,"Name":"Ixtaczoquitlan","Lat":18.85,"Lon":-97.0667,"CountryCode":null},{"ID":44643,"Name":"Ixtapa Zihuatanejo","Lat":17.6367,"Lon":-101.5514,"CountryCode":null},{"ID":1364,"Name":"Ixtapaluca","Lat":19.3186,"Lon":-98.8822,"CountryCode":null},{"ID":15991,"Name":"Ixtapan de la Sal","Lat":18.8333,"Lon":-99.6833,"CountryCode":null},{"ID":4168,"Name":"Ixtlahuaca","Lat":19.5689,"Lon":-99.7669,"CountryCode":null},{"ID":8619,"Name":"Ixtlahuacan de los Membrillos","Lat":20.35,"Lon":-103.1833,"CountryCode":null},{"ID":25607,"Name":"Ixtlahuacan del Rio","Lat":20.8667,"Lon":-103.25,"CountryCode":null},{"ID":28973,"Name":"Izamal","Lat":20.9314,"Lon":-89.0178,"CountryCode":null},{"ID":35987,"Name":"Jacala","Lat":21.0053,"Lon":-99.1719,"CountryCode":null},{"ID":8541,"Name":"Jacona de Plancarte","Lat":19.9333,"Lon":-102.3167,"CountryCode":null},{"ID":12454,"Name":"Jalacingo","Lat":19.8,"Lon":-97.3,"CountryCode":null},{"ID":14380,"Name":"Jalapa","Lat":17.7,"Lon":-92.8,"CountryCode":null},{"ID":28365,"Name":"Jalpa de Mendez","Lat":18.1764,"Lon":-93.0631,"CountryCode":null},{"ID":18998,"Name":"Jalpan","Lat":21.2167,"Lon":-99.4725,"CountryCode":null},{"ID":36405,"Name":"Jaltenango","Lat":15.8725,"Lon":-92.725,"CountryCode":null},{"ID":19585,"Name":"Jaltenco","Lat":19.7511,"Lon":-99.0931,"CountryCode":null},{"ID":13157,"Name":"Jaltipan de Morelos","Lat":17.9703,"Lon":-94.7144,"CountryCode":null},{"ID":40506,"Name":"Jaltocan","Lat":21.1333,"Lon":-98.5383,"CountryCode":null},{"ID":38104,"Name":"Jamapa","Lat":19.0411,"Lon":-96.2411,"CountryCode":null},{"ID":20722,"Name":"Jamay","Lat":20.29,"Lon":-102.71,"CountryCode":null},{"ID":25453,"Name":"Jamiltepec","Lat":16.2833,"Lon":-97.8167,"CountryCode":null},{"ID":14779,"Name":"Jaral del Progreso","Lat":20.3667,"Lon":-101.0667,"CountryCode":null},{"ID":9953,"Name":"Jerez de Garcia Salinas","Lat":22.6481,"Lon":-102.9903,"CountryCode":null},{"ID":12794,"Name":"Jesus Maria","Lat":21.9667,"Lon":-102.35,"CountryCode":null},{"ID":25192,"Name":"Jesus Maria","Lat":20.6078,"Lon":-102.2242,"CountryCode":null},{"ID":28363,"Name":"Jilotepec","Lat":19.6097,"Lon":-96.9511,"CountryCode":null},{"ID":6854,"Name":"Jilotepec","Lat":19.9519,"Lon":-99.5328,"CountryCode":null},{"ID":41723,"Name":"Jilotlan de los Dolores","Lat":19.3719,"Lon":-103.0193,"CountryCode":null},{"ID":11496,"Name":"Jimenez","Lat":27.13,"Lon":-104.9067,"CountryCode":null},{"ID":8958,"Name":"Jiquilpan de Juarez","Lat":19.9942,"Lon":-102.7172,"CountryCode":null},{"ID":37013,"Name":"Jiquipilas","Lat":16.6677,"Lon":-93.6505,"CountryCode":null},{"ID":3086,"Name":"Jiutepec","Lat":18.8833,"Lon":-99.1667,"CountryCode":null},{"ID":13007,"Name":"Jocotepec","Lat":20.2863,"Lon":-103.4304,"CountryCode":null},{"ID":8926,"Name":"Jocotitlan","Lat":19.7072,"Lon":-99.7867,"CountryCode":null},{"ID":17174,"Name":"Jonuta","Lat":18.0833,"Lon":-92.1333,"CountryCode":null},{"ID":38335,"Name":"Joquicingo","Lat":19.0556,"Lon":-99.5467,"CountryCode":null},{"ID":25311,"Name":"Jose Cardel","Lat":19.3667,"Lon":-96.3667,"CountryCode":null},{"ID":36691,"Name":"Jose Maria Morelos","Lat":19.75,"Lon":-88.7,"CountryCode":null},{"ID":32054,"Name":"Juan Aldama","Lat":24.291,"Lon":-103.394,"CountryCode":null},{"ID":14014,"Name":"Juan Rodriguez Clara","Lat":18,"Lon":-95.4,"CountryCode":null},{"ID":17141,"Name":"Juanacatlan","Lat":20.5,"Lon":-103.1667,"CountryCode":null},{"ID":580,"Name":"Juarez","Lat":31.745,"Lon":-106.485,"CountryCode":null},{"ID":35590,"Name":"Juchipila","Lat":21.4103,"Lon":-103.1175,"CountryCode":null},{"ID":28760,"Name":"Juchique de Ferrer","Lat":19.8333,"Lon":-96.7,"CountryCode":null},{"ID":7901,"Name":"Juchitan de Zaragoza","Lat":16.4333,"Lon":-95.0167,"CountryCode":null},{"ID":17875,"Name":"Juchitepec","Lat":19.0997,"Lon":-98.8792,"CountryCode":null},{"ID":7498,"Name":"Juventino Rosas","Lat":20.65,"Lon":-101,"CountryCode":null},{"ID":4532,"Name":"Kanasin","Lat":20.9344,"Lon":-89.5578,"CountryCode":null},{"ID":8623,"Name":"La Barca","Lat":20.2833,"Lon":-102.5667,"CountryCode":null},{"ID":33980,"Name":"La Crucecita","Lat":15.7753,"Lon":-96.1425,"CountryCode":null},{"ID":29738,"Name":"La Cruz","Lat":23.9214,"Lon":-106.8919,"CountryCode":null},{"ID":21817,"Name":"La Higuerita","Lat":19.5,"Lon":-104.8833,"CountryCode":null},{"ID":15693,"Name":"La Huacana","Lat":18.9625,"Lon":-101.8069,"CountryCode":null},{"ID":21818,"Name":"La Huerta","Lat":19.4833,"Lon":-104.65,"CountryCode":null},{"ID":11995,"Name":"La Independencia","Lat":16.2526,"Lon":-92.0237,"CountryCode":null},{"ID":44851,"Name":"La Junta","Lat":28.4778,"Lon":-107.3317,"CountryCode":null},{"ID":35719,"Name":"La Magdalena Chichicaspa","Lat":19.4181,"Lon":-99.3228,"CountryCode":null},{"ID":30552,"Name":"La Magdalena Tlaltelulco","Lat":19.2667,"Lon":-98.2,"CountryCode":null},{"ID":41008,"Name":"La Mision","Lat":21.1,"Lon":-99.1333,"CountryCode":null},{"ID":2687,"Name":"La Paz","Lat":24.1422,"Lon":-110.3108,"CountryCode":null},{"ID":7180,"Name":"La Piedad","Lat":20.3333,"Lon":-102.0167,"CountryCode":null},{"ID":24136,"Name":"La Resolana","Lat":19.3425,"Lon":-104.2878,"CountryCode":null},{"ID":7194,"Name":"La Trinidad","Lat":15.9833,"Lon":-91.8667,"CountryCode":null},{"ID":38294,"Name":"La Trinitaria","Lat":16.1203,"Lon":-92.0408,"CountryCode":null},{"ID":3745,"Name":"Lagos de Moreno","Lat":21.35,"Lon":-101.9167,"CountryCode":null},{"ID":5430,"Name":"Las Delicias","Lat":28.2,"Lon":-105.5,"CountryCode":null},{"ID":4503,"Name":"Las Maravillas","Lat":16.3667,"Lon":-91.7333,"CountryCode":null},{"ID":21009,"Name":"Las Margaritas","Lat":16.3159,"Lon":-91.9816,"CountryCode":null},{"ID":18195,"Name":"Las Rosas","Lat":16.3667,"Lon":-92.35,"CountryCode":null},{"ID":39862,"Name":"Las Veredas","Lat":23.1503,"Lon":-109.7061,"CountryCode":null},{"ID":24359,"Name":"Las Vigas de Ramirez","Lat":19.6369,"Lon":-97.1,"CountryCode":null},{"ID":45630,"Name":"Lazaro Cardenas","Lat":28.3897,"Lon":-105.6236,"CountryCode":null},{"ID":495,"Name":"Leon de los Aldama","Lat":21.1167,"Lon":-101.6833,"CountryCode":null},{"ID":25058,"Name":"Lerdo de Tejada","Lat":18.638,"Lon":-95.5085,"CountryCode":null},{"ID":44718,"Name":"Lerma","Lat":19.8,"Lon":-90.6,"CountryCode":null},{"ID":5844,"Name":"Lerma","Lat":19.2847,"Lon":-99.5119,"CountryCode":null},{"ID":8351,"Name":"Linares","Lat":24.8597,"Lon":-99.5647,"CountryCode":null},{"ID":12696,"Name":"Loreto","Lat":22.2667,"Lon":-101.9833,"CountryCode":null},{"ID":31146,"Name":"Loreto","Lat":26.0128,"Lon":-111.3433,"CountryCode":null},{"ID":2317,"Name":"Los Mochis","Lat":25.7835,"Lon":-108.9937,"CountryCode":null},{"ID":18950,"Name":"Los Reyes de Juarez","Lat":18.9458,"Lon":-97.8058,"CountryCode":null},{"ID":8443,"Name":"Los Reyes de Salgado","Lat":19.5833,"Lon":-102.4667,"CountryCode":null},{"ID":42867,"Name":"Lototla","Lat":20.8392,"Lon":-98.7178,"CountryCode":null},{"ID":4042,"Name":"Macuspana","Lat":17.7667,"Lon":-92.6,"CountryCode":null},{"ID":30022,"Name":"Madera","Lat":29.19,"Lon":-108.1414,"CountryCode":null},{"ID":23020,"Name":"Magdalena","Lat":20.9167,"Lon":-103.95,"CountryCode":null},{"ID":17341,"Name":"Magdalena de Kino","Lat":30.6167,"Lon":-111.05,"CountryCode":null},{"ID":22056,"Name":"Malinalco","Lat":18.9483,"Lon":-99.4947,"CountryCode":null},{"ID":21328,"Name":"Manlio Fabio Altamirano","Lat":19.1003,"Lon":-96.3411,"CountryCode":null},{"ID":3438,"Name":"Manzanillo","Lat":19.0522,"Lon":-104.3158,"CountryCode":null},{"ID":25378,"Name":"Mapastepec","Lat":15.4411,"Lon":-92.8916,"CountryCode":null},{"ID":7399,"Name":"Maravatio de Ocampo","Lat":19.8976,"Lon":-100.45,"CountryCode":null},{"ID":14546,"Name":"Mariano Escobedo","Lat":18.9167,"Lon":-97.1333,"CountryCode":null},{"ID":5614,"Name":"Martinez de la Torre","Lat":20.0667,"Lon":-97.05,"CountryCode":null},{"ID":43659,"Name":"Mascota","Lat":20.5235,"Lon":-104.7886,"CountryCode":null},{"ID":5253,"Name":"Matamoros","Lat":25.533,"Lon":-103.25,"CountryCode":null},{"ID":6019,"Name":"Matehuala","Lat":23.6528,"Lon":-100.6444,"CountryCode":null},{"ID":13725,"Name":"Matias Romero","Lat":16.8667,"Lon":-95.0333,"CountryCode":null},{"ID":34830,"Name":"Maxcanu","Lat":20.5833,"Lon":-89.9833,"CountryCode":null},{"ID":32228,"Name":"Mazamitla","Lat":19.9153,"Lon":-103.0208,"CountryCode":null},{"ID":26980,"Name":"Mazapil","Lat":24.6383,"Lon":-101.5553,"CountryCode":null},{"ID":47236,"Name":"Mazatan","Lat":29.0167,"Lon":-110.1333,"CountryCode":null},{"ID":1471,"Name":"Mazatlan","Lat":23.2167,"Lon":-106.4167,"CountryCode":null},{"ID":33878,"Name":"Mazatlan Villa de Flores","Lat":18.0167,"Lon":-96.9167,"CountryCode":null},{"ID":35422,"Name":"Mecatlan","Lat":20.2135,"Lon":-97.6574,"CountryCode":null},{"ID":27572,"Name":"Mecayapan","Lat":18.2167,"Lon":-94.8333,"CountryCode":null},{"ID":14402,"Name":"Melchor Ocampo","Lat":19.7083,"Lon":-99.1444,"CountryCode":null},{"ID":12365,"Name":"Meoqui","Lat":28.2722,"Lon":-105.4819,"CountryCode":null},{"ID":861,"Name":"Merida","Lat":20.97,"Lon":-89.62,"CountryCode":null},{"ID":18520,"Name":"Metepec","Lat":19.2511,"Lon":-99.6047,"CountryCode":null},{"ID":694,"Name":"Mexicali","Lat":32.6633,"Lon":-115.4678,"CountryCode":null},{"ID":40806,"Name":"Mexicaltzingo","Lat":19.2092,"Lon":-99.5858,"CountryCode":null},{"ID":10,"Name":"Mexico City","Lat":19.4333,"Lon":-99.1333,"CountryCode":null},{"ID":19359,"Name":"Miacatlan","Lat":18.7722,"Lon":-99.3547,"CountryCode":null},{"ID":20352,"Name":"Miahuatlan","Lat":18.5667,"Lon":-97.4333,"CountryCode":null},{"ID":33767,"Name":"Miahuatlan","Lat":18.2833,"Lon":-97.2833,"CountryCode":null},{"ID":15157,"Name":"Miahuatlan de Porfirio Diaz","Lat":16.3167,"Lon":-96.5833,"CountryCode":null},{"ID":1968,"Name":"Minatitlan","Lat":17.9833,"Lon":-94.55,"CountryCode":null},{"ID":40607,"Name":"Minatitlan","Lat":19.3833,"Lon":-104.05,"CountryCode":null},{"ID":38139,"Name":"Mineral de Angangueo","Lat":19.6167,"Lon":-100.2833,"CountryCode":null},{"ID":8548,"Name":"Mineral de la Reforma","Lat":20.15,"Lon":-98.4333,"CountryCode":null},{"ID":31256,"Name":"Mineral del Monte","Lat":20.1333,"Lon":-98.6667,"CountryCode":null},{"ID":5240,"Name":"Miramar","Lat":22.3375,"Lon":-97.8694,"CountryCode":null},{"ID":9053,"Name":"Misantla","Lat":19.9333,"Lon":-96.85,"CountryCode":null},{"ID":14384,"Name":"Mixquiahuala de Juarez","Lat":20.2311,"Lon":-99.2131,"CountryCode":null},{"ID":36900,"Name":"Mixtla de Altamirano","Lat":18.6,"Lon":-97,"CountryCode":null},{"ID":40120,"Name":"Molango","Lat":20.7844,"Lon":-98.7175,"CountryCode":null},{"ID":27336,"Name":"Moloacan","Lat":17.9833,"Lon":-94.35,"CountryCode":null},{"ID":2825,"Name":"Monclova","Lat":26.9103,"Lon":-101.4222,"CountryCode":null},{"ID":45702,"Name":"Monte Escobedo","Lat":22.3,"Lon":-103.5667,"CountryCode":null},{"ID":12275,"Name":"Montemorelos","Lat":25.1872,"Lon":-99.8267,"CountryCode":null},{"ID":116,"Name":"Monterrey","Lat":25.6667,"Lon":-100.3,"CountryCode":null},{"ID":761,"Name":"Morelia","Lat":19.7683,"Lon":-101.1894,"CountryCode":null},{"ID":18743,"Name":"Motozintla","Lat":15.3632,"Lon":-92.2477,"CountryCode":null},{"ID":21827,"Name":"Motul","Lat":21.1667,"Lon":-89.4667,"CountryCode":null},{"ID":37318,"Name":"Muna","Lat":20.48,"Lon":-89.72,"CountryCode":null},{"ID":38600,"Name":"Nacajuca","Lat":18.1692,"Lon":-93.0197,"CountryCode":null},{"ID":34132,"Name":"Nacozari de Garcia","Lat":30.3736,"Lon":-109.6864,"CountryCode":null},{"ID":31716,"Name":"Nacozari Viejo","Lat":30.3833,"Lon":-109.6833,"CountryCode":null},{"ID":17507,"Name":"Nanchital de Lazaro Cardenas del Rio","Lat":18.0667,"Lon":-94.4167,"CountryCode":null},{"ID":22176,"Name":"Naolinco de Victoria","Lat":19.6367,"Lon":-96.8525,"CountryCode":null},{"ID":24576,"Name":"Naranjos","Lat":21.3509,"Lon":-97.6866,"CountryCode":null},{"ID":843,"Name":"Naucalpan de Juarez","Lat":19.4753,"Lon":-99.2378,"CountryCode":null},{"ID":46942,"Name":"Nautla","Lat":20.2167,"Lon":-96.7833,"CountryCode":null},{"ID":19224,"Name":"Nava","Lat":28.4214,"Lon":-100.7675,"CountryCode":null},{"ID":5152,"Name":"Navojoa","Lat":27.0813,"Lon":-109.4461,"CountryCode":null},{"ID":18277,"Name":"Navolato","Lat":24.7656,"Lon":-107.7019,"CountryCode":null},{"ID":711,"Name":"Nezahualcoyotl","Lat":19.4081,"Lon":-99.0186,"CountryCode":null},{"ID":1917,"Name":"Nicolas Romero","Lat":19.5833,"Lon":-99.3667,"CountryCode":null},{"ID":18681,"Name":"Nochistlan de Mejia","Lat":21.3642,"Lon":-102.8464,"CountryCode":null},{"ID":2559,"Name":"Nogales","Lat":31.3,"Lon":-110.9333,"CountryCode":null},{"ID":23593,"Name":"Nogales","Lat":18.8167,"Lon":-97.1667,"CountryCode":null},{"ID":30481,"Name":"Nopala de Villagran","Lat":20.2528,"Lon":-99.6433,"CountryCode":null},{"ID":16421,"Name":"Nueva Italia de Ruiz","Lat":19.0194,"Lon":-102.1089,"CountryCode":null},{"ID":13954,"Name":"Nueva Rosita","Lat":27.9372,"Lon":-101.2172,"CountryCode":null},{"ID":10286,"Name":"Nuevo Casas Grandes","Lat":30.4167,"Lon":-107.9167,"CountryCode":null},{"ID":34388,"Name":"Nuevo Ideal","Lat":24.8875,"Lon":-105.0728,"CountryCode":null},{"ID":1863,"Name":"Nuevo Laredo","Lat":27.4861,"Lon":-99.5069,"CountryCode":null},{"ID":28294,"Name":"Nuevo San Juan Parangaricutiro","Lat":19.4,"Lon":-102.1333,"CountryCode":null},{"ID":2296,"Name":"Oaxaca","Lat":17.0606,"Lon":-96.7253,"CountryCode":null},{"ID":22759,"Name":"Ocatlan","Lat":19.3167,"Lon":-98.2283,"CountryCode":null},{"ID":11722,"Name":"Ocosingo","Lat":16.9072,"Lon":-92.0961,"CountryCode":null},{"ID":6435,"Name":"Ocotlan","Lat":20.3467,"Lon":-102.7744,"CountryCode":null},{"ID":23117,"Name":"Ocotlan de Morelos","Lat":16.7914,"Lon":-96.675,"CountryCode":null},{"ID":8810,"Name":"Ocoyoacac","Lat":19.2739,"Lon":-99.4606,"CountryCode":null},{"ID":12736,"Name":"Ocozocoautla de Espinosa","Lat":16.7625,"Lon":-93.375,"CountryCode":null},{"ID":15593,"Name":"Ocuilan de Arteaga","Lat":19,"Lon":-99.4,"CountryCode":null},{"ID":22250,"Name":"Ojinaga","Lat":29.5644,"Lon":-104.4164,"CountryCode":null},{"ID":36393,"Name":"Ojuelos de Jalisco","Lat":21.8667,"Lon":-101.5833,"CountryCode":null},{"ID":37192,"Name":"Olintla","Lat":20.1,"Lon":-97.6833,"CountryCode":null},{"ID":17412,"Name":"Ometepec","Lat":16.6833,"Lon":-98.4167,"CountryCode":null},{"ID":5063,"Name":"Orizaba","Lat":18.85,"Lon":-97.1,"CountryCode":null},{"ID":28932,"Name":"Oteapan","Lat":18,"Lon":-94.6667,"CountryCode":null},{"ID":43760,"Name":"Otumba","Lat":19.6989,"Lon":-98.7572,"CountryCode":null},{"ID":10399,"Name":"Oxchuc","Lat":16.7833,"Lon":-92.2833,"CountryCode":null},{"ID":21941,"Name":"Oxkutzkab","Lat":20.3056,"Lon":-89.4183,"CountryCode":null},{"ID":21825,"Name":"Ozuluama de Mascarenas","Lat":21.6667,"Lon":-97.85,"CountryCode":null},{"ID":18030,"Name":"Ozumba","Lat":19.0392,"Lon":-98.7936,"CountryCode":null},{"ID":11727,"Name":"Pabellon de Arteaga","Lat":22.15,"Lon":-102.2667,"CountryCode":null},{"ID":2319,"Name":"Pachuca","Lat":20.1,"Lon":-98.75,"CountryCode":null},{"ID":24060,"Name":"Pahuatlan de Valle","Lat":20.2756,"Lon":-98.1503,"CountryCode":null},{"ID":41262,"Name":"Pajacuaran","Lat":20.1178,"Lon":-102.5667,"CountryCode":null},{"ID":27364,"Name":"Pajapan","Lat":18.2667,"Lon":-94.6833,"CountryCode":null},{"ID":27227,"Name":"Palau","Lat":27.9167,"Lon":-101.4167,"CountryCode":null},{"ID":10930,"Name":"Palenque","Lat":17.4333,"Lon":-91.8,"CountryCode":null},{"ID":45885,"Name":"Pantelho","Lat":17,"Lon":-92.4833,"CountryCode":null},{"ID":35567,"Name":"Pantepec","Lat":17.1833,"Lon":-93.05,"CountryCode":null},{"ID":16164,"Name":"Panuco","Lat":22.05,"Lon":-98.1833,"CountryCode":null},{"ID":36300,"Name":"Panuco de Coronado","Lat":24.5392,"Lon":-104.3253,"CountryCode":null},{"ID":3981,"Name":"Papantla de Olarte","Lat":20.4478,"Lon":-97.32,"CountryCode":null},{"ID":14484,"Name":"Paracho de Verduzco","Lat":19.65,"Lon":-102.0667,"CountryCode":null},{"ID":19326,"Name":"Paracuaro","Lat":19.1467,"Lon":-102.2194,"CountryCode":null},{"ID":6326,"Name":"Paraiso","Lat":18.3961,"Lon":-93.2128,"CountryCode":null},{"ID":41201,"Name":"Parilla","Lat":17.9119,"Lon":-92.9175,"CountryCode":null},{"ID":5888,"Name":"Parral","Lat":26.9333,"Lon":-105.6667,"CountryCode":null},{"ID":15888,"Name":"Parras de la Fuente","Lat":25.4403,"Lon":-102.1792,"CountryCode":null},{"ID":16057,"Name":"Paso de Ovejas","Lat":19.285,"Lon":-96.44,"CountryCode":null},{"ID":16673,"Name":"Paso del Macho","Lat":18.9667,"Lon":-96.7167,"CountryCode":null},{"ID":7442,"Name":"Patzcuaro","Lat":19.5164,"Lon":-101.6097,"CountryCode":null},{"ID":12691,"Name":"Pedro Celestino Negrete","Lat":24.726,"Lon":-102.984,"CountryCode":null},{"ID":27935,"Name":"Penamiller","Lat":21.0519,"Lon":-99.815,"CountryCode":null},{"ID":4262,"Name":"Penjamo","Lat":20.4311,"Lon":-101.7222,"CountryCode":null},{"ID":14466,"Name":"Perote","Lat":19.5619,"Lon":-97.2419,"CountryCode":null},{"ID":4326,"Name":"Pesqueria","Lat":25.785,"Lon":-100.0511,"CountryCode":null},{"ID":12455,"Name":"Petatlan","Lat":17.5383,"Lon":-101.2739,"CountryCode":null},{"ID":24869,"Name":"Peto","Lat":20.1256,"Lon":-88.9214,"CountryCode":null},{"ID":30281,"Name":"Pichucalco","Lat":17.5086,"Lon":-93.1178,"CountryCode":null},{"ID":3707,"Name":"Piedras Negras","Lat":28.7,"Lon":-100.5231,"CountryCode":null},{"ID":37946,"Name":"Pihuamo","Lat":18.95,"Lon":-103.167,"CountryCode":null},{"ID":26514,"Name":"Pijijiapan","Lat":15.6833,"Lon":-93.2167,"CountryCode":null},{"ID":20287,"Name":"Pinal de Amoles","Lat":21.1342,"Lon":-99.4586,"CountryCode":null},{"ID":10678,"Name":"Pinotepa","Lat":16.3412,"Lon":-98.0537,"CountryCode":null},{"ID":27688,"Name":"Pisaflores","Lat":21.1933,"Lon":-99.005,"CountryCode":null},{"ID":41277,"Name":"Platon Sanchez","Lat":21.2833,"Lon":-98.3667,"CountryCode":null},{"ID":2267,"Name":"Playa del Carmen","Lat":20.6281,"Lon":-87.0755,"CountryCode":null},{"ID":13921,"Name":"Playa Vicente","Lat":17.8333,"Lon":-95.8167,"CountryCode":null},{"ID":6109,"Name":"Playas de Rosarito","Lat":32.3422,"Lon":-117.0561,"CountryCode":null},{"ID":32579,"Name":"Polotitlan de la Ilustracion","Lat":20.2253,"Lon":-99.8154,"CountryCode":null},{"ID":3461,"Name":"Poza Rica de Hidalgo","Lat":20.5333,"Lon":-97.45,"CountryCode":null},{"ID":14520,"Name":"Progreso","Lat":21.2828,"Lon":-89.6636,"CountryCode":null},{"ID":34963,"Name":"Progreso","Lat":32.5842,"Lon":-115.5842,"CountryCode":null},{"ID":496,"Name":"Puebla","Lat":19.0333,"Lon":-98.1833,"CountryCode":null},{"ID":22997,"Name":"Pueblo Juarez","Lat":17.7,"Lon":-93.2,"CountryCode":null},{"ID":34467,"Name":"Pueblo Nuevo","Lat":17.15,"Lon":-92.9,"CountryCode":null},{"ID":42437,"Name":"Pueblo Viejo","Lat":19.179,"Lon":-100.2984,"CountryCode":null},{"ID":22460,"Name":"Puente Nacional","Lat":19.3333,"Lon":-96.4833,"CountryCode":null},{"ID":19897,"Name":"Puerto Escondido","Lat":15.8619,"Lon":-97.0672,"CountryCode":null},{"ID":25445,"Name":"Puerto Morelos","Lat":20.8536,"Lon":-86.8753,"CountryCode":null},{"ID":9287,"Name":"Puerto Penasco","Lat":31.3167,"Lon":-113.5369,"CountryCode":null},{"ID":2975,"Name":"Puerto Vallarta","Lat":20.6458,"Lon":-105.2222,"CountryCode":null},{"ID":47504,"Name":"Punta Prieta","Lat":28.9289,"Lon":-114.1556,"CountryCode":null},{"ID":30262,"Name":"Pureparo de Echaiz","Lat":19.9,"Lon":-102.0167,"CountryCode":null},{"ID":8539,"Name":"Purisima de Bustos","Lat":21.0333,"Lon":-101.8667,"CountryCode":null},{"ID":16362,"Name":"Putla Villa de Guerrero","Lat":17.0167,"Lon":-97.9167,"CountryCode":null},{"ID":948,"Name":"Queretaro","Lat":20.5875,"Lon":-100.3928,"CountryCode":null},{"ID":18718,"Name":"Quiroga","Lat":19.6667,"Lon":-101.5333,"CountryCode":null},{"ID":21922,"Name":"Rafael Delgado","Lat":18.8167,"Lon":-97.0667,"CountryCode":null},{"ID":8777,"Name":"Ramos Arizpe","Lat":25.55,"Lon":-100.9667,"CountryCode":null},{"ID":46020,"Name":"Rayon","Lat":19.1481,"Lon":-99.58,"CountryCode":null},{"ID":18091,"Name":"Reforma","Lat":17.8658,"Lon":-93.1472,"CountryCode":null},{"ID":1270,"Name":"Reynosa","Lat":26.0922,"Lon":-98.2778,"CountryCode":null},{"ID":6434,"Name":"Rincon de Romos","Lat":22.2333,"Lon":-102.3167,"CountryCode":null},{"ID":15344,"Name":"Rio Grande","Lat":23.8225,"Lon":-103.0361,"CountryCode":null},{"ID":8452,"Name":"Rioverde","Lat":21.93,"Lon":-99.98,"CountryCode":null},{"ID":17070,"Name":"Rodolfo Sanchez Taboada","Lat":31.7958,"Lon":-116.5911,"CountryCode":null},{"ID":8988,"Name":"Sabinas","Lat":27.9167,"Lon":-101.3,"CountryCode":null},{"ID":7560,"Name":"Sahuayo de Morelos","Lat":20.05,"Lon":-102.7333,"CountryCode":null},{"ID":2138,"Name":"Salamanca","Lat":20.5703,"Lon":-101.1972,"CountryCode":null},{"ID":7336,"Name":"Salina Cruz","Lat":16.1833,"Lon":-95.2,"CountryCode":null},{"ID":28206,"Name":"Salinas de Hidalgo","Lat":22.628,"Lon":-101.7156,"CountryCode":null},{"ID":6940,"Name":"Salinas Victoria","Lat":25.9667,"Lon":-100.3,"CountryCode":null},{"ID":892,"Name":"Saltillo","Lat":25.4231,"Lon":-100.9919,"CountryCode":null},{"ID":14569,"Name":"Salvatierra","Lat":20.2156,"Lon":-100.8961,"CountryCode":null},{"ID":43448,"Name":"San Agustin de las Juntas","Lat":17,"Lon":-96.7167,"CountryCode":null},{"ID":20905,"Name":"San Agustin Loxicha","Lat":16.0167,"Lon":-96.6167,"CountryCode":null},{"ID":19107,"Name":"San Agustin Tlaxiaca","Lat":20.1144,"Lon":-98.8867,"CountryCode":null},{"ID":7411,"Name":"San Andres Cholula","Lat":19.05,"Lon":-98.3,"CountryCode":null},{"ID":31763,"Name":"San Andres Timilpan","Lat":19.8667,"Lon":-99.7333,"CountryCode":null},{"ID":3957,"Name":"San Andres Tuxtla","Lat":18.4483,"Lon":-95.2122,"CountryCode":null},{"ID":5607,"Name":"San Antonio Enchisi","Lat":19.7072,"Lon":-99.7867,"CountryCode":null},{"ID":26956,"Name":"San Bartolo Tutotepec","Lat":20.4,"Lon":-98.2,"CountryCode":null},{"ID":40730,"Name":"San Blas","Lat":21.5397,"Lon":-105.2856,"CountryCode":null},{"ID":26319,"Name":"San Blas Atempa","Lat":16.3167,"Lon":-95.2167,"CountryCode":null},{"ID":21699,"Name":"San Buenaventura","Lat":27.0625,"Lon":-101.5467,"CountryCode":null},{"ID":35883,"Name":"San Carlos Yautepec","Lat":16.5,"Lon":-96.1,"CountryCode":null},{"ID":3542,"Name":"San Cristobal","Lat":16.7367,"Lon":-92.6383,"CountryCode":null},{"ID":16281,"Name":"San Felipe","Lat":21.4833,"Lon":-101.2167,"CountryCode":null},{"ID":27775,"Name":"San Felipe","Lat":31.0275,"Lon":-114.8353,"CountryCode":null},{"ID":6132,"Name":"San Felipe del Progreso","Lat":19.7125,"Lon":-99.9511,"CountryCode":null},{"ID":18653,"Name":"San Felipe Jalapa de Diaz","Lat":18.0667,"Lon":-96.5333,"CountryCode":null},{"ID":14147,"Name":"San Felipe Orizatlan","Lat":21.1719,"Lon":-98.6064,"CountryCode":null},{"ID":18000,"Name":"San Fernando","Lat":24.8504,"Lon":-98.16,"CountryCode":null},{"ID":36423,"Name":"San Fernando","Lat":16.8717,"Lon":-93.2063,"CountryCode":null},{"ID":6780,"Name":"San Francisco","Lat":30.7841,"Lon":-112.518,"CountryCode":null},{"ID":44764,"Name":"San Francisco Chimalpa","Lat":19.4419,"Lon":-99.3419,"CountryCode":null},{"ID":11982,"Name":"San Francisco de los Romo","Lat":22.0833,"Lon":-102.2667,"CountryCode":null},{"ID":8259,"Name":"San Francisco del Rincon","Lat":21.0228,"Lon":-101.86,"CountryCode":null},{"ID":44690,"Name":"San Francisco Ixhuatan","Lat":16.35,"Lon":-94.4833,"CountryCode":null},{"ID":42480,"Name":"San Gregorio Atzompa","Lat":19.0224,"Lon":-98.3445,"CountryCode":null},{"ID":25742,"Name":"San Ignacio Cerro Gordo","Lat":20.7333,"Lon":-102.517,"CountryCode":null},{"ID":39499,"Name":"San Ignacio Cohuirimpo","Lat":27.05,"Lon":-109.4167,"CountryCode":null},{"ID":29666,"Name":"San Jacinto Amilpas","Lat":17.1,"Lon":-96.7667,"CountryCode":null},{"ID":44961,"Name":"San Jose de Gracia","Lat":22.15,"Lon":-102.4167,"CountryCode":null},{"ID":4634,"Name":"San Jose del Cabo","Lat":23.0614,"Lon":-109.7081,"CountryCode":null},{"ID":6489,"Name":"San Jose del Rincon Centro","Lat":19.6606,"Lon":-100.1525,"CountryCode":null},{"ID":26412,"Name":"San Jose Tenango","Lat":18.15,"Lon":-96.7333,"CountryCode":null},{"ID":10771,"Name":"San Jose Villa de Allende","Lat":19.3747,"Lon":-100.1475,"CountryCode":null},{"ID":14300,"Name":"San Juan Cancuc","Lat":16.9333,"Lon":-92.3833,"CountryCode":null},{"ID":21511,"Name":"San Juan Cotzocon","Lat":17.1667,"Lon":-95.7833,"CountryCode":null},{"ID":8442,"Name":"San Juan de los Lagos","Lat":21.2458,"Lon":-102.3308,"CountryCode":null},{"ID":2285,"Name":"San Juan del Rio","Lat":20.3833,"Lon":-99.9833,"CountryCode":null},{"ID":36449,"Name":"San Juan del Rio del Centauro del Norte","Lat":24.7667,"Lon":-104.4667,"CountryCode":null},{"ID":15837,"Name":"San Juan Evangelista","Lat":17.8833,"Lon":-95.1333,"CountryCode":null},{"ID":18836,"Name":"San Juan Guichicovi","Lat":16.9667,"Lon":-95.0833,"CountryCode":null},{"ID":45463,"Name":"San Juan Ixcaquixtla","Lat":18.45,"Lon":-97.8167,"CountryCode":null},{"ID":28005,"Name":"San Juan Lalana","Lat":17.4667,"Lon":-95.8833,"CountryCode":null},{"ID":25070,"Name":"San Juan Zitlaltepec","Lat":19.7167,"Lon":-99.05,"CountryCode":null},{"ID":39701,"Name":"San Juanito","Lat":27.97,"Lon":-107.6003,"CountryCode":null},{"ID":43178,"Name":"San Juanito de Escobedo","Lat":20.8,"Lon":-104,"CountryCode":null},{"ID":28239,"Name":"San Julian","Lat":21.0167,"Lon":-102.1667,"CountryCode":null},{"ID":38207,"Name":"San Luis de La Loma","Lat":17.2714,"Lon":-100.8911,"CountryCode":null},{"ID":6066,"Name":"San Luis de la Paz","Lat":21.2986,"Lon":-100.5164,"CountryCode":null},{"ID":970,"Name":"San Luis Potosi","Lat":22.1511,"Lon":-100.9761,"CountryCode":null},{"ID":3657,"Name":"San Luis Rio Colorado","Lat":32.4767,"Lon":-114.7625,"CountryCode":null},{"ID":23245,"Name":"San Martin de las Piramides","Lat":19.7333,"Lon":-98.8167,"CountryCode":null},{"ID":3922,"Name":"San Martin Texmelucan de Labastida","Lat":19.2833,"Lon":-98.4333,"CountryCode":null},{"ID":21577,"Name":"San Martin Totolan","Lat":20.0833,"Lon":-102.65,"CountryCode":null},{"ID":8754,"Name":"San Mateo Atenco","Lat":19.2667,"Lon":-99.5333,"CountryCode":null},{"ID":30964,"Name":"San Mateo del Mar","Lat":16.2,"Lon":-94.9833,"CountryCode":null},{"ID":8439,"Name":"San Miguel de Allende","Lat":20.9142,"Lon":-100.7436,"CountryCode":null},{"ID":22247,"Name":"San Miguel de Papasquiaro","Lat":24.8304,"Lon":-105.34,"CountryCode":null},{"ID":21398,"Name":"San Miguel Ocotenco","Lat":19.0666,"Lon":-97.4525,"CountryCode":null},{"ID":35400,"Name":"San Miguel Xoxtla","Lat":19.1833,"Lon":-98.3,"CountryCode":null},{"ID":41545,"Name":"San Nicolas Buenos Aires","Lat":19.1667,"Lon":-97.55,"CountryCode":null},{"ID":1642,"Name":"San Nicolas de los Garza","Lat":25.75,"Lon":-100.2833,"CountryCode":null},{"ID":36728,"Name":"San Nicolas de los Ranchos","Lat":19.0667,"Lon":-98.4833,"CountryCode":null},{"ID":37838,"Name":"San Pablo Atlazalpan","Lat":19.2172,"Lon":-98.909,"CountryCode":null},{"ID":43542,"Name":"San Pablo Huixtepec","Lat":16.8167,"Lon":-96.7833,"CountryCode":null},{"ID":46422,"Name":"San Pablo Villa de Mitla","Lat":16.917,"Lon":-96.4,"CountryCode":null},{"ID":11366,"Name":"San Pedro","Lat":25.7578,"Lon":-102.9831,"CountryCode":null},{"ID":44622,"Name":"San Pedro Atocpan","Lat":19.2006,"Lon":-99.0492,"CountryCode":null},{"ID":5086,"Name":"San Pedro Garza Garcia","Lat":25.6667,"Lon":-100.3,"CountryCode":null},{"ID":41263,"Name":"San Pedro Huamelula","Lat":16.0167,"Lon":-95.6667,"CountryCode":null},{"ID":36888,"Name":"San Pedro Ixcatlan","Lat":18.15,"Lon":-96.5,"CountryCode":null},{"ID":46122,"Name":"San Pedro Ixtlahuaca","Lat":17.05,"Lon":-96.8167,"CountryCode":null},{"ID":35307,"Name":"San Pedro Jicayan","Lat":16.4167,"Lon":-97.9833,"CountryCode":null},{"ID":11598,"Name":"San Pedro Mixtepec","Lat":16,"Lon":-97.1169,"CountryCode":null},{"ID":32867,"Name":"San Pedro Pochutla","Lat":15.7476,"Lon":-96.4666,"CountryCode":null},{"ID":30410,"Name":"San Pedro Tapanatepec","Lat":16.3667,"Lon":-94.2,"CountryCode":null},{"ID":46636,"Name":"San Quintin","Lat":30.4837,"Lon":-115.95,"CountryCode":null},{"ID":17946,"Name":"San Rafael","Lat":20.1889,"Lon":-96.8658,"CountryCode":null},{"ID":18285,"Name":"San Salvador","Lat":20.2833,"Lon":-99.0153,"CountryCode":null},{"ID":17398,"Name":"San Salvador El Seco","Lat":19.1333,"Lon":-97.65,"CountryCode":null},{"ID":26545,"Name":"San Sebastian Tutla","Lat":17.0667,"Lon":-96.6667,"CountryCode":null},{"ID":35331,"Name":"Santa Ana","Lat":30.5406,"Lon":-111.1205,"CountryCode":null},{"ID":11911,"Name":"Santa Ana Chiautempan","Lat":19.3167,"Lon":-98.1833,"CountryCode":null},{"ID":25660,"Name":"Santa Ana Jilotzingo","Lat":19.4,"Lon":-99.2333,"CountryCode":null},{"ID":35148,"Name":"Santa Ana Maya","Lat":20,"Lon":-101.0167,"CountryCode":null},{"ID":15637,"Name":"Santa Ana Nextlalpan","Lat":19.7167,"Lon":-99.0667,"CountryCode":null},{"ID":28959,"Name":"Santa Anita","Lat":30.5118,"Lon":-111.1234,"CountryCode":null},{"ID":39198,"Name":"Santa Barbara","Lat":26.8133,"Lon":-105.8203,"CountryCode":null},{"ID":39251,"Name":"Santa Catarina Ayotzingo","Lat":19.2647,"Lon":-98.8975,"CountryCode":null},{"ID":26038,"Name":"Santa Catarina Juquila","Lat":16.2379,"Lon":-97.2914,"CountryCode":null},{"ID":8660,"Name":"Santa Catarina Otzolotepec","Lat":18.5667,"Lon":-97.25,"CountryCode":null},{"ID":14135,"Name":"Santa Clara del Cobre","Lat":19.405,"Lon":-101.638,"CountryCode":null},{"ID":34451,"Name":"Santa Cruz Amilpas","Lat":17.0667,"Lon":-96.6833,"CountryCode":null},{"ID":44916,"Name":"Santa Cruz Atizapan","Lat":19.1756,"Lon":-99.4886,"CountryCode":null},{"ID":36969,"Name":"Santa Cruz Itundujia","Lat":16.8667,"Lon":-97.65,"CountryCode":null},{"ID":6521,"Name":"Santa Cruz Xoxocotlan","Lat":17.0264,"Lon":-96.7333,"CountryCode":null},{"ID":26195,"Name":"Santa Cruz Zenzontepec","Lat":16.5333,"Lon":-97.5,"CountryCode":null},{"ID":43785,"Name":"Santa Isabel Cholula","Lat":19,"Lon":-98.3667,"CountryCode":null},{"ID":11377,"Name":"Santa Lucia del Camino","Lat":17.0667,"Lon":-96.7,"CountryCode":null},{"ID":43943,"Name":"Santa Maria Ajoloapan","Lat":19.9692,"Lon":-99.0353,"CountryCode":null},{"ID":13081,"Name":"Santa Maria Atzompa","Lat":17.1014,"Lon":-96.7778,"CountryCode":null},{"ID":24343,"Name":"Santa Maria Chilchotla","Lat":18.2333,"Lon":-96.8167,"CountryCode":null},{"ID":21212,"Name":"Santa Maria Colotepec","Lat":15.8833,"Lon":-96.9167,"CountryCode":null},{"ID":44890,"Name":"Santa Maria del Tule","Lat":17.0465,"Lon":-96.6363,"CountryCode":null},{"ID":12159,"Name":"Santa Maria Huatulco","Lat":15.85,"Lon":-96.3333,"CountryCode":null},{"ID":43066,"Name":"Santa Maria Jacatepec","Lat":17.85,"Lon":-96.2,"CountryCode":null},{"ID":33785,"Name":"Santa Maria Jalapa del Marques","Lat":16.4401,"Lon":-95.4434,"CountryCode":null},{"ID":28554,"Name":"Santa Maria Petapa","Lat":16.8167,"Lon":-95.1167,"CountryCode":null},{"ID":3679,"Name":"Santa Maria Texmelucan","Lat":19.2833,"Lon":-98.4333,"CountryCode":null},{"ID":20427,"Name":"Santa Maria Tonameca","Lat":15.7458,"Lon":-96.5472,"CountryCode":null},{"ID":45302,"Name":"Santa Maria Xadani","Lat":16.3667,"Lon":-95.0167,"CountryCode":null},{"ID":6969,"Name":"Santa Rosa Jauregui","Lat":20.7418,"Lon":-100.4473,"CountryCode":null},{"ID":31725,"Name":"Santa Rosalia","Lat":27.3389,"Lon":-112.2669,"CountryCode":null},{"ID":11906,"Name":"Santiago","Lat":25.4333,"Lon":-100.1333,"CountryCode":null},{"ID":34704,"Name":"Santiago Amoltepec","Lat":16.6167,"Lon":-97.5,"CountryCode":null},{"ID":32190,"Name":"Santiago de Anaya","Lat":20.3844,"Lon":-98.9647,"CountryCode":null},{"ID":26363,"Name":"Santiago Ixcuintla","Lat":21.811,"Lon":-105.2079,"CountryCode":null},{"ID":32094,"Name":"Santiago Jocotepec","Lat":17.5833,"Lon":-95.8833,"CountryCode":null},{"ID":14863,"Name":"Santiago Juxtlahuaca","Lat":17.3333,"Lon":-98.0167,"CountryCode":null},{"ID":19740,"Name":"Santiago Papasquiaro","Lat":25.0439,"Lon":-105.4192,"CountryCode":null},{"ID":40083,"Name":"Santiago Suchilquitongo","Lat":17.25,"Lon":-96.8833,"CountryCode":null},{"ID":39894,"Name":"Santiago Tangamandapio","Lat":19.95,"Lon":-102.4333,"CountryCode":null},{"ID":9039,"Name":"Santiago Tianguistenco","Lat":19.1797,"Lon":-99.4706,"CountryCode":null},{"ID":29143,"Name":"Santiago Tulantepec","Lat":20.0397,"Lon":-98.3575,"CountryCode":null},{"ID":9980,"Name":"Santiago Tuxtla","Lat":18.4653,"Lon":-95.3025,"CountryCode":null},{"ID":44041,"Name":"Santo Domingo Petapa","Lat":16.8167,"Lon":-95.1333,"CountryCode":null},{"ID":9005,"Name":"Santo Domingo Tehuantepec","Lat":16.3244,"Lon":-95.2389,"CountryCode":null},{"ID":42436,"Name":"Santo Tomas de los Platanos","Lat":19.1817,"Lon":-100.2589,"CountryCode":null},{"ID":27235,"Name":"Santos Reyes Nopala","Lat":16.1,"Lon":-97.15,"CountryCode":null},{"ID":38425,"Name":"Saucillo","Lat":28.0333,"Lon":-105.2833,"CountryCode":null},{"ID":14713,"Name":"Sayula","Lat":19.8667,"Lon":-103.6167,"CountryCode":null},{"ID":16328,"Name":"Sayula de Aleman","Lat":17.8833,"Lon":-94.95,"CountryCode":null},{"ID":25514,"Name":"Senguio","Lat":19.7328,"Lon":-100.3522,"CountryCode":null},{"ID":42957,"Name":"Seybaplaya","Lat":19.6394,"Lon":-90.6883,"CountryCode":null},{"ID":7946,"Name":"Silao","Lat":20.9478,"Lon":-101.4281,"CountryCode":null},{"ID":10713,"Name":"Simojovel de Allende","Lat":17.15,"Lon":-92.7167,"CountryCode":null},{"ID":33794,"Name":"Singuilucan","Lat":19.9675,"Lon":-98.5178,"CountryCode":null},{"ID":21907,"Name":"Soledad Atzompa","Lat":18.75,"Lon":-97.15,"CountryCode":null},{"ID":18758,"Name":"Soledad de Doblado","Lat":19.05,"Lon":-96.4167,"CountryCode":null},{"ID":2102,"Name":"Soledad de Graciano Sanchez","Lat":22.1833,"Lon":-100.9333,"CountryCode":null},{"ID":23094,"Name":"Sombrerete","Lat":23.6333,"Lon":-103.6397,"CountryCode":null},{"ID":37385,"Name":"Sonoita","Lat":31.8614,"Lon":-112.8544,"CountryCode":null},{"ID":15306,"Name":"Soteapan","Lat":18.2333,"Lon":-94.8667,"CountryCode":null},{"ID":38762,"Name":"Soyalo","Lat":16.9333,"Lon":-92.9833,"CountryCode":null},{"ID":33534,"Name":"Soyaniquilpan","Lat":19.9892,"Lon":-99.4361,"CountryCode":null},{"ID":25106,"Name":"Suchiapa","Lat":16.6181,"Lon":-93.0942,"CountryCode":null},{"ID":20568,"Name":"Sultepec","Lat":18.8667,"Lon":-99.95,"CountryCode":null},{"ID":7722,"Name":"Tacambaro de Codallos","Lat":19.2356,"Lon":-101.4569,"CountryCode":null},{"ID":7387,"Name":"Tala","Lat":20.6667,"Lon":-103.7,"CountryCode":null},{"ID":30726,"Name":"Talpa de Allende","Lat":20.3806,"Lon":-104.8222,"CountryCode":null},{"ID":6323,"Name":"Tamazunchale","Lat":21.2667,"Lon":-98.7833,"CountryCode":null},{"ID":21916,"Name":"Tamiahua","Lat":21.2788,"Lon":-97.4462,"CountryCode":null},{"ID":32733,"Name":"Tampamolon Corona","Lat":21.5667,"Lon":-98.8167,"CountryCode":null},{"ID":2322,"Name":"Tampico","Lat":22.2553,"Lon":-97.8686,"CountryCode":null},{"ID":15185,"Name":"Tamuin","Lat":22,"Lon":-98.7833,"CountryCode":null},{"ID":17028,"Name":"Tancitaro","Lat":19.3378,"Lon":-102.3625,"CountryCode":null},{"ID":15263,"Name":"Tangancicuaro de Arista","Lat":19.887,"Lon":-102.208,"CountryCode":null},{"ID":30138,"Name":"Tanhuato de Guerrero","Lat":20.2819,"Lon":-102.3319,"CountryCode":null},{"ID":21348,"Name":"Tantoyuca","Lat":21.35,"Lon":-98.2333,"CountryCode":null},{"ID":3061,"Name":"Tapachula","Lat":14.9,"Lon":-92.2667,"CountryCode":null},{"ID":23491,"Name":"Tapalpa","Lat":19.9445,"Lon":-103.7585,"CountryCode":null},{"ID":33037,"Name":"Tapilula","Lat":17.25,"Lon":-93.0167,"CountryCode":null},{"ID":27406,"Name":"Tasquillo","Lat":20.6167,"Lon":-99.25,"CountryCode":null},{"ID":29799,"Name":"Tatahuicapan","Lat":18.25,"Lon":-94.7667,"CountryCode":null},{"ID":45044,"Name":"Tataltepec de Valdes","Lat":16.3064,"Lon":-97.5461,"CountryCode":null},{"ID":10851,"Name":"Taxco de Alarcon","Lat":18.5564,"Lon":-99.605,"CountryCode":null},{"ID":18061,"Name":"Teapa","Lat":17.5483,"Lon":-92.953,"CountryCode":null},{"ID":21546,"Name":"Tecali","Lat":18.9,"Lon":-97.9667,"CountryCode":null},{"ID":1927,"Name":"Tecamac","Lat":19.7131,"Lon":-98.9683,"CountryCode":null},{"ID":7685,"Name":"Tecamachalco","Lat":18.8667,"Lon":-97.7167,"CountryCode":null},{"ID":7338,"Name":"Tecate","Lat":32.5722,"Lon":-116.6403,"CountryCode":null},{"ID":20016,"Name":"Tecax","Lat":20.2019,"Lon":-89.2881,"CountryCode":null},{"ID":12889,"Name":"Tecoanapa","Lat":16.8,"Lon":-99.15,"CountryCode":null},{"ID":44113,"Name":"Tecoh","Lat":20.7419,"Lon":-89.4744,"CountryCode":null},{"ID":27635,"Name":"Tecolotlan","Lat":20.1,"Lon":-103.8333,"CountryCode":null},{"ID":19541,"Name":"Tecolutla","Lat":20.4797,"Lon":-97.01,"CountryCode":null},{"ID":5350,"Name":"Tecoman","Lat":18.9089,"Lon":-103.8747,"CountryCode":null},{"ID":16791,"Name":"Tecozautla","Lat":20.5333,"Lon":-99.6333,"CountryCode":null},{"ID":31260,"Name":"Tecpan de Galeana","Lat":17.25,"Lon":-100.6833,"CountryCode":null},{"ID":30842,"Name":"Tecuala","Lat":22.4004,"Lon":-105.46,"CountryCode":null},{"ID":2187,"Name":"Tehuacan","Lat":18.4617,"Lon":-97.3928,"CountryCode":null},{"ID":19609,"Name":"Tehuipango","Lat":18.5167,"Lon":-97.05,"CountryCode":null},{"ID":8269,"Name":"Tejupilco","Lat":18.9058,"Lon":-100.1528,"CountryCode":null},{"ID":41978,"Name":"Tekit","Lat":20.5322,"Lon":-89.3314,"CountryCode":null},{"ID":37914,"Name":"Temamatla","Lat":19.2028,"Lon":-98.87,"CountryCode":null},{"ID":13777,"Name":"Temascal","Lat":18.2394,"Lon":-96.4031,"CountryCode":null},{"ID":16184,"Name":"Temascalapa","Lat":19.8,"Lon":-98.9,"CountryCode":null},{"ID":9878,"Name":"Temascalcingo","Lat":19.9147,"Lon":-100.0036,"CountryCode":null},{"ID":17376,"Name":"Temascaltepec de Gonzalez","Lat":19.0433,"Lon":-100.0414,"CountryCode":null},{"ID":5362,"Name":"Temixco","Lat":18.85,"Lon":-99.2333,"CountryCode":null},{"ID":5834,"Name":"Temoaya","Lat":19.4686,"Lon":-99.5933,"CountryCode":null},{"ID":35627,"Name":"Tempoal de Sanchez","Lat":21.5167,"Lon":-98.3833,"CountryCode":null},{"ID":5894,"Name":"Tenancingo","Lat":18.9608,"Lon":-99.5906,"CountryCode":null},{"ID":27337,"Name":"Tenango de Doria","Lat":20.3356,"Lon":-98.2267,"CountryCode":null},{"ID":39571,"Name":"Tenango del Aire","Lat":19.1575,"Lon":-98.8581,"CountryCode":null},{"ID":15416,"Name":"Tenosique","Lat":17.4756,"Lon":-91.4225,"CountryCode":null},{"ID":40330,"Name":"Teocuitatlan de Corona","Lat":20.0167,"Lon":-103.1833,"CountryCode":null},{"ID":9192,"Name":"Teoloyucan","Lat":19.7442,"Lon":-99.1811,"CountryCode":null},{"ID":24606,"Name":"Teopisca","Lat":16.55,"Lon":-92.5,"CountryCode":null},{"ID":11909,"Name":"Teotihuacan","Lat":19.6897,"Lon":-98.8608,"CountryCode":null},{"ID":45734,"Name":"Teotitlan","Lat":18.1333,"Lon":-97.0833,"CountryCode":null},{"ID":39915,"Name":"Teotlaltzingo","Lat":19.2333,"Lon":-98.4833,"CountryCode":null},{"ID":12825,"Name":"Tepalcatepec","Lat":19.1833,"Lon":-102.85,"CountryCode":null},{"ID":4488,"Name":"Tepatitlan de Morelos","Lat":20.8139,"Lon":-102.7639,"CountryCode":null},{"ID":27372,"Name":"Tepatlaxco","Lat":19.0667,"Lon":-97.9667,"CountryCode":null},{"ID":11302,"Name":"Tepeapulco","Lat":19.7856,"Lon":-98.5517,"CountryCode":null},{"ID":44712,"Name":"Tepechitlan","Lat":21.6667,"Lon":-103.3333,"CountryCode":null},{"ID":19053,"Name":"Tepehuacan de Guerrero","Lat":21.0131,"Lon":-98.8442,"CountryCode":null},{"ID":15733,"Name":"Tepeji del Rio de Ocampo","Lat":19.9039,"Lon":-99.3414,"CountryCode":null},{"ID":44971,"Name":"Tepetitlan","Lat":20.1842,"Lon":-99.3808,"CountryCode":null},{"ID":42489,"Name":"Tepetlan","Lat":19.6667,"Lon":-96.8,"CountryCode":null},{"ID":17224,"Name":"Tepetlaoxtoc","Lat":19.5731,"Lon":-98.8203,"CountryCode":null},{"ID":24854,"Name":"Tepetlixpa","Lat":19.0006,"Lon":-98.8178,"CountryCode":null},{"ID":36956,"Name":"Tepetzintla","Lat":19.9667,"Lon":-97.8333,"CountryCode":null},{"ID":31126,"Name":"Tepetzintla","Lat":21.1658,"Lon":-97.8511,"CountryCode":null},{"ID":24086,"Name":"Tepexi de Rodriguez","Lat":18.5833,"Lon":-97.9333,"CountryCode":null},{"ID":2096,"Name":"Tepic","Lat":21.5083,"Lon":-104.8931,"CountryCode":null},{"ID":8647,"Name":"Tepotzotlan","Lat":19.7161,"Lon":-99.2236,"CountryCode":null},{"ID":32101,"Name":"Tepoztlan","Lat":18.9853,"Lon":-99.0997,"CountryCode":null},{"ID":17022,"Name":"Tequila","Lat":20.8828,"Lon":-103.8367,"CountryCode":null},{"ID":10400,"Name":"Tequisquiapan","Lat":20.5206,"Lon":-99.8958,"CountryCode":null},{"ID":22310,"Name":"Tequixquiac","Lat":19.9097,"Lon":-99.1417,"CountryCode":null},{"ID":18558,"Name":"Tetela de Ocampo","Lat":19.8167,"Lon":-97.8,"CountryCode":null},{"ID":40702,"Name":"Tetela del Volcan","Lat":18.8931,"Lon":-98.7297,"CountryCode":null},{"ID":25444,"Name":"Texcaltitlan","Lat":18.9297,"Lon":-99.9372,"CountryCode":null},{"ID":38656,"Name":"Texcatepec","Lat":20.5833,"Lon":-98.3667,"CountryCode":null},{"ID":5872,"Name":"Texcoco","Lat":19.52,"Lon":-98.88,"CountryCode":null},{"ID":23809,"Name":"Texistepec","Lat":17.9,"Lon":-94.8167,"CountryCode":null},{"ID":6584,"Name":"Teziutlan","Lat":19.8178,"Lon":-97.3667,"CountryCode":null},{"ID":38355,"Name":"Tezoatlan de Segura y Luna","Lat":17.65,"Lon":-97.8167,"CountryCode":null},{"ID":10067,"Name":"Tezonapa","Lat":18.6,"Lon":-96.6833,"CountryCode":null},{"ID":34001,"Name":"Tezontepec","Lat":19.8833,"Lon":-98.8167,"CountryCode":null},{"ID":13253,"Name":"Tezoyuca","Lat":19.5903,"Lon":-98.9083,"CountryCode":null},{"ID":31752,"Name":"Tianguistengo","Lat":20.7278,"Lon":-98.6289,"CountryCode":null},{"ID":16299,"Name":"Ticul","Lat":20.3953,"Lon":-89.5339,"CountryCode":null},{"ID":39787,"Name":"Tierra Colorada","Lat":17.1656,"Lon":-99.5264,"CountryCode":null},{"ID":417,"Name":"Tijuana","Lat":32.525,"Lon":-117.0333,"CountryCode":null},{"ID":42651,"Name":"Tila","Lat":17.3006,"Lon":-92.4259,"CountryCode":null},{"ID":38565,"Name":"Tixkokob","Lat":21.0022,"Lon":-89.3936,"CountryCode":null},{"ID":23077,"Name":"Tixtla de Guerrero","Lat":17.5667,"Lon":-99.4,"CountryCode":null},{"ID":5218,"Name":"Tizayuca","Lat":19.8333,"Lon":-98.9833,"CountryCode":null},{"ID":10782,"Name":"Tizimin","Lat":21.1425,"Lon":-88.1647,"CountryCode":null},{"ID":36943,"Name":"Tlachichilco","Lat":20.6217,"Lon":-98.1994,"CountryCode":null},{"ID":26689,"Name":"Tlacoachistlahuaca","Lat":16.7833,"Lon":-98.2,"CountryCode":null},{"ID":22395,"Name":"Tlacolula de Matamoros","Lat":16.9542,"Lon":-96.4792,"CountryCode":null},{"ID":37406,"Name":"Tlacolulan","Lat":19.6667,"Lon":-97,"CountryCode":null},{"ID":10799,"Name":"Tlacotepec","Lat":18.6882,"Lon":-97.6489,"CountryCode":null},{"ID":42950,"Name":"Tlahualilo de Zaragoza","Lat":26.1083,"Lon":-103.4431,"CountryCode":null},{"ID":27764,"Name":"Tlahuelilpan","Lat":20.1297,"Lon":-99.2286,"CountryCode":null},{"ID":43682,"Name":"Tlahuiltepa","Lat":20.9233,"Lon":-98.9497,"CountryCode":null},{"ID":12552,"Name":"Tlajomulco de Zuniga","Lat":20.4736,"Lon":-103.4431,"CountryCode":null},{"ID":14333,"Name":"Tlalixcoyan","Lat":18.8031,"Lon":-96.0611,"CountryCode":null},{"ID":40670,"Name":"Tlalixtac de Cabrera","Lat":17.0667,"Lon":-96.65,"CountryCode":null},{"ID":12047,"Name":"Tlalmanalco","Lat":19.2044,"Lon":-98.8025,"CountryCode":null},{"ID":25976,"Name":"Tlalnelhuayocan","Lat":19.5667,"Lon":-96.9667,"CountryCode":null},{"ID":1147,"Name":"Tlalnepantla","Lat":19.5367,"Lon":-99.1947,"CountryCode":null},{"ID":18752,"Name":"Tlalpujahua de Rayon","Lat":19.805,"Lon":-100.1744,"CountryCode":null},{"ID":23152,"Name":"Tlaltenango de Sanchez Roman","Lat":21.7815,"Lon":-103.3059,"CountryCode":null},{"ID":29537,"Name":"Tlaltetela","Lat":19.3167,"Lon":-96.9,"CountryCode":null},{"ID":15944,"Name":"Tlanchinol","Lat":19.9892,"Lon":-98.6786,"CountryCode":null},{"ID":14293,"Name":"Tlapa de Comonfort","Lat":17.5461,"Lon":-98.5764,"CountryCode":null},{"ID":5418,"Name":"Tlapacoyan","Lat":19.9617,"Lon":-97.2108,"CountryCode":null},{"ID":1128,"Name":"Tlaquepaque","Lat":20.6167,"Lon":-103.3167,"CountryCode":null},{"ID":31194,"Name":"Tlaxcala","Lat":19.3125,"Lon":-98.24,"CountryCode":null},{"ID":19340,"Name":"Tlaxcoapan","Lat":20.0953,"Lon":-99.22,"CountryCode":null},{"ID":31531,"Name":"Tlayacapan","Lat":18.9556,"Lon":-98.9811,"CountryCode":null},{"ID":36702,"Name":"Tolcayuca","Lat":19.95,"Lon":-98.9167,"CountryCode":null},{"ID":2981,"Name":"Toluca","Lat":19.2925,"Lon":-99.6569,"CountryCode":null},{"ID":14847,"Name":"Tomatlan","Lat":19.9369,"Lon":-105.25,"CountryCode":null},{"ID":15235,"Name":"Tonala","Lat":16.0914,"Lon":-93.7518,"CountryCode":null},{"ID":1303,"Name":"Tonala","Lat":20.6167,"Lon":-103.2333,"CountryCode":null},{"ID":8832,"Name":"Torreon","Lat":25.5419,"Lon":-103.4083,"CountryCode":null},{"ID":39017,"Name":"Totolapan","Lat":18.9869,"Lon":-98.9197,"CountryCode":null},{"ID":21877,"Name":"Tototlan","Lat":20.5333,"Lon":-102.7833,"CountryCode":null},{"ID":27436,"Name":"Totutla","Lat":19.2167,"Lon":-96.9667,"CountryCode":null},{"ID":12328,"Name":"Tres Valles","Lat":18.1667,"Lon":-96.0167,"CountryCode":null},{"ID":5931,"Name":"Tula de Allende","Lat":20.05,"Lon":-99.35,"CountryCode":null},{"ID":3983,"Name":"Tulancingo","Lat":20.0833,"Lon":-98.3667,"CountryCode":null},{"ID":6604,"Name":"Tultepec","Lat":19.685,"Lon":-99.1281,"CountryCode":null},{"ID":1420,"Name":"Tultitlan de Mariano Escobedo","Lat":19.645,"Lon":-99.1694,"CountryCode":null},{"ID":16066,"Name":"Tulum","Lat":20.2119,"Lon":-87.4658,"CountryCode":null},{"ID":16676,"Name":"Turicato","Lat":19.05,"Lon":-101.4167,"CountryCode":null},{"ID":7087,"Name":"Tuxpam de Rodriguez Cano","Lat":20.95,"Lon":-97.4,"CountryCode":null},{"ID":14465,"Name":"Tuxpan","Lat":19.5539,"Lon":-103.3756,"CountryCode":null},{"ID":18986,"Name":"Tuxpan","Lat":19.5661,"Lon":-100.4625,"CountryCode":null},{"ID":19746,"Name":"Tuxpan","Lat":21.8667,"Lon":-105.45,"CountryCode":null},{"ID":3955,"Name":"Tuxtepec","Lat":18.1,"Lon":-96.1167,"CountryCode":null},{"ID":1286,"Name":"Tuxtla","Lat":16.7528,"Lon":-93.1167,"CountryCode":null},{"ID":35578,"Name":"Tzintzuntzan","Lat":19.6283,"Lon":-101.5789,"CountryCode":null},{"ID":44736,"Name":"Tzitzio","Lat":19.5856,"Lon":-100.9231,"CountryCode":null},{"ID":41563,"Name":"Tzucacab","Lat":20.0708,"Lon":-89.0506,"CountryCode":null},{"ID":11065,"Name":"Uman","Lat":20.8833,"Lon":-89.75,"CountryCode":null},{"ID":10207,"Name":"Uman","Lat":20.8833,"Lon":-89.75,"CountryCode":null},{"ID":26865,"Name":"Union de San Antonio","Lat":21.128,"Lon":-102.006,"CountryCode":null},{"ID":32670,"Name":"Union de Tula","Lat":19.957,"Lon":-104.268,"CountryCode":null},{"ID":10863,"Name":"Uriangato","Lat":20.1333,"Lon":-101.1667,"CountryCode":null},{"ID":18102,"Name":"Ursulo Galvan","Lat":19.4,"Lon":-96.3,"CountryCode":null},{"ID":2089,"Name":"Uruapan","Lat":19.4208,"Lon":-102.0628,"CountryCode":null},{"ID":11477,"Name":"Valladolid","Lat":20.6894,"Lon":-88.2017,"CountryCode":null},{"ID":9392,"Name":"Valle de Bravo","Lat":19.1925,"Lon":-100.1306,"CountryCode":null},{"ID":4245,"Name":"Valle de Santiago","Lat":20.3928,"Lon":-101.1914,"CountryCode":null},{"ID":8563,"Name":"Valle Hermoso","Lat":25.6736,"Lon":-97.8144,"CountryCode":null},{"ID":23533,"Name":"Valle Nacional","Lat":17.7667,"Lon":-96.3,"CountryCode":null},{"ID":34258,"Name":"Valparaiso","Lat":22.7667,"Lon":-103.5667,"CountryCode":null},{"ID":29043,"Name":"Venustiano Carranza","Lat":16.3294,"Lon":-92.5625,"CountryCode":null},{"ID":1679,"Name":"Veracruz","Lat":19.1903,"Lon":-96.1533,"CountryCode":null},{"ID":46060,"Name":"Vicam Pueblo","Lat":27.6422,"Lon":-110.2897,"CountryCode":null},{"ID":29322,"Name":"Vicente Guerrero","Lat":23.75,"Lon":-103.9833,"CountryCode":null},{"ID":34426,"Name":"Vicente Guerrero","Lat":30.7264,"Lon":-115.9903,"CountryCode":null},{"ID":42754,"Name":"Villa Aldama","Lat":19.65,"Lon":-97.2333,"CountryCode":null},{"ID":26970,"Name":"Villa Corona","Lat":20.3989,"Lon":-103.6889,"CountryCode":null},{"ID":38892,"Name":"Villa Corzo","Lat":16.1848,"Lon":-93.2677,"CountryCode":null},{"ID":4267,"Name":"Villa de Alvarez","Lat":19.25,"Lon":-103.7333,"CountryCode":null},{"ID":12721,"Name":"Villa de Zaachila","Lat":16.9508,"Lon":-96.7492,"CountryCode":null},{"ID":13808,"Name":"Villa del Carbon","Lat":19.7272,"Lon":-99.5417,"CountryCode":null},{"ID":17779,"Name":"Villa Donato Guerra","Lat":19.3083,"Lon":-100.1422,"CountryCode":null},{"ID":24559,"Name":"Villa Hidalgo","Lat":21.6667,"Lon":-102.6,"CountryCode":null},{"ID":33774,"Name":"Villa Juarez","Lat":27.1278,"Lon":-109.8426,"CountryCode":null},{"ID":18720,"Name":"Villa Luvianos","Lat":18.92,"Lon":-100.2983,"CountryCode":null},{"ID":37685,"Name":"Villa Purificacion","Lat":19.8167,"Lon":-104.7333,"CountryCode":null},{"ID":35026,"Name":"Villa Sola de Vega","Lat":16.5125,"Lon":-96.9806,"CountryCode":null},{"ID":33324,"Name":"Villa Union","Lat":23.1883,"Lon":-106.2158,"CountryCode":null},{"ID":39106,"Name":"Villa Union","Lat":23.9667,"Lon":-104.0333,"CountryCode":null},{"ID":7625,"Name":"Villa Victoria","Lat":19.4333,"Lon":-100,"CountryCode":null},{"ID":14453,"Name":"Villaflores","Lat":16.2355,"Lon":-93.2677,"CountryCode":null},{"ID":19133,"Name":"Villagran","Lat":20.517,"Lon":-100.983,"CountryCode":null},{"ID":1982,"Name":"Villahermosa","Lat":17.9892,"Lon":-92.9281,"CountryCode":null},{"ID":16280,"Name":"Villanueva","Lat":22.3536,"Lon":-102.8831,"CountryCode":null},{"ID":25701,"Name":"Vista Hermosa de Negrete","Lat":20.2717,"Lon":-102.4749,"CountryCode":null},{"ID":1695,"Name":"Xalapa","Lat":19.54,"Lon":-96.9275,"CountryCode":null},{"ID":17811,"Name":"Xalatlaco","Lat":19.1811,"Lon":-99.4164,"CountryCode":null},{"ID":34841,"Name":"Xalpatlahuac","Lat":17.3333,"Lon":-98.65,"CountryCode":null},{"ID":14234,"Name":"Xico","Lat":19.417,"Lon":-97,"CountryCode":null},{"ID":42695,"Name":"Xicotencatl","Lat":22.9958,"Lon":-98.9447,"CountryCode":null},{"ID":7308,"Name":"Xicotepec de Juarez","Lat":20.3,"Lon":-97.9667,"CountryCode":null},{"ID":26580,"Name":"Xochiatipan de Castillo","Lat":20.8333,"Lon":-98.285,"CountryCode":null},{"ID":18592,"Name":"Xochistlahuaca","Lat":16.7914,"Lon":-98.2419,"CountryCode":null},{"ID":23621,"Name":"Xoxocotla","Lat":18.685,"Lon":-99.2439,"CountryCode":null},{"ID":22632,"Name":"Yahualica","Lat":20.9531,"Lon":-98.38,"CountryCode":null},{"ID":22367,"Name":"Yahualica de Gonzalez Gallo","Lat":21.1781,"Lon":-102.886,"CountryCode":null},{"ID":13571,"Name":"Yajalon","Lat":17.1833,"Lon":-92.3167,"CountryCode":null},{"ID":13713,"Name":"Yecapixtla","Lat":18.8833,"Lon":-98.865,"CountryCode":null},{"ID":35866,"Name":"Yecuatla","Lat":19.8667,"Lon":-96.7833,"CountryCode":null},{"ID":8547,"Name":"Yuriria","Lat":20.2,"Lon":-101.15,"CountryCode":null},{"ID":5075,"Name":"Zacatecas","Lat":22.7736,"Lon":-102.5736,"CountryCode":null},{"ID":14090,"Name":"Zacatelco","Lat":19.2167,"Lon":-98.2333,"CountryCode":null},{"ID":14910,"Name":"Zacatepec","Lat":18.6833,"Lon":-99.1833,"CountryCode":null},{"ID":15918,"Name":"Zacatlan","Lat":19.9319,"Lon":-97.96,"CountryCode":null},{"ID":18519,"Name":"Zacoalco de Torres","Lat":20.2333,"Lon":-103.5833,"CountryCode":null},{"ID":30453,"Name":"Zacualpan","Lat":18.7197,"Lon":-99.78,"CountryCode":null},{"ID":43364,"Name":"Zacualpan de Amilpas","Lat":18.7836,"Lon":-98.7594,"CountryCode":null},{"ID":14245,"Name":"Zacualtipan","Lat":20.65,"Lon":-98.65,"CountryCode":null},{"ID":3185,"Name":"Zamora","Lat":19.9833,"Lon":-102.2833,"CountryCode":null},{"ID":531,"Name":"Zapopan","Lat":20.7167,"Lon":-103.4,"CountryCode":null},{"ID":17991,"Name":"Zapotiltic","Lat":19.627,"Lon":-103.417,"CountryCode":null},{"ID":28587,"Name":"Zapotlan de Juarez","Lat":19.9667,"Lon":-98.85,"CountryCode":null},{"ID":26890,"Name":"Zapotlan del Rey","Lat":20.4674,"Lon":-102.9248,"CountryCode":null},{"ID":8567,"Name":"Zapotlanejo","Lat":20.6228,"Lon":-103.0689,"CountryCode":null},{"ID":37593,"Name":"Zaragoza","Lat":17.9531,"Lon":-94.6414,"CountryCode":null},{"ID":38052,"Name":"Zaragoza","Lat":28.4869,"Lon":-100.9175,"CountryCode":null},{"ID":9910,"Name":"Zempoala","Lat":19.9153,"Lon":-98.6689,"CountryCode":null},{"ID":8680,"Name":"Zihuatanejo","Lat":17.6444,"Lon":-101.5511,"CountryCode":null},{"ID":13696,"Name":"Zimapan","Lat":20.7333,"Lon":-99.3833,"CountryCode":null},{"ID":24852,"Name":"Zimatlan de Alvarez","Lat":16.8667,"Lon":-96.7833,"CountryCode":null},{"ID":4637,"Name":"Zinacantepec","Lat":19.2833,"Lon":-99.7333,"CountryCode":null},{"ID":28082,"Name":"Zinapecuaro","Lat":19.8603,"Lon":-100.8275,"CountryCode":null},{"ID":27482,"Name":"Ziracuaretiro","Lat":19.4333,"Lon":-101.9167,"CountryCode":null},{"ID":12600,"Name":"Zongolica","Lat":18.6667,"Lon":-97,"CountryCode":null},{"ID":31291,"Name":"Zontecomatlan de Lopez y Fuentes","Lat":20.7667,"Lon":-98.3333,"CountryCode":null},{"ID":30581,"Name":"Zozocolco de Hidalgo","Lat":20.1333,"Lon":-97.5833,"CountryCode":null},{"ID":11116,"Name":"Zumpango","Lat":19.7969,"Lon":-99.0992,"CountryCode":null},{"ID":20744,"Name":"Zumpango del Rio","Lat":17.65,"Lon":-99.5,"CountryCode":null}]