[{"ID":15029,"Name":"Dumbea","Lat":-22.15,"Lon":166.45,"CountryCode":null},{"ID":46369,"Name":"Kone","Lat":-21.059,"Lon":164.8518,"CountryCode":null},{"ID":18853,"Name":"Mont-Dore","Lat":-22.2157,"Lon":166.4665,"CountryCode":null},{"ID":3560,"Name":"Noumea","Lat":-22.2758,"Lon":166.458,"CountryCode":null},{"ID":20843,"Name":"Paita","Lat":-22.1337,"Lon":166.3505,"CountryCode":null},{"ID":47614,"Name":"We","Lat":-20.9167,"Lon":167.2653,"CountryCode":null}]