[{"ID":5287,"Name":"Agadez","Lat":16.9959,"Lon":7.9828,"CountryCode":null},{"ID":7549,"Name":"Arlit","Lat":18.7333,"Lon":7.3833,"CountryCode":null},{"ID":15997,"Name":"Ayorou","Lat":14.735,"Lon":0.92,"CountryCode":null},{"ID":29171,"Name":"Baleyara","Lat":13.784,"Lon":2.95,"CountryCode":null},{"ID":43782,"Name":"Bandio","Lat":13.8888,"Lon":1.0896,"CountryCode":null},{"ID":8932,"Name":"Birnin Konni","Lat":13.7904,"Lon":5.2599,"CountryCode":null},{"ID":21293,"Name":"Dabaga","Lat":17.2667,"Lon":8.1,"CountryCode":null},{"ID":17080,"Name":"Diffa","Lat":13.3171,"Lon":12.6089,"CountryCode":null},{"ID":47533,"Name":"Djado","Lat":21.015,"Lon":12.3075,"CountryCode":null},{"ID":9801,"Name":"Dosso","Lat":13.0444,"Lon":3.1947,"CountryCode":null},{"ID":32508,"Name":"Galmi","Lat":13.966,"Lon":5.675,"CountryCode":null},{"ID":12205,"Name":"Gaya","Lat":11.8878,"Lon":3.4467,"CountryCode":null},{"ID":46046,"Name":"Gidan Ider","Lat":14.0131,"Lon":5.3185,"CountryCode":null},{"ID":31258,"Name":"Goure","Lat":13.9874,"Lon":10.27,"CountryCode":null},{"ID":27317,"Name":"Guidan Roumdji","Lat":13.6575,"Lon":6.6958,"CountryCode":null},{"ID":44356,"Name":"Kawara","Lat":14.0706,"Lon":5.6715,"CountryCode":null},{"ID":16284,"Name":"Kollo","Lat":13.0167,"Lon":1.8833,"CountryCode":null},{"ID":12023,"Name":"Koure","Lat":13.3106,"Lon":2.576,"CountryCode":null},{"ID":20681,"Name":"Madaoua","Lat":14.0762,"Lon":5.9586,"CountryCode":null},{"ID":2532,"Name":"Maradi","Lat":13.4833,"Lon":7.1,"CountryCode":null},{"ID":8964,"Name":"Matamey","Lat":13.4,"Lon":8.6,"CountryCode":null},{"ID":26886,"Name":"Nguigmi","Lat":14.2532,"Lon":13.1108,"CountryCode":null},{"ID":752,"Name":"Niamey","Lat":13.515,"Lon":2.1175,"CountryCode":null},{"ID":5571,"Name":"Sabara Bangou","Lat":15.1177,"Lon":1.996,"CountryCode":null},{"ID":5283,"Name":"Tahoua","Lat":14.8903,"Lon":5.2642,"CountryCode":null},{"ID":46146,"Name":"Takieta","Lat":13.6806,"Lon":8.5292,"CountryCode":null},{"ID":25393,"Name":"Tillaberi","Lat":14.212,"Lon":1.4531,"CountryCode":null},{"ID":45341,"Name":"Toulou","Lat":14.1688,"Lon":5.199,"CountryCode":null},{"ID":42908,"Name":"Tounfafi","Lat":14.0464,"Lon":5.9812,"CountryCode":null},{"ID":2848,"Name":"Zinder","Lat":13.8053,"Lon":8.9883,"CountryCode":null}]