[{"ID":666,"Name":"Aba","Lat":5.1167,"Lon":7.3667,"CountryCode":null},{"ID":4910,"Name":"Abaji","Lat":8.4756,"Lon":6.9433,"CountryCode":null},{"ID":47615,"Name":"Abakaliki","Lat":6.3249,"Lon":8.1137,"CountryCode":null},{"ID":867,"Name":"Abeokuta","Lat":7.1608,"Lon":3.3483,"CountryCode":null},{"ID":195,"Name":"Abuja","Lat":9.0667,"Lon":7.4833,"CountryCode":null},{"ID":3704,"Name":"Ada","Lat":7.8956,"Lon":4.7094,"CountryCode":null},{"ID":1632,"Name":"Ado-Ekiti","Lat":7.6211,"Lon":5.2214,"CountryCode":null},{"ID":1093,"Name":"Agege","Lat":6.6219,"Lon":3.3258,"CountryCode":null},{"ID":30670,"Name":"Aiyetoro Gbede","Lat":7.9833,"Lon":6,"CountryCode":null},{"ID":908,"Name":"Akure","Lat":7.25,"Lon":5.195,"CountryCode":null},{"ID":30671,"Name":"Amawom","Lat":5.4667,"Lon":7.5667,"CountryCode":null},{"ID":3064,"Name":"Apapa","Lat":6.45,"Lon":3.3667,"CountryCode":null},{"ID":4270,"Name":"Asaba","Lat":6.1833,"Lon":6.7333,"CountryCode":null},{"ID":4253,"Name":"Auchi","Lat":7.0667,"Lon":6.2667,"CountryCode":null},{"ID":383,"Name":"Awka","Lat":6.2069,"Lon":7.0678,"CountryCode":null},{"ID":5841,"Name":"Azare","Lat":11.6742,"Lon":10.1911,"CountryCode":null},{"ID":5265,"Name":"Bama","Lat":11.5189,"Lon":13.6842,"CountryCode":null},{"ID":1074,"Name":"Bauchi","Lat":10.3158,"Lon":9.8442,"CountryCode":null},{"ID":3343,"Name":"Baure","Lat":12.7833,"Lon":8.7667,"CountryCode":null},{"ID":674,"Name":"Benin City","Lat":6.3333,"Lon":5.6222,"CountryCode":null},{"ID":3710,"Name":"Bida","Lat":9.0804,"Lon":6.01,"CountryCode":null},{"ID":5722,"Name":"Birnin Kebbi","Lat":12.4504,"Lon":4.1999,"CountryCode":null},{"ID":3671,"Name":"Biu","Lat":10.6111,"Lon":12.195,"CountryCode":null},{"ID":3161,"Name":"Burutu","Lat":5.35,"Lon":5.5167,"CountryCode":null},{"ID":3622,"Name":"Calabar","Lat":4.9767,"Lon":8.3383,"CountryCode":null},{"ID":8824,"Name":"Chibok","Lat":10.8697,"Lon":12.8467,"CountryCode":null},{"ID":19045,"Name":"Choba","Lat":4.8906,"Lon":6.9033,"CountryCode":null},{"ID":6847,"Name":"Damaturu","Lat":11.7444,"Lon":11.9611,"CountryCode":null},{"ID":2873,"Name":"Damboa","Lat":11.15,"Lon":12.75,"CountryCode":null},{"ID":4173,"Name":"Dutse","Lat":11.7011,"Lon":9.3419,"CountryCode":null},{"ID":4023,"Name":"Ede","Lat":7.7389,"Lon":4.4361,"CountryCode":null},{"ID":1045,"Name":"Enugu","Lat":6.4528,"Lon":7.5111,"CountryCode":null},{"ID":3571,"Name":"Epe","Lat":6.5833,"Lon":3.9833,"CountryCode":null},{"ID":3591,"Name":"Funtua","Lat":11.5204,"Lon":7.32,"CountryCode":null},{"ID":4993,"Name":"Gashua","Lat":12.8681,"Lon":11.0464,"CountryCode":null},{"ID":2511,"Name":"Gombe","Lat":10.2904,"Lon":11.17,"CountryCode":null},{"ID":1866,"Name":"Gusau","Lat":12.15,"Lon":6.6667,"CountryCode":null},{"ID":2033,"Name":"Gwagwalada","Lat":8.9392,"Lon":7.0758,"CountryCode":null},{"ID":1834,"Name":"Gwoza","Lat":11.0861,"Lon":13.6914,"CountryCode":null},{"ID":2589,"Name":"Hong","Lat":10.2317,"Lon":12.9303,"CountryCode":null},{"ID":214,"Name":"Ibadan","Lat":7.3964,"Lon":3.9167,"CountryCode":null},{"ID":7448,"Name":"Idah","Lat":7.0978,"Lon":6.7433,"CountryCode":null},{"ID":4869,"Name":"Idanre","Lat":7.0922,"Lon":5.1322,"CountryCode":null},{"ID":8570,"Name":"Igbanke","Lat":6.3869,"Lon":6.1647,"CountryCode":null},{"ID":4616,"Name":"Igboho","Lat":8.8333,"Lon":3.75,"CountryCode":null},{"ID":2994,"Name":"Ijebu-Ode","Lat":6.8208,"Lon":3.9208,"CountryCode":null},{"ID":7882,"Name":"Iju","Lat":6.6107,"Lon":3.0857,"CountryCode":null},{"ID":696,"Name":"Ikare","Lat":7.5167,"Lon":5.75,"CountryCode":null},{"ID":894,"Name":"Ikeja","Lat":6.6,"Lon":3.35,"CountryCode":null},{"ID":7509,"Name":"Ikom","Lat":6.0833,"Lon":8.6167,"CountryCode":null},{"ID":15440,"Name":"Ikot Abasi","Lat":4.5704,"Lon":7.56,"CountryCode":null},{"ID":3590,"Name":"Ikot Ekpene","Lat":5.1833,"Lon":7.7167,"CountryCode":null},{"ID":11247,"Name":"Ikot Okoro","Lat":4.9,"Lon":7.7167,"CountryCode":null},{"ID":1468,"Name":"Ile-Ife","Lat":7.4667,"Lon":4.5667,"CountryCode":null},{"ID":1860,"Name":"Ilesa","Lat":7.6167,"Lon":4.7167,"CountryCode":null},{"ID":5269,"Name":"Ilobu","Lat":7.84,"Lon":4.486,"CountryCode":null},{"ID":909,"Name":"Ilorin","Lat":8.5,"Lon":4.55,"CountryCode":null},{"ID":3588,"Name":"Inisa","Lat":7.9833,"Lon":4.65,"CountryCode":null},{"ID":10057,"Name":"Ipele","Lat":7.1333,"Lon":5.6667,"CountryCode":null},{"ID":7564,"Name":"Iperu","Lat":6.9143,"Lon":3.6632,"CountryCode":null},{"ID":4669,"Name":"Ipetumodu","Lat":7.507,"Lon":4.4447,"CountryCode":null},{"ID":4235,"Name":"Ipokia","Lat":6.5333,"Lon":2.85,"CountryCode":null},{"ID":16462,"Name":"Ire","Lat":7.9361,"Lon":4.725,"CountryCode":null},{"ID":3311,"Name":"Isanlu","Lat":8.1667,"Lon":5.8,"CountryCode":null},{"ID":47617,"Name":"Isemi-Ile","Lat":7.97,"Lon":3.59,"CountryCode":null},{"ID":2843,"Name":"Iseyin","Lat":7.9667,"Lon":3.6,"CountryCode":null},{"ID":12925,"Name":"Itapa-Ekiti","Lat":7.8131,"Lon":5.3844,"CountryCode":null},{"ID":5620,"Name":"Itele","Lat":6.7667,"Lon":4.0625,"CountryCode":null},{"ID":3428,"Name":"Iwo","Lat":7.6333,"Lon":4.1833,"CountryCode":null},{"ID":1136,"Name":"Jalingo","Lat":8.9,"Lon":11.3667,"CountryCode":null},{"ID":22489,"Name":"Jebba","Lat":9.1539,"Lon":4.8119,"CountryCode":null},{"ID":1203,"Name":"Jos","Lat":9.9167,"Lon":8.8903,"CountryCode":null},{"ID":986,"Name":"Kaduna","Lat":10.5167,"Lon":7.4333,"CountryCode":null},{"ID":401,"Name":"Kano","Lat":12,"Lon":8.5167,"CountryCode":null},{"ID":2193,"Name":"Katsina","Lat":12.9889,"Lon":7.6008,"CountryCode":null},{"ID":2436,"Name":"Kaura Namoda","Lat":12.6,"Lon":6.5897,"CountryCode":null},{"ID":6999,"Name":"Keffi","Lat":8.8464,"Lon":7.8733,"CountryCode":null},{"ID":4111,"Name":"Kisi","Lat":9.0833,"Lon":3.85,"CountryCode":null},{"ID":19974,"Name":"Koko","Lat":11.4232,"Lon":4.517,"CountryCode":null},{"ID":6223,"Name":"Kontagora","Lat":10.403,"Lon":5.473,"CountryCode":null},{"ID":3129,"Name":"Kuje","Lat":8.8822,"Lon":7.2203,"CountryCode":null},{"ID":3239,"Name":"Kukawa","Lat":12.9167,"Lon":13.5667,"CountryCode":null},{"ID":15079,"Name":"Kumo","Lat":10.0431,"Lon":11.2183,"CountryCode":null},{"ID":2115,"Name":"Lafia","Lat":8.4917,"Lon":8.5167,"CountryCode":null},{"ID":20,"Name":"Lagos","Lat":6.455,"Lon":3.3841,"CountryCode":null},{"ID":1081,"Name":"Lokoja","Lat":7.8019,"Lon":6.7442,"CountryCode":null},{"ID":3283,"Name":"Mai'Adua","Lat":13.1906,"Lon":8.2117,"CountryCode":null},{"ID":641,"Name":"Maiduguri","Lat":11.8333,"Lon":13.15,"CountryCode":null},{"ID":3772,"Name":"Makurdi","Lat":7.7333,"Lon":8.5,"CountryCode":null},{"ID":3551,"Name":"Malumfashi","Lat":11.8,"Lon":7.6167,"CountryCode":null},{"ID":2272,"Name":"Minna","Lat":9.6139,"Lon":6.5569,"CountryCode":null},{"ID":4877,"Name":"Mubi","Lat":10.2667,"Lon":13.2667,"CountryCode":null},{"ID":826,"Name":"Mushin","Lat":6.5333,"Lon":3.35,"CountryCode":null},{"ID":2506,"Name":"Nguru","Lat":12.8792,"Lon":10.4525,"CountryCode":null},{"ID":5658,"Name":"Nkpor","Lat":6.15,"Lon":6.8333,"CountryCode":null},{"ID":1827,"Name":"Nnewi","Lat":6.0167,"Lon":6.9167,"CountryCode":null},{"ID":522,"Name":"Nneyi-Umuleri","Lat":6.3333,"Lon":6.8333,"CountryCode":null},{"ID":5589,"Name":"Nsukka","Lat":6.8567,"Lon":7.3958,"CountryCode":null},{"ID":4497,"Name":"Numan","Lat":9.4669,"Lon":12.0328,"CountryCode":null},{"ID":3878,"Name":"Offa","Lat":8.147,"Lon":4.72,"CountryCode":null},{"ID":745,"Name":"Ogbomoso","Lat":8.1333,"Lon":4.25,"CountryCode":null},{"ID":10216,"Name":"Oke-Mesi","Lat":7.8167,"Lon":4.9167,"CountryCode":null},{"ID":2180,"Name":"Okene","Lat":7.55,"Lon":6.2333,"CountryCode":null},{"ID":19441,"Name":"Okuta","Lat":9.2199,"Lon":3.2005,"CountryCode":null},{"ID":2617,"Name":"Ondo","Lat":7.0833,"Lon":4.8333,"CountryCode":null},{"ID":529,"Name":"Onitsha","Lat":6.1667,"Lon":6.7833,"CountryCode":null},{"ID":43425,"Name":"Orlu","Lat":5.7837,"Lon":7.0333,"CountryCode":null},{"ID":3038,"Name":"Osisioma","Lat":5.1497,"Lon":7.3303,"CountryCode":null},{"ID":1021,"Name":"Osogbo","Lat":7.7667,"Lon":4.5667,"CountryCode":null},{"ID":8595,"Name":"Otukpo","Lat":7.1904,"Lon":8.13,"CountryCode":null},{"ID":848,"Name":"Owerri","Lat":5.485,"Lon":7.035,"CountryCode":null},{"ID":3002,"Name":"Owo","Lat":7.1961,"Lon":5.5864,"CountryCode":null},{"ID":1847,"Name":"Oyo","Lat":7.85,"Lon":3.933,"CountryCode":null},{"ID":440,"Name":"Port Harcourt","Lat":4.8242,"Lon":7.0336,"CountryCode":null},{"ID":6996,"Name":"Potiskum","Lat":11.7104,"Lon":11.08,"CountryCode":null},{"ID":1836,"Name":"Saki","Lat":8.6667,"Lon":3.4,"CountryCode":null},{"ID":2771,"Name":"Sapele","Lat":5.9,"Lon":5.6667,"CountryCode":null},{"ID":682,"Name":"Shagamu","Lat":6.8333,"Lon":3.65,"CountryCode":null},{"ID":1680,"Name":"Sokoto","Lat":13.0622,"Lon":5.2339,"CountryCode":null},{"ID":1256,"Name":"Somolu","Lat":6.5408,"Lon":3.3872,"CountryCode":null},{"ID":21234,"Name":"Tegina","Lat":10.0706,"Lon":6.1906,"CountryCode":null},{"ID":1707,"Name":"Ugep","Lat":5.8,"Lon":8.0833,"CountryCode":null},{"ID":1953,"Name":"Umuahia","Lat":5.5333,"Lon":7.4833,"CountryCode":null},{"ID":5185,"Name":"Unwana","Lat":5.8625,"Lon":7.9486,"CountryCode":null},{"ID":1330,"Name":"Uyo","Lat":5.0333,"Lon":7.9275,"CountryCode":null},{"ID":1932,"Name":"Warri","Lat":5.5167,"Lon":5.75,"CountryCode":null},{"ID":6542,"Name":"Wukari","Lat":7.8704,"Lon":9.78,"CountryCode":null},{"ID":47616,"Name":"Yenagoa","Lat":4.9267,"Lon":6.2676,"CountryCode":null},{"ID":1821,"Name":"Yola","Lat":9.23,"Lon":12.46,"CountryCode":null},{"ID":4130,"Name":"Zango","Lat":12.9333,"Lon":8.5333,"CountryCode":null},{"ID":1764,"Name":"Zaria","Lat":11.0667,"Lon":7.7,"CountryCode":null},{"ID":20921,"Name":"Zungeru","Lat":9.8128,"Lon":6.1558,"CountryCode":null}]