[{"ID":8139,"Name":"Abancay","Lat":-13.6333,"Lon":-72.8833,"CountryCode":null},{"ID":44691,"Name":"Acobamba","Lat":-12.8431,"Lon":-74.5694,"CountryCode":null},{"ID":7421,"Name":"Andahuaylas","Lat":-13.6575,"Lon":-73.3833,"CountryCode":null},{"ID":47535,"Name":"Andoas","Lat":-2.9042,"Lon":-76.4028,"CountryCode":null},{"ID":44495,"Name":"Aplao","Lat":-16.0713,"Lon":-72.4882,"CountryCode":null},{"ID":765,"Name":"Arequipa","Lat":-16.4,"Lon":-71.5333,"CountryCode":null},{"ID":39628,"Name":"Ascope","Lat":-7.7138,"Lon":-79.1077,"CountryCode":null},{"ID":3076,"Name":"Ayacucho","Lat":-13.1631,"Lon":-74.2244,"CountryCode":null},{"ID":24501,"Name":"Ayaviri","Lat":-14.8818,"Lon":-70.5901,"CountryCode":null},{"ID":18346,"Name":"Azangaro","Lat":-14.9099,"Lon":-70.1974,"CountryCode":null},{"ID":13371,"Name":"Bagua Grande","Lat":-5.7572,"Lon":-78.4453,"CountryCode":null},{"ID":4410,"Name":"Barranca","Lat":-10.7541,"Lon":-77.761,"CountryCode":null},{"ID":22728,"Name":"Bellavista","Lat":-7.0668,"Lon":-76.5847,"CountryCode":null},{"ID":20527,"Name":"Caballococha","Lat":-3.9058,"Lon":-70.5164,"CountryCode":null},{"ID":33190,"Name":"Cajabamba","Lat":-7.6237,"Lon":-78.046,"CountryCode":null},{"ID":3281,"Name":"Cajamarca","Lat":-7.1667,"Lon":-78.5167,"CountryCode":null},{"ID":42282,"Name":"Calca","Lat":-13.323,"Lon":-71.956,"CountryCode":null},{"ID":1730,"Name":"Callao","Lat":-12.0522,"Lon":-77.1392,"CountryCode":null},{"ID":13968,"Name":"Camana","Lat":-16.6167,"Lon":-72.7167,"CountryCode":null},{"ID":21384,"Name":"Caras","Lat":-9.0472,"Lon":-77.7433,"CountryCode":null},{"ID":24855,"Name":"Cartavio","Lat":-7.8833,"Lon":-79.2167,"CountryCode":null},{"ID":17919,"Name":"Casma","Lat":-9.4742,"Lon":-78.3106,"CountryCode":null},{"ID":7800,"Name":"Catacaos","Lat":-5.2653,"Lon":-80.675,"CountryCode":null},{"ID":19250,"Name":"Celendin","Lat":-6.8667,"Lon":-78.15,"CountryCode":null},{"ID":9764,"Name":"Cerro de Pasco","Lat":-10.6864,"Lon":-76.2625,"CountryCode":null},{"ID":16601,"Name":"Chachapoyas","Lat":-6.2167,"Lon":-77.85,"CountryCode":null},{"ID":43769,"Name":"Chala","Lat":-15.8519,"Lon":-74.25,"CountryCode":null},{"ID":18723,"Name":"Chalhuanca","Lat":-14.295,"Lon":-73.2444,"CountryCode":null},{"ID":16475,"Name":"Chancay","Lat":-11.5653,"Lon":-77.2714,"CountryCode":null},{"ID":12112,"Name":"Chepen","Lat":-7.2271,"Lon":-79.4298,"CountryCode":null},{"ID":1333,"Name":"Chiclayo","Lat":-6.763,"Lon":-79.8366,"CountryCode":null},{"ID":23202,"Name":"Chilca","Lat":-12.5208,"Lon":-76.7369,"CountryCode":null},{"ID":2361,"Name":"Chimbote","Lat":-9.0745,"Lon":-78.5936,"CountryCode":null},{"ID":9122,"Name":"Chincha Alta","Lat":-13.45,"Lon":-76.1333,"CountryCode":null},{"ID":6810,"Name":"Chosica","Lat":-11.9361,"Lon":-76.6972,"CountryCode":null},{"ID":10438,"Name":"Chota","Lat":-6.5614,"Lon":-78.6486,"CountryCode":null},{"ID":7241,"Name":"Chulucanas","Lat":-5.0961,"Lon":-80.1647,"CountryCode":null},{"ID":41841,"Name":"Chupaca","Lat":-12.062,"Lon":-75.2872,"CountryCode":null},{"ID":30043,"Name":"Concepcion","Lat":-11.9185,"Lon":-75.3129,"CountryCode":null},{"ID":30573,"Name":"Contamana","Lat":-7.3333,"Lon":-75.0167,"CountryCode":null},{"ID":46432,"Name":"Coracora","Lat":-15.017,"Lon":-73.7804,"CountryCode":null},{"ID":1678,"Name":"Cusco","Lat":-13.525,"Lon":-71.9722,"CountryCode":null},{"ID":11017,"Name":"Cutervo","Lat":-6.3778,"Lon":-78.8167,"CountryCode":null},{"ID":47036,"Name":"Desaguadero","Lat":-16.5667,"Lon":-69.0333,"CountryCode":null},{"ID":20803,"Name":"El Milagro","Lat":-8.0284,"Lon":-79.0672,"CountryCode":null},{"ID":16725,"Name":"Ferrenafe","Lat":-6.7183,"Lon":-79.7703,"CountryCode":null},{"ID":16219,"Name":"Forbe Oroya","Lat":-11.522,"Lon":-75.91,"CountryCode":null},{"ID":47538,"Name":"Gueppi","Lat":-0.1166,"Lon":-75.23,"CountryCode":null},{"ID":3294,"Name":"Huacho","Lat":-11.1067,"Lon":-77.605,"CountryCode":null},{"ID":13733,"Name":"Huamachuco","Lat":-7.812,"Lon":-78.0487,"CountryCode":null},{"ID":11354,"Name":"Huancavelica","Lat":-12.7864,"Lon":-74.9756,"CountryCode":null},{"ID":1875,"Name":"Huancayo","Lat":-12.0667,"Lon":-75.2167,"CountryCode":null},{"ID":8236,"Name":"Huanchaco","Lat":-7.7,"Lon":-79.4333,"CountryCode":null},{"ID":17429,"Name":"Huanta","Lat":-12.9397,"Lon":-74.2475,"CountryCode":null},{"ID":3355,"Name":"Huanuco","Lat":-9.9295,"Lon":-76.2397,"CountryCode":null},{"ID":7517,"Name":"Huaral","Lat":-11.5,"Lon":-77.2,"CountryCode":null},{"ID":5232,"Name":"Huaraz","Lat":-9.5333,"Lon":-77.5333,"CountryCode":null},{"ID":42384,"Name":"Huari","Lat":-9.3689,"Lon":-77.2369,"CountryCode":null},{"ID":29010,"Name":"Huarmey","Lat":-10.0686,"Lon":-78.1603,"CountryCode":null},{"ID":13524,"Name":"Huaura","Lat":-11.1,"Lon":-77.6,"CountryCode":null},{"ID":4017,"Name":"Huaycan","Lat":-12.0181,"Lon":-76.8139,"CountryCode":null},{"ID":2430,"Name":"Ica","Lat":-14.0667,"Lon":-75.7333,"CountryCode":null},{"ID":18376,"Name":"Ilave","Lat":-16.0836,"Lon":-69.6383,"CountryCode":null},{"ID":8820,"Name":"Ilo","Lat":-17.6459,"Lon":-71.3453,"CountryCode":null},{"ID":1881,"Name":"Iquitos","Lat":-3.75,"Lon":-73.25,"CountryCode":null},{"ID":6505,"Name":"Jaen","Lat":-5.7083,"Lon":-78.8083,"CountryCode":null},{"ID":18886,"Name":"Jauja","Lat":-11.775,"Lon":-75.5,"CountryCode":null},{"ID":10539,"Name":"Juanjui","Lat":-7.1802,"Lon":-76.7265,"CountryCode":null},{"ID":23289,"Name":"Juli","Lat":-16.2125,"Lon":-69.4603,"CountryCode":null},{"ID":2468,"Name":"Juliaca","Lat":-15.4833,"Lon":-70.1333,"CountryCode":null},{"ID":38541,"Name":"Junin","Lat":-11.15,"Lon":-75.9833,"CountryCode":null},{"ID":17752,"Name":"La Rinconada","Lat":-14.6325,"Lon":-69.4458,"CountryCode":null},{"ID":28135,"Name":"Lamas","Lat":-6.4167,"Lon":-76.5333,"CountryCode":null},{"ID":9863,"Name":"Lambayeque","Lat":-6.7,"Lon":-79.9,"CountryCode":null},{"ID":31047,"Name":"Lampa","Lat":-15.3636,"Lon":-70.3656,"CountryCode":null},{"ID":42,"Name":"Lima","Lat":-12.06,"Lon":-77.0375,"CountryCode":null},{"ID":36777,"Name":"Macusani","Lat":-14.0692,"Lon":-70.4311,"CountryCode":null},{"ID":39659,"Name":"Mancora","Lat":-4.1056,"Lon":-81.0472,"CountryCode":null},{"ID":17229,"Name":"Moche","Lat":-8.1706,"Lon":-79.0094,"CountryCode":null},{"ID":18463,"Name":"Mollendo","Lat":-17.0231,"Lon":-72.0147,"CountryCode":null},{"ID":21584,"Name":"Monsefu","Lat":-6.8778,"Lon":-79.8719,"CountryCode":null},{"ID":8427,"Name":"Moquegua","Lat":-17.2,"Lon":-70.9333,"CountryCode":null},{"ID":32875,"Name":"Motupe","Lat":-6.1519,"Lon":-79.7142,"CountryCode":null},{"ID":10144,"Name":"Moyobamba","Lat":-6.0333,"Lon":-76.9667,"CountryCode":null},{"ID":46991,"Name":"Nauta","Lat":-4.5083,"Lon":-73.5833,"CountryCode":null},{"ID":22151,"Name":"Nazca","Lat":-14.8289,"Lon":-74.9436,"CountryCode":null},{"ID":42080,"Name":"Olmos","Lat":-5.9855,"Lon":-79.7569,"CountryCode":null},{"ID":20424,"Name":"Otuzco","Lat":-7.9,"Lon":-78.5833,"CountryCode":null},{"ID":34430,"Name":"Oxapampa","Lat":-10.574,"Lon":-75.405,"CountryCode":null},{"ID":35796,"Name":"Oyon","Lat":-10.6692,"Lon":-76.7728,"CountryCode":null},{"ID":19737,"Name":"Pacasmayo","Lat":-7.4003,"Lon":-79.57,"CountryCode":null},{"ID":46854,"Name":"Paita","Lat":-5.0911,"Lon":-81.1064,"CountryCode":null},{"ID":37082,"Name":"Pampas","Lat":-12.3989,"Lon":-74.8667,"CountryCode":null},{"ID":23300,"Name":"Paramonga","Lat":-10.6744,"Lon":-77.8186,"CountryCode":null},{"ID":11699,"Name":"Pativilca","Lat":-10.6958,"Lon":-77.7742,"CountryCode":null},{"ID":42088,"Name":"Pisac","Lat":-13.4242,"Lon":-71.8578,"CountryCode":null},{"ID":5635,"Name":"Pisco","Lat":-13.7167,"Lon":-76.2,"CountryCode":null},{"ID":1555,"Name":"Piura","Lat":-5.2,"Lon":-80.6333,"CountryCode":null},{"ID":47536,"Name":"Puca Urco","Lat":-2.3328,"Lon":-71.9167,"CountryCode":null},{"ID":2145,"Name":"Pucallpa","Lat":-8.3833,"Lon":-74.55,"CountryCode":null},{"ID":7058,"Name":"Puerto Maldonado","Lat":-12.6,"Lon":-69.1833,"CountryCode":null},{"ID":29871,"Name":"Puerto Pimentel","Lat":-6.8367,"Lon":-79.9342,"CountryCode":null},{"ID":4886,"Name":"Puno","Lat":-15.8433,"Lon":-70.0236,"CountryCode":null},{"ID":26896,"Name":"Puquio","Lat":-14.6939,"Lon":-74.1241,"CountryCode":null},{"ID":46371,"Name":"Putina","Lat":-15.47,"Lon":-69.43,"CountryCode":null},{"ID":17345,"Name":"Quillabamba","Lat":-12.8681,"Lon":-72.6931,"CountryCode":null},{"ID":20293,"Name":"Requena","Lat":-5.0569,"Lon":-73.8515,"CountryCode":null},{"ID":22661,"Name":"Rioja","Lat":-6.05,"Lon":-77.1417,"CountryCode":null},{"ID":47526,"Name":"Rocafuerte","Lat":-0.9329,"Lon":-75.4,"CountryCode":null},{"ID":32503,"Name":"Salaverry","Lat":-8.2214,"Lon":-78.9764,"CountryCode":null},{"ID":4925,"Name":"San Ignacio","Lat":-5.1456,"Lon":-79.0017,"CountryCode":null},{"ID":28967,"Name":"San Pedro de Lloc","Lat":-7.4167,"Lon":-79.5,"CountryCode":null},{"ID":31173,"Name":"San Ramon","Lat":-11.1247,"Lon":-75.3569,"CountryCode":null},{"ID":19957,"Name":"San Vicente de Canete","Lat":-13.0833,"Lon":-76.4,"CountryCode":null},{"ID":39932,"Name":"Santiago","Lat":-14.1892,"Lon":-75.7126,"CountryCode":null},{"ID":20526,"Name":"Santiago de Chuco","Lat":-8.1502,"Lon":-78.1783,"CountryCode":null},{"ID":20452,"Name":"Santo Tomas","Lat":-14.451,"Lon":-72.082,"CountryCode":null},{"ID":34200,"Name":"Saposoa","Lat":-6.9364,"Lon":-76.7718,"CountryCode":null},{"ID":41158,"Name":"Satipo","Lat":-11.2542,"Lon":-74.6367,"CountryCode":null},{"ID":11248,"Name":"Sechura","Lat":-5.5576,"Lon":-80.8223,"CountryCode":null},{"ID":15979,"Name":"Sicuani","Lat":-14.272,"Lon":-71.229,"CountryCode":null},{"ID":31259,"Name":"Sisa","Lat":-6.6142,"Lon":-76.6936,"CountryCode":null},{"ID":47537,"Name":"Soldado Bartra","Lat":-2.5161,"Lon":-75.7666,"CountryCode":null},{"ID":3956,"Name":"Sullana","Lat":-4.9,"Lon":-80.6833,"CountryCode":null},{"ID":18473,"Name":"Supe","Lat":-10.8017,"Lon":-77.7436,"CountryCode":null},{"ID":2400,"Name":"Tacna","Lat":-18.0147,"Lon":-70.2489,"CountryCode":null},{"ID":6177,"Name":"Talara","Lat":-4.5799,"Lon":-81.2719,"CountryCode":null},{"ID":2793,"Name":"Tarapoto","Lat":-6.4833,"Lon":-76.3667,"CountryCode":null},{"ID":10525,"Name":"Tarma","Lat":-11.4186,"Lon":-75.6908,"CountryCode":null},{"ID":12039,"Name":"Tingo Maria","Lat":-9.2953,"Lon":-75.9975,"CountryCode":null},{"ID":18083,"Name":"Tocache Nuevo","Lat":-8.1889,"Lon":-76.5139,"CountryCode":null},{"ID":47369,"Name":"Tournavista","Lat":-8.9322,"Lon":-74.7052,"CountryCode":null},{"ID":827,"Name":"Trujillo","Lat":-8.112,"Lon":-79.0288,"CountryCode":null},{"ID":6317,"Name":"Tumbes","Lat":-3.5708,"Lon":-80.4597,"CountryCode":null},{"ID":39479,"Name":"Urcos","Lat":-13.6861,"Lon":-71.6228,"CountryCode":null},{"ID":46966,"Name":"Urubamba","Lat":-13.3042,"Lon":-72.1167,"CountryCode":null},{"ID":8569,"Name":"Victor Larco Herrera","Lat":-8.1333,"Lon":-79.05,"CountryCode":null},{"ID":14964,"Name":"Viru","Lat":-8.4143,"Lon":-78.7524,"CountryCode":null},{"ID":37631,"Name":"Yanahuanca","Lat":-10.4914,"Lon":-76.5136,"CountryCode":null},{"ID":9224,"Name":"Yurimaguas","Lat":-5.9,"Lon":-76.0833,"CountryCode":null},{"ID":28008,"Name":"Zarumilla","Lat":-3.5014,"Lon":-80.2722,"CountryCode":null}]