[{"ID":3530,"Name":"`Unayzah","Lat":26.0906,"Lon":43.9875,"CountryCode":null},{"ID":2840,"Name":"Abha","Lat":18.2169,"Lon":42.5053,"CountryCode":null},{"ID":12293,"Name":"Abqaiq","Lat":25.935,"Lon":49.6661,"CountryCode":null},{"ID":851,"Name":"Ad Dammam","Lat":26.4333,"Lon":50.1,"CountryCode":null},{"ID":8498,"Name":"Ad Darb","Lat":17.7167,"Lon":42.25,"CountryCode":null},{"ID":25519,"Name":"Ad Dir`iyah","Lat":24.7333,"Lon":46.5756,"CountryCode":null},{"ID":15115,"Name":"Al `Aqiq","Lat":20.2685,"Lon":41.6493,"CountryCode":null},{"ID":20168,"Name":"Al `Awwamiyah","Lat":26.5833,"Lon":49.9833,"CountryCode":null},{"ID":16746,"Name":"Al `Aydabi","Lat":17.237,"Lon":42.939,"CountryCode":null},{"ID":5603,"Name":"Al Ahad al Masarihah","Lat":16.7097,"Lon":42.955,"CountryCode":null},{"ID":29037,"Name":"Al Awjam","Lat":26.5583,"Lon":49.9503,"CountryCode":null},{"ID":22868,"Name":"Al Bahah","Lat":20.0125,"Lon":41.4653,"CountryCode":null},{"ID":28573,"Name":"Al Ghat","Lat":26.0267,"Lon":44.9608,"CountryCode":null},{"ID":33213,"Name":"Al Ha'ir","Lat":25.79,"Lon":45.38,"CountryCode":null},{"ID":4309,"Name":"Al Hawiyah","Lat":21.4411,"Lon":40.4975,"CountryCode":null},{"ID":1258,"Name":"Al Hillah","Lat":23.4895,"Lon":46.7564,"CountryCode":null},{"ID":1135,"Name":"Al Hufuf","Lat":25.3833,"Lon":49.5833,"CountryCode":null},{"ID":1551,"Name":"Al Jubayl","Lat":27,"Lon":49.6544,"CountryCode":null},{"ID":10902,"Name":"Al Kharj","Lat":24.1483,"Lon":47.305,"CountryCode":null},{"ID":3037,"Name":"Al Khubar","Lat":26.2833,"Lon":50.2,"CountryCode":null},{"ID":8157,"Name":"Al Lith","Lat":20.15,"Lon":40.2667,"CountryCode":null},{"ID":10599,"Name":"Al Majaridah","Lat":19.1167,"Lon":41.9167,"CountryCode":null},{"ID":35974,"Name":"Al Majma`ah","Lat":25.9039,"Lon":45.3456,"CountryCode":null},{"ID":12570,"Name":"Al Midhnab","Lat":25.8601,"Lon":44.2223,"CountryCode":null},{"ID":16090,"Name":"Al Mindak","Lat":20.1833,"Lon":41.2333,"CountryCode":null},{"ID":2315,"Name":"Al Mubarraz","Lat":25.3833,"Lon":49.6,"CountryCode":null},{"ID":1193,"Name":"Al Qatif","Lat":26.556,"Lon":49.996,"CountryCode":null},{"ID":2290,"Name":"Al Qunfudhah","Lat":19.1264,"Lon":41.0789,"CountryCode":null},{"ID":3859,"Name":"Al Qurayyat","Lat":31.3167,"Lon":37.3667,"CountryCode":null},{"ID":45605,"Name":"Al Quway`iyah","Lat":24.0464,"Lon":45.2656,"CountryCode":null},{"ID":11253,"Name":"Al Wajh","Lat":26.2833,"Lon":36.4167,"CountryCode":null},{"ID":10561,"Name":"An Nimas","Lat":19.12,"Lon":42.13,"CountryCode":null},{"ID":5132,"Name":"Ar Rass","Lat":25.8667,"Lon":43.5,"CountryCode":null},{"ID":18953,"Name":"Arar","Lat":30.9753,"Lon":41.0231,"CountryCode":null},{"ID":21201,"Name":"As Sulayyil","Lat":20.4597,"Lon":45.5744,"CountryCode":null},{"ID":17335,"Name":"Ash Shinan","Lat":27.1782,"Lon":42.443,"CountryCode":null},{"ID":1284,"Name":"At Ta'if","Lat":21.2751,"Lon":40.4062,"CountryCode":null},{"ID":4998,"Name":"Az Zulfi","Lat":26.2833,"Lon":44.8,"CountryCode":null},{"ID":9147,"Name":"Badr Hunayn","Lat":23.78,"Lon":38.7906,"CountryCode":null},{"ID":1573,"Name":"Buraydah","Lat":26.3333,"Lon":43.9667,"CountryCode":null},{"ID":22370,"Name":"Dawmat al Jandal","Lat":29.8153,"Lon":39.8664,"CountryCode":null},{"ID":16588,"Name":"Dhahran","Lat":26.2667,"Lon":50.15,"CountryCode":null},{"ID":13825,"Name":"Duba","Lat":27.3493,"Lon":35.6962,"CountryCode":null},{"ID":15372,"Name":"Dulay` Rashid","Lat":25.5067,"Lon":42.8614,"CountryCode":null},{"ID":37333,"Name":"Duruma","Lat":24.6,"Lon":46.1333,"CountryCode":null},{"ID":1843,"Name":"Hafr al Batin","Lat":28.4342,"Lon":45.9636,"CountryCode":null},{"ID":2236,"Name":"Ha'il","Lat":27.5167,"Lon":41.6833,"CountryCode":null},{"ID":20078,"Name":"Haql","Lat":29.2833,"Lon":34.9333,"CountryCode":null},{"ID":5583,"Name":"Harad","Lat":24.1456,"Lon":49.0653,"CountryCode":null},{"ID":34099,"Name":"Harmah","Lat":25.9261,"Lon":45.3336,"CountryCode":null},{"ID":18127,"Name":"Hawtat Sudayr","Lat":25.5951,"Lon":45.6338,"CountryCode":null},{"ID":4916,"Name":"Jazan","Lat":16.8892,"Lon":42.5611,"CountryCode":null},{"ID":144,"Name":"Jeddah","Lat":21.5433,"Lon":39.1728,"CountryCode":null},{"ID":6201,"Name":"Khamis Mushayt","Lat":18.3,"Lon":42.7333,"CountryCode":null},{"ID":9148,"Name":"Khulays","Lat":22.1539,"Lon":39.3183,"CountryCode":null},{"ID":338,"Name":"Mecca","Lat":21.4225,"Lon":39.8233,"CountryCode":null},{"ID":552,"Name":"Medina","Lat":24.47,"Lon":39.61,"CountryCode":null},{"ID":8154,"Name":"Najran","Lat":17.4917,"Lon":44.1322,"CountryCode":null},{"ID":3265,"Name":"Qal`at Bishah","Lat":20,"Lon":42.6,"CountryCode":null},{"ID":16849,"Name":"Qara","Lat":29.8833,"Lon":40.2167,"CountryCode":null},{"ID":7101,"Name":"Rafha","Lat":29.6386,"Lon":43.5014,"CountryCode":null},{"ID":7544,"Name":"Ra's al Khafji","Lat":28.4211,"Lon":48.4956,"CountryCode":null},{"ID":9286,"Name":"Ras Tanura","Lat":26.65,"Lon":50.1667,"CountryCode":null},{"ID":70,"Name":"Riyadh","Lat":24.6333,"Lon":46.7167,"CountryCode":null},{"ID":2925,"Name":"Sabya","Lat":17.1489,"Lon":42.6258,"CountryCode":null},{"ID":3232,"Name":"Sakaka","Lat":29.9697,"Lon":40.2,"CountryCode":null},{"ID":7079,"Name":"Sayhat","Lat":26.475,"Lon":50.0417,"CountryCode":null},{"ID":15373,"Name":"Shaqra'","Lat":25.2402,"Lon":45.251,"CountryCode":null},{"ID":6997,"Name":"Sharurah","Lat":17.4833,"Lon":47.1167,"CountryCode":null},{"ID":872,"Name":"Tabuk","Lat":28.3972,"Lon":36.5789,"CountryCode":null},{"ID":6607,"Name":"Turayf","Lat":31.6775,"Lon":38.6531,"CountryCode":null},{"ID":2105,"Name":"Yanbu","Lat":24.0883,"Lon":38.0582,"CountryCode":null}]