[{"ID":17413,"Name":"Benguema","Lat":8.3333,"Lon":-13.0667,"CountryCode":null},{"ID":32546,"Name":"Binkolo","Lat":8.95,"Lon":-11.9833,"CountryCode":null},{"ID":2871,"Name":"Bo","Lat":7.9564,"Lon":-11.74,"CountryCode":null},{"ID":40677,"Name":"Bonthe","Lat":7.5264,"Lon":-12.505,"CountryCode":null},{"ID":29077,"Name":"Bumpe","Lat":7.8919,"Lon":-11.9025,"CountryCode":null},{"ID":806,"Name":"Freetown","Lat":8.4844,"Lon":-13.2344,"CountryCode":null},{"ID":35526,"Name":"Gandorhun","Lat":7.5564,"Lon":-11.6925,"CountryCode":null},{"ID":25928,"Name":"Kabala","Lat":9.5833,"Lon":-11.55,"CountryCode":null},{"ID":17350,"Name":"Kailahun","Lat":8.2772,"Lon":-10.5739,"CountryCode":null},{"ID":13669,"Name":"Kambia","Lat":9.1167,"Lon":-12.9167,"CountryCode":null},{"ID":3472,"Name":"Kenema","Lat":7.8758,"Lon":-11.1908,"CountryCode":null},{"ID":5010,"Name":"Koidu","Lat":8.6439,"Lon":-10.9717,"CountryCode":null},{"ID":6877,"Name":"Koidu-Bulma","Lat":8.4405,"Lon":-10.85,"CountryCode":null},{"ID":26009,"Name":"Leicester","Lat":8.45,"Lon":-13.2167,"CountryCode":null},{"ID":14933,"Name":"Lunsar","Lat":8.6833,"Lon":-12.5333,"CountryCode":null},{"ID":13558,"Name":"Magburaka","Lat":8.7169,"Lon":-11.9433,"CountryCode":null},{"ID":35482,"Name":"Makeni","Lat":8.8817,"Lon":-12.0442,"CountryCode":null},{"ID":31874,"Name":"Mongeri","Lat":8.3167,"Lon":-11.7333,"CountryCode":null},{"ID":17326,"Name":"Motema","Lat":8.6167,"Lon":-11.1667,"CountryCode":null},{"ID":37277,"Name":"Moyamba","Lat":8.1606,"Lon":-12.4333,"CountryCode":null},{"ID":15246,"Name":"Newton","Lat":8.3333,"Lon":-13.0667,"CountryCode":null},{"ID":24193,"Name":"Pendembu","Lat":8.1,"Lon":-10.7,"CountryCode":null},{"ID":12345,"Name":"Port Loko","Lat":8.7667,"Lon":-12.7875,"CountryCode":null},{"ID":24528,"Name":"Pujehun","Lat":7.3506,"Lon":-11.7181,"CountryCode":null},{"ID":34592,"Name":"Rokupr","Lat":9.0167,"Lon":-12.95,"CountryCode":null},{"ID":28539,"Name":"Segbwema","Lat":8,"Lon":-10.95,"CountryCode":null},{"ID":12479,"Name":"Tongoma","Lat":8.65,"Lon":-11.0667,"CountryCode":null},{"ID":33402,"Name":"Yengema","Lat":8.6167,"Lon":-11.1667,"CountryCode":null}]