[{"ID":24127,"Name":"`Adra","Lat":33.6,"Lon":36.515,"CountryCode":null},{"ID":14782,"Name":"`Afrin","Lat":36.5083,"Lon":36.8692,"CountryCode":null},{"ID":11746,"Name":"`Amuda","Lat":37.1042,"Lon":40.93,"CountryCode":null},{"ID":36321,"Name":"`Anadan","Lat":36.2936,"Lon":37.0444,"CountryCode":null},{"ID":12372,"Name":"`Ayn al `Arab","Lat":36.891,"Lon":38.3536,"CountryCode":null},{"ID":39656,"Name":"`Utaybah","Lat":33.4861,"Lon":36.6011,"CountryCode":null},{"ID":45791,"Name":"Abu Hardub","Lat":34.845,"Lon":40.6431,"CountryCode":null},{"ID":44398,"Name":"Abu Khashab","Lat":35.9358,"Lon":40.0367,"CountryCode":null},{"ID":46159,"Name":"Ad Darbasiyah","Lat":37.0728,"Lon":40.6519,"CountryCode":null},{"ID":33627,"Name":"Ad Duraykish","Lat":34.8969,"Lon":36.1346,"CountryCode":null},{"ID":27292,"Name":"Al `Asharah","Lat":34.9203,"Lon":40.5594,"CountryCode":null},{"ID":39378,"Name":"Al Atarib","Lat":36.1389,"Lon":36.83,"CountryCode":null},{"ID":45180,"Name":"Al Buwaydah","Lat":33.4264,"Lon":36.3208,"CountryCode":null},{"ID":14145,"Name":"Al Ghizlaniyah","Lat":33.3986,"Lon":36.4531,"CountryCode":null},{"ID":6042,"Name":"Al Hajar al Aswad","Lat":33.464,"Lon":36.3044,"CountryCode":null},{"ID":41171,"Name":"Al Hamah","Lat":33.5581,"Lon":36.2222,"CountryCode":null},{"ID":27732,"Name":"Al Harah","Lat":33.05,"Lon":36,"CountryCode":null},{"ID":3475,"Name":"Al Hasakah","Lat":36.5117,"Lon":40.7422,"CountryCode":null},{"ID":39768,"Name":"Al Karak","Lat":32.6872,"Lon":36.3508,"CountryCode":null},{"ID":12688,"Name":"Al Kiswah","Lat":33.35,"Lon":36.2333,"CountryCode":null},{"ID":28877,"Name":"Al Lataminah","Lat":35.3208,"Lon":36.6225,"CountryCode":null},{"ID":13975,"Name":"Al Malikiyah","Lat":37.1667,"Lon":42.1333,"CountryCode":null},{"ID":11485,"Name":"Al Mayadin","Lat":35.0183,"Lon":40.4533,"CountryCode":null},{"ID":29611,"Name":"Al Mu`abbadah","Lat":37.0164,"Lon":41.9544,"CountryCode":null},{"ID":31945,"Name":"Al Mu`addamiyah","Lat":33.7421,"Lon":36.6435,"CountryCode":null},{"ID":39889,"Name":"Al Musayfirah","Lat":32.6322,"Lon":36.3386,"CountryCode":null},{"ID":34792,"Name":"Al Muzayrib","Lat":32.7109,"Lon":36.0266,"CountryCode":null},{"ID":3533,"Name":"Al Qamishli","Lat":37.05,"Lon":41.22,"CountryCode":null},{"ID":45747,"Name":"Al Qardahah","Lat":35.4572,"Lon":36.0597,"CountryCode":null},{"ID":14350,"Name":"Al Qaryatayn","Lat":34.2283,"Lon":37.2406,"CountryCode":null},{"ID":47490,"Name":"Al Qunaytirah","Lat":33.1256,"Lon":35.8239,"CountryCode":null},{"ID":8307,"Name":"Al Qurayya","Lat":35.0025,"Lon":40.5117,"CountryCode":null},{"ID":11912,"Name":"Al Qusayr","Lat":34.5119,"Lon":36.5764,"CountryCode":null},{"ID":19389,"Name":"Al Qutayfah","Lat":33.7389,"Lon":36.6,"CountryCode":null},{"ID":44733,"Name":"Al Yadudah","Lat":32.6653,"Lon":36.0611,"CountryCode":null},{"ID":10880,"Name":"Albu Kamal","Lat":34.4536,"Lon":40.9367,"CountryCode":null},{"ID":416,"Name":"Aleppo","Lat":36.2,"Lon":37.16,"CountryCode":null},{"ID":10801,"Name":"An Nabk","Lat":34.0167,"Lon":36.7167,"CountryCode":null},{"ID":41250,"Name":"An Nayrab","Lat":36.1756,"Lon":37.2278,"CountryCode":null},{"ID":2306,"Name":"Ar Raqqah","Lat":35.95,"Lon":39.01,"CountryCode":null},{"ID":9451,"Name":"Ar Rastan","Lat":34.9167,"Lon":36.7333,"CountryCode":null},{"ID":17327,"Name":"Ar Ruhaybah","Lat":33.7436,"Lon":36.7012,"CountryCode":null},{"ID":40408,"Name":"Armanaz","Lat":36.0833,"Lon":36.5,"CountryCode":null},{"ID":38560,"Name":"As Sabburah","Lat":33.5151,"Lon":36.1259,"CountryCode":null},{"ID":5793,"Name":"As Safirah","Lat":36.0778,"Lon":37.3733,"CountryCode":null},{"ID":5604,"Name":"As Salamiyah","Lat":35.0118,"Lon":37.0525,"CountryCode":null},{"ID":19646,"Name":"As Sanamayn","Lat":33.0711,"Lon":36.1842,"CountryCode":null},{"ID":29005,"Name":"As Sukhnah","Lat":34.8868,"Lon":38.8721,"CountryCode":null},{"ID":27569,"Name":"As Suqaylibiyah","Lat":35.3697,"Lon":36.38,"CountryCode":null},{"ID":8993,"Name":"As Suwayda'","Lat":32.7125,"Lon":36.5667,"CountryCode":null},{"ID":29553,"Name":"Ash Shaddadah","Lat":36.0561,"Lon":40.7303,"CountryCode":null},{"ID":11671,"Name":"Ash Shaykh Badr","Lat":34.9833,"Lon":36.0833,"CountryCode":null},{"ID":9141,"Name":"At Tall","Lat":33.6,"Lon":36.3,"CountryCode":null},{"ID":7135,"Name":"Ath Thawrah","Lat":35.8367,"Lon":38.5481,"CountryCode":null},{"ID":19636,"Name":"Az Zabadani","Lat":33.725,"Lon":36.0972,"CountryCode":null},{"ID":11085,"Name":"Babila","Lat":33.4728,"Lon":36.3344,"CountryCode":null},{"ID":39296,"Name":"Baghuz Fawqani","Lat":34.4586,"Lon":40.9506,"CountryCode":null},{"ID":12760,"Name":"Baniyas","Lat":35.1822,"Lon":35.9403,"CountryCode":null},{"ID":40211,"Name":"Barah","Lat":35.683,"Lon":36.533,"CountryCode":null},{"ID":29722,"Name":"Bayt Saham","Lat":33.4733,"Lon":36.3372,"CountryCode":null},{"ID":22957,"Name":"Binnish","Lat":35.95,"Lon":36.7,"CountryCode":null},{"ID":33490,"Name":"Busra al Harir","Lat":32.8425,"Lon":36.34,"CountryCode":null},{"ID":25001,"Name":"Busra ash Sham","Lat":32.5167,"Lon":36.4833,"CountryCode":null},{"ID":312,"Name":"Damascus","Lat":33.5131,"Lon":36.2919,"CountryCode":null},{"ID":4358,"Name":"Dar`a","Lat":32.6189,"Lon":36.1021,"CountryCode":null},{"ID":33139,"Name":"Darat `Izzah","Lat":36.2828,"Lon":36.8519,"CountryCode":null},{"ID":7131,"Name":"Darayya","Lat":33.45,"Lon":36.25,"CountryCode":null},{"ID":38518,"Name":"Dayr `Atiyah","Lat":34.0833,"Lon":36.7667,"CountryCode":null},{"ID":2499,"Name":"Dayr az Zawr","Lat":35.3333,"Lon":40.15,"CountryCode":null},{"ID":15203,"Name":"Dayr Hafir","Lat":36.1569,"Lon":37.7078,"CountryCode":null},{"ID":44602,"Name":"Dhiban","Lat":35.0025,"Lon":40.5117,"CountryCode":null},{"ID":5055,"Name":"Duma","Lat":33.5711,"Lon":36.4011,"CountryCode":null},{"ID":36574,"Name":"Ghabaghib","Lat":33.1839,"Lon":36.2264,"CountryCode":null},{"ID":42237,"Name":"Ghabrah","Lat":34.5378,"Lon":40.9125,"CountryCode":null},{"ID":42131,"Name":"Ghariyah al Gharbiyah","Lat":32.6828,"Lon":36.2233,"CountryCode":null},{"ID":14307,"Name":"Hajin","Lat":34.6894,"Lon":40.8308,"CountryCode":null},{"ID":1072,"Name":"Hamah","Lat":35.1333,"Lon":36.75,"CountryCode":null},{"ID":12086,"Name":"Harasta","Lat":33.5667,"Lon":36.3667,"CountryCode":null},{"ID":22898,"Name":"Harim","Lat":36.2,"Lon":36.5167,"CountryCode":null},{"ID":42691,"Name":"Has","Lat":35.6169,"Lon":36.5953,"CountryCode":null},{"ID":35429,"Name":"Hawsh al Bahdaliyah","Lat":33.4292,"Lon":36.3611,"CountryCode":null},{"ID":45229,"Name":"Hish","Lat":35.5464,"Lon":36.6431,"CountryCode":null},{"ID":966,"Name":"Homs","Lat":34.7308,"Lon":36.7094,"CountryCode":null},{"ID":16828,"Name":"I`zaz","Lat":36.5866,"Lon":37.0463,"CountryCode":null},{"ID":3903,"Name":"Idlib","Lat":35.9333,"Lon":36.6333,"CountryCode":null},{"ID":16964,"Name":"Inkhil","Lat":33,"Lon":36.1167,"CountryCode":null},{"ID":25502,"Name":"Izra","Lat":32.8454,"Lon":36.2499,"CountryCode":null},{"ID":7835,"Name":"Jablah","Lat":35.35,"Lon":35.9167,"CountryCode":null},{"ID":37070,"Name":"Jarabulus","Lat":36.8175,"Lon":38.0111,"CountryCode":null},{"ID":5447,"Name":"Jaramana","Lat":33.4833,"Lon":36.35,"CountryCode":null},{"ID":39094,"Name":"Jarjanaz","Lat":35.6175,"Lon":36.7772,"CountryCode":null},{"ID":16770,"Name":"Jasim","Lat":32.9667,"Lon":36.0667,"CountryCode":null},{"ID":13699,"Name":"Jayrud","Lat":33.8067,"Lon":36.7403,"CountryCode":null},{"ID":32903,"Name":"Jindayris","Lat":36.3947,"Lon":36.6889,"CountryCode":null},{"ID":12500,"Name":"Jisr ash Shughur","Lat":35.8126,"Lon":36.3176,"CountryCode":null},{"ID":43154,"Name":"Jisrayn","Lat":33.5064,"Lon":36.3858,"CountryCode":null},{"ID":22402,"Name":"Kafr Batna","Lat":33.5,"Lon":36.3667,"CountryCode":null},{"ID":35717,"Name":"Kafr Buhum","Lat":35.0611,"Lon":36.6972,"CountryCode":null},{"ID":24609,"Name":"Kafr Laha","Lat":34.8831,"Lon":36.5,"CountryCode":null},{"ID":33153,"Name":"Kafr Nabudah","Lat":35.4317,"Lon":36.4928,"CountryCode":null},{"ID":17545,"Name":"Kafr Nubl","Lat":35.6139,"Lon":36.5611,"CountryCode":null},{"ID":35550,"Name":"Kafr Ruma","Lat":35.6342,"Lon":36.6322,"CountryCode":null},{"ID":44838,"Name":"Kafr Sajnah","Lat":35.5261,"Lon":36.5886,"CountryCode":null},{"ID":41040,"Name":"Kafr Takharim","Lat":36.1164,"Lon":36.5147,"CountryCode":null},{"ID":27881,"Name":"Kafr Zayta","Lat":35.3736,"Lon":36.6017,"CountryCode":null},{"ID":32411,"Name":"Kanakir","Lat":33.2672,"Lon":36.0969,"CountryCode":null},{"ID":10232,"Name":"Khan Shaykhun","Lat":35.4389,"Lon":36.6511,"CountryCode":null},{"ID":38917,"Name":"Khattab","Lat":35.1975,"Lon":36.6672,"CountryCode":null},{"ID":28912,"Name":"Khirbat Ghazalah","Lat":32.7333,"Lon":36.2,"CountryCode":null},{"ID":30681,"Name":"Kuljibrin","Lat":36.5361,"Lon":37.1175,"CountryCode":null},{"ID":1066,"Name":"Latakia","Lat":35.5167,"Lon":35.7833,"CountryCode":null},{"ID":6721,"Name":"Ma`arrat an Nu`man","Lat":35.6386,"Lon":36.6717,"CountryCode":null},{"ID":14476,"Name":"Ma`arratmisrin","Lat":36,"Lon":36.6667,"CountryCode":null},{"ID":40429,"Name":"Ma`raba","Lat":33.5775,"Lon":36.2969,"CountryCode":null},{"ID":43361,"Name":"Madaya","Lat":33.6878,"Lon":36.1008,"CountryCode":null},{"ID":41505,"Name":"Mahajjah","Lat":32.9558,"Lon":36.2214,"CountryCode":null},{"ID":38270,"Name":"Mahin","Lat":34.2425,"Lon":37.0589,"CountryCode":null},{"ID":7582,"Name":"Manbij","Lat":36.5275,"Lon":37.9553,"CountryCode":null},{"ID":27322,"Name":"Manin","Lat":33.6422,"Lon":36.2978,"CountryCode":null},{"ID":28084,"Name":"Mari`","Lat":36.4828,"Lon":37.1964,"CountryCode":null},{"ID":29973,"Name":"Maskanah","Lat":35.9632,"Lon":38.0356,"CountryCode":null},{"ID":14589,"Name":"Masyaf","Lat":35.0653,"Lon":36.3422,"CountryCode":null},{"ID":35354,"Name":"Mi`rabah","Lat":32.5458,"Lon":36.4283,"CountryCode":null},{"ID":41034,"Name":"Mihqan","Lat":34.9744,"Lon":40.4856,"CountryCode":null},{"ID":42993,"Name":"Muh Hasan","Lat":35.2394,"Lon":40.3244,"CountryCode":null},{"ID":27244,"Name":"Muhradah","Lat":35.25,"Lon":36.5833,"CountryCode":null},{"ID":31812,"Name":"Murak","Lat":35.3753,"Lon":36.6872,"CountryCode":null},{"ID":9121,"Name":"Nawa","Lat":32.8889,"Lon":36.0431,"CountryCode":null},{"ID":23655,"Name":"Nubl","Lat":36.3756,"Lon":36.9942,"CountryCode":null},{"ID":4631,"Name":"Qabr as Sitt","Lat":33.4472,"Lon":36.3361,"CountryCode":null},{"ID":15982,"Name":"Qadsayya","Lat":33.5333,"Lon":36.2167,"CountryCode":null},{"ID":34246,"Name":"Qal`at al Madiq","Lat":35.41,"Lon":36.39,"CountryCode":null},{"ID":35053,"Name":"Qarah","Lat":34.1542,"Lon":36.7442,"CountryCode":null},{"ID":22179,"Name":"Qatana","Lat":33.4333,"Lon":36.0833,"CountryCode":null},{"ID":17916,"Name":"Ra's al `Ayn","Lat":36.8503,"Lon":40.0706,"CountryCode":null},{"ID":46260,"Name":"Ra's al Ma`arrah","Lat":34.0008,"Lon":36.5628,"CountryCode":null},{"ID":16514,"Name":"Safita","Lat":34.8167,"Lon":36.1167,"CountryCode":null},{"ID":32336,"Name":"Sahnaya","Lat":33.4242,"Lon":36.2244,"CountryCode":null},{"ID":15374,"Name":"Salkhad","Lat":32.4917,"Lon":36.7111,"CountryCode":null},{"ID":21499,"Name":"Salqin","Lat":36.1333,"Lon":36.45,"CountryCode":null},{"ID":13700,"Name":"Saraqib","Lat":35.8636,"Lon":36.8006,"CountryCode":null},{"ID":30682,"Name":"Sarmada","Lat":36.1833,"Lon":36.7167,"CountryCode":null},{"ID":31434,"Name":"Sarmin","Lat":35.9033,"Lon":36.7258,"CountryCode":null},{"ID":37893,"Name":"Sayda","Lat":32.6283,"Lon":36.2261,"CountryCode":null},{"ID":20374,"Name":"Saydnaya","Lat":33.6967,"Lon":36.3739,"CountryCode":null},{"ID":28295,"Name":"Shahba","Lat":32.8542,"Lon":36.6292,"CountryCode":null},{"ID":34017,"Name":"Shin","Lat":34.7833,"Lon":36.4333,"CountryCode":null},{"ID":20073,"Name":"Siqba","Lat":33.5197,"Lon":36.3844,"CountryCode":null},{"ID":21367,"Name":"Subaykhan","Lat":34.8464,"Lon":40.5939,"CountryCode":null},{"ID":18043,"Name":"Suran","Lat":35.2897,"Lon":36.7433,"CountryCode":null},{"ID":13116,"Name":"Tadif","Lat":36.3481,"Lon":37.5308,"CountryCode":null},{"ID":11006,"Name":"Tadmur","Lat":34.56,"Lon":38.2672,"CountryCode":null},{"ID":16504,"Name":"Tafas","Lat":32.7356,"Lon":36.0669,"CountryCode":null},{"ID":46197,"Name":"Taftanaz","Lat":35.9969,"Lon":36.7867,"CountryCode":null},{"ID":27027,"Name":"Tall `Aran","Lat":36.1231,"Lon":37.3369,"CountryCode":null},{"ID":30981,"Name":"Tall Abyad","Lat":36.6975,"Lon":38.9567,"CountryCode":null},{"ID":35991,"Name":"Tall Dhahab","Lat":34.8581,"Lon":36.4517,"CountryCode":null},{"ID":19126,"Name":"Tall Rif`at","Lat":36.4733,"Lon":37.0972,"CountryCode":null},{"ID":15375,"Name":"Tall Salhab","Lat":35.2609,"Lon":36.3822,"CountryCode":null},{"ID":20531,"Name":"Tall Shihab","Lat":32.6886,"Lon":35.9889,"CountryCode":null},{"ID":12122,"Name":"Tallbisah","Lat":34.8333,"Lon":36.7333,"CountryCode":null},{"ID":15186,"Name":"Tallkalakh","Lat":34.6683,"Lon":36.2597,"CountryCode":null},{"ID":6750,"Name":"Tartus","Lat":34.8833,"Lon":35.8833,"CountryCode":null},{"ID":29311,"Name":"Tasil","Lat":32.8353,"Lon":35.9714,"CountryCode":null},{"ID":21194,"Name":"Tayyibat al Imam","Lat":35.2661,"Lon":36.7114,"CountryCode":null},{"ID":40097,"Name":"Turmanin","Lat":36.2333,"Lon":36.8167,"CountryCode":null},{"ID":11841,"Name":"Yabrud","Lat":33.9667,"Lon":36.6667,"CountryCode":null},{"ID":18421,"Name":"Yalda","Lat":33.4628,"Lon":36.3217,"CountryCode":null},{"ID":26155,"Name":"Zakiyah","Lat":33.3344,"Lon":36.1567,"CountryCode":null},{"ID":12413,"Name":"Zamalka","Lat":33.5253,"Lon":36.3528,"CountryCode":null}]