[{"ID":7739,"Name":"Abeche","Lat":13.8331,"Lon":20.8347,"CountryCode":null},{"ID":34935,"Name":"Adre","Lat":13.4667,"Lon":22.2,"CountryCode":null},{"ID":23844,"Name":"Amdjarass","Lat":16.0658,"Lon":22.8431,"CountryCode":null},{"ID":14214,"Name":"Am-Timan","Lat":11.0333,"Lon":20.2833,"CountryCode":null},{"ID":23990,"Name":"Ati","Lat":13.2133,"Lon":18.3381,"CountryCode":null},{"ID":47666,"Name":"Bardai","Lat":21.3533,"Lon":17.0003,"CountryCode":null},{"ID":35897,"Name":"Benoy","Lat":8.9908,"Lon":16.3169,"CountryCode":null},{"ID":31222,"Name":"Bere","Lat":9.3156,"Lon":16.1597,"CountryCode":null},{"ID":36486,"Name":"Biltine","Lat":14.5275,"Lon":20.9267,"CountryCode":null},{"ID":26216,"Name":"Bitkine","Lat":11.9817,"Lon":18.2125,"CountryCode":null},{"ID":29924,"Name":"Bokoro","Lat":12.3667,"Lon":17.05,"CountryCode":null},{"ID":36790,"Name":"Bol","Lat":13.46,"Lon":14.74,"CountryCode":null},{"ID":18759,"Name":"Bongor","Lat":10.2806,"Lon":15.3722,"CountryCode":null},{"ID":31851,"Name":"Bousso","Lat":10.4825,"Lon":16.7161,"CountryCode":null},{"ID":10527,"Name":"Cheddra","Lat":13.4428,"Lon":16.0508,"CountryCode":null},{"ID":11221,"Name":"Deressia","Lat":9.7603,"Lon":16.2697,"CountryCode":null},{"ID":20077,"Name":"Doba","Lat":8.66,"Lon":16.85,"CountryCode":null},{"ID":27100,"Name":"Dourbali","Lat":11.805,"Lon":15.8647,"CountryCode":null},{"ID":21435,"Name":"Fada","Lat":17.1833,"Lon":21.5833,"CountryCode":null},{"ID":11641,"Name":"Faya","Lat":17.9169,"Lon":19.1167,"CountryCode":null},{"ID":12895,"Name":"Fianga","Lat":9.9153,"Lon":15.1375,"CountryCode":null},{"ID":8823,"Name":"Goz-Beida","Lat":12.2236,"Lon":21.4144,"CountryCode":null},{"ID":28815,"Name":"Guelendeng","Lat":10.9183,"Lon":15.5486,"CountryCode":null},{"ID":15981,"Name":"Iriba","Lat":15.1167,"Lon":22.25,"CountryCode":null},{"ID":12247,"Name":"Kelo","Lat":9.31,"Lon":15.81,"CountryCode":null},{"ID":13717,"Name":"Koumra","Lat":8.91,"Lon":17.55,"CountryCode":null},{"ID":29355,"Name":"Kyabe","Lat":9.4514,"Lon":18.9447,"CountryCode":null},{"ID":31880,"Name":"Lai","Lat":9.4,"Lon":16.3,"CountryCode":null},{"ID":6772,"Name":"Lere","Lat":9.6572,"Lon":14.2283,"CountryCode":null},{"ID":38043,"Name":"Mangalme","Lat":12.3547,"Lon":19.6139,"CountryCode":null},{"ID":25673,"Name":"Mao","Lat":14.1194,"Lon":15.3133,"CountryCode":null},{"ID":25816,"Name":"Massaguet","Lat":12.4742,"Lon":15.4428,"CountryCode":null},{"ID":28916,"Name":"Massakory","Lat":13,"Lon":15.7333,"CountryCode":null},{"ID":46825,"Name":"Massenya","Lat":11.4,"Lon":16.1667,"CountryCode":null},{"ID":32772,"Name":"Mata","Lat":14.0436,"Lon":21.1611,"CountryCode":null},{"ID":18765,"Name":"Mongo","Lat":12.1837,"Lon":18.7,"CountryCode":null},{"ID":4459,"Name":"Moundou","Lat":8.5667,"Lon":16.0833,"CountryCode":null},{"ID":28779,"Name":"Moussoro","Lat":13.6431,"Lon":16.4919,"CountryCode":null},{"ID":704,"Name":"N'Djamena","Lat":12.11,"Lon":15.05,"CountryCode":null},{"ID":19731,"Name":"Oum Hadjer","Lat":13.2944,"Lon":19.6914,"CountryCode":null},{"ID":47665,"Name":"Pala","Lat":9.3646,"Lon":14.9073,"CountryCode":null},{"ID":13989,"Name":"Pala Oua","Lat":9.3625,"Lon":14.9106,"CountryCode":null},{"ID":5725,"Name":"Sarh","Lat":9.15,"Lon":18.3833,"CountryCode":null},{"ID":6624,"Name":"Yao","Lat":12.8508,"Lon":17.5608,"CountryCode":null},{"ID":46524,"Name":"Zouar","Lat":20.45,"Lon":16.5167,"CountryCode":null}]