[{"ID":25897,"Name":"Abdurahmoni Jomi","Lat":37.9458,"Lon":68.8117,"CountryCode":null},{"ID":29563,"Name":"Adrasmon","Lat":40.6486,"Lon":69.9856,"CountryCode":null},{"ID":23481,"Name":"Almasi","Lat":38.6833,"Lon":68.6,"CountryCode":null},{"ID":33371,"Name":"Amondara","Lat":39.5178,"Lon":67.8131,"CountryCode":null},{"ID":30933,"Name":"Ayni","Lat":39.3975,"Lon":68.5406,"CountryCode":null},{"ID":32213,"Name":"Ayni","Lat":38.6667,"Lon":68.8167,"CountryCode":null},{"ID":18479,"Name":"Bakhor","Lat":38.55,"Lon":68.9833,"CountryCode":null},{"ID":13034,"Name":"Bokhtar","Lat":37.8364,"Lon":68.7803,"CountryCode":null},{"ID":29943,"Name":"Buston","Lat":40.5217,"Lon":69.3308,"CountryCode":null},{"ID":45569,"Name":"Buved","Lat":37.5833,"Lon":71.5167,"CountryCode":null},{"ID":40697,"Name":"Chavkandak","Lat":39.9,"Lon":68.9333,"CountryCode":null},{"ID":29293,"Name":"Chilgazi","Lat":40.15,"Lon":70.7333,"CountryCode":null},{"ID":12250,"Name":"Chimteppa","Lat":38.4667,"Lon":68.7333,"CountryCode":null},{"ID":16800,"Name":"Chorbog","Lat":38.6667,"Lon":68.7667,"CountryCode":null},{"ID":28597,"Name":"Chorbogh","Lat":39.8667,"Lon":69.0833,"CountryCode":null},{"ID":14605,"Name":"Chorkuh","Lat":39.9739,"Lon":70.5822,"CountryCode":null},{"ID":26223,"Name":"Chubek","Lat":37.6167,"Lon":69.7,"CountryCode":null},{"ID":17686,"Name":"Dahana","Lat":38.0583,"Lon":69.8667,"CountryCode":null},{"ID":21522,"Name":"Dalyoni Bolo","Lat":39.7422,"Lon":68.9944,"CountryCode":null},{"ID":17030,"Name":"Danghara","Lat":38.0983,"Lon":69.3467,"CountryCode":null},{"ID":25324,"Name":"Dashtigulho","Lat":37.7,"Lon":69.5,"CountryCode":null},{"ID":31017,"Name":"Dehmoi","Lat":40.2167,"Lon":69.5167,"CountryCode":null},{"ID":35432,"Name":"Dehqonobod","Lat":37.6333,"Lon":69.45,"CountryCode":null},{"ID":24595,"Name":"Durbat","Lat":38.5333,"Lon":68.6333,"CountryCode":null},{"ID":893,"Name":"Dushanbe","Lat":38.5367,"Lon":68.78,"CountryCode":null},{"ID":25898,"Name":"Dusti","Lat":37.3486,"Lon":68.6733,"CountryCode":null},{"ID":24577,"Name":"Esanboy","Lat":38.0833,"Lon":68.3833,"CountryCode":null},{"ID":20300,"Name":"Farkhor","Lat":37.5,"Lon":69.4,"CountryCode":null},{"ID":45818,"Name":"Farob","Lat":39.2408,"Lon":67.47,"CountryCode":null},{"ID":40070,"Name":"Fayzobod","Lat":38.55,"Lon":69.3167,"CountryCode":null},{"ID":21413,"Name":"Firuzoba","Lat":40.3,"Lon":70.4,"CountryCode":null},{"ID":26989,"Name":"Gazantarak","Lat":39.9667,"Lon":69.1333,"CountryCode":null},{"ID":24082,"Name":"Ghafurov","Lat":40.22,"Lon":69.73,"CountryCode":null},{"ID":27974,"Name":"Ghonchi","Lat":39.9589,"Lon":69.1369,"CountryCode":null},{"ID":11202,"Name":"Ghulakandoz","Lat":40.1617,"Lon":69.4678,"CountryCode":null},{"ID":35252,"Name":"Gulshan","Lat":37.5833,"Lon":69.4333,"CountryCode":null},{"ID":18044,"Name":"Hisor","Lat":38.5264,"Lon":68.5381,"CountryCode":null},{"ID":20881,"Name":"Hulbuk","Lat":37.805,"Lon":69.6464,"CountryCode":null},{"ID":10948,"Name":"Isfara","Lat":40.1167,"Lon":70.6333,"CountryCode":null},{"ID":13807,"Name":"Isfisor","Lat":40.2433,"Lon":69.7447,"CountryCode":null},{"ID":8883,"Name":"Istaravshan","Lat":39.9108,"Lon":69.0064,"CountryCode":null},{"ID":20247,"Name":"Jilikul","Lat":37.4928,"Lon":68.5286,"CountryCode":null},{"ID":35961,"Name":"Kalaidasht","Lat":38.6333,"Lon":69.5,"CountryCode":null},{"ID":40032,"Name":"Kalanak","Lat":39.0833,"Lon":70.5,"CountryCode":null},{"ID":35784,"Name":"Khonobod","Lat":40.2,"Lon":70.6,"CountryCode":null},{"ID":17031,"Name":"Khorugh","Lat":37.4833,"Lon":71.55,"CountryCode":null},{"ID":39513,"Name":"Khovaling","Lat":38.3386,"Lon":69.9728,"CountryCode":null},{"ID":973,"Name":"Khujand","Lat":40.2833,"Lon":69.6333,"CountryCode":null},{"ID":39927,"Name":"Khurmi","Lat":39.5167,"Lon":67.5833,"CountryCode":null},{"ID":3043,"Name":"Konibodom","Lat":40.2833,"Lon":70.4167,"CountryCode":null},{"ID":25709,"Name":"Kosatarosh","Lat":39.4,"Lon":67.75,"CountryCode":null},{"ID":22261,"Name":"Kulkent","Lat":40.15,"Lon":70.7,"CountryCode":null},{"ID":5806,"Name":"Kulob","Lat":37.9092,"Lon":69.7819,"CountryCode":null},{"ID":42499,"Name":"Langar","Lat":39.45,"Lon":69.55,"CountryCode":null},{"ID":11606,"Name":"Levakant","Lat":37.8667,"Lon":68.9167,"CountryCode":null},{"ID":24603,"Name":"Lohur","Lat":38.3833,"Lon":68.7,"CountryCode":null},{"ID":23137,"Name":"Lohuti","Lat":40.25,"Lon":70.1333,"CountryCode":null},{"ID":28701,"Name":"Mastchoh","Lat":40.3667,"Lon":69.3333,"CountryCode":null},{"ID":22987,"Name":"Mehnatobod","Lat":37.7167,"Lon":69.55,"CountryCode":null},{"ID":35274,"Name":"Mehnatobod","Lat":40.2,"Lon":68.95,"CountryCode":null},{"ID":25121,"Name":"Mogiyon","Lat":39.25,"Lon":67.65,"CountryCode":null},{"ID":21783,"Name":"Moskva","Lat":37.6567,"Lon":69.6292,"CountryCode":null},{"ID":18733,"Name":"Muchun","Lat":39.8833,"Lon":69.1833,"CountryCode":null},{"ID":27512,"Name":"Mujikharf","Lat":38.85,"Lon":69.8833,"CountryCode":null},{"ID":32139,"Name":"Mu'minobod","Lat":38.1083,"Lon":70.0292,"CountryCode":null},{"ID":23439,"Name":"Naryn","Lat":38.2,"Lon":68.9,"CountryCode":null},{"ID":19611,"Name":"Navabad","Lat":38.5667,"Lon":68.5167,"CountryCode":null},{"ID":40696,"Name":"Navabad","Lat":38.5278,"Lon":68.675,"CountryCode":null},{"ID":14259,"Name":"Navgilem","Lat":40.1333,"Lon":70.65,"CountryCode":null},{"ID":26442,"Name":"Navraftor","Lat":37.7333,"Lon":68.7667,"CountryCode":null},{"ID":40221,"Name":"Nijoni","Lat":39.9667,"Lon":68.9167,"CountryCode":null},{"ID":16877,"Name":"Norak","Lat":38.3833,"Lon":69.3167,"CountryCode":null},{"ID":14590,"Name":"Obburdon","Lat":40.4278,"Lon":69.3047,"CountryCode":null},{"ID":35489,"Name":"Obikiik","Lat":38.1586,"Lon":68.6722,"CountryCode":null},{"ID":23484,"Name":"Oshoba","Lat":40.7347,"Lon":70.4417,"CountryCode":null},{"ID":42413,"Name":"Pakhtaobod","Lat":38.4667,"Lon":68.1333,"CountryCode":null},{"ID":23865,"Name":"Paldorak","Lat":40.4833,"Lon":69.3,"CountryCode":null},{"ID":35071,"Name":"Panj","Lat":37.2353,"Lon":69.0972,"CountryCode":null},{"ID":10802,"Name":"Panjakent","Lat":39.5,"Lon":67.6167,"CountryCode":null},{"ID":26916,"Name":"Patar","Lat":40.3333,"Lon":70.45,"CountryCode":null},{"ID":18436,"Name":"Pongoz","Lat":40.75,"Lon":70.25,"CountryCode":null},{"ID":24941,"Name":"Poshkent","Lat":39.8833,"Lon":69.0333,"CountryCode":null},{"ID":33526,"Name":"Pushing","Lat":38.1833,"Lon":69.4333,"CountryCode":null},{"ID":23195,"Name":"Qal'acha","Lat":40.1333,"Lon":69.6833,"CountryCode":null},{"ID":14301,"Name":"Qaratog","Lat":38.55,"Lon":68.2833,"CountryCode":null},{"ID":32558,"Name":"Qiblai","Lat":38.6167,"Lon":68.8333,"CountryCode":null},{"ID":33965,"Name":"Rabot","Lat":38.6167,"Lon":68.1833,"CountryCode":null},{"ID":44621,"Name":"Rarz","Lat":39.3803,"Lon":68.7442,"CountryCode":null},{"ID":42082,"Name":"Rasht","Lat":39.0167,"Lon":70.3833,"CountryCode":null},{"ID":12553,"Name":"Roghun","Lat":38.6978,"Lon":69.7522,"CountryCode":null},{"ID":16545,"Name":"Rokhaty","Lat":38.6,"Lon":68.9333,"CountryCode":null},{"ID":30031,"Name":"Romit","Lat":38.7167,"Lon":69.3167,"CountryCode":null},{"ID":34697,"Name":"Sangtuda","Lat":38.0333,"Lon":69.0833,"CountryCode":null},{"ID":14144,"Name":"Sarikishty","Lat":38.4667,"Lon":68.7,"CountryCode":null},{"ID":34612,"Name":"Sebiston","Lat":38.25,"Lon":69.2833,"CountryCode":null},{"ID":30350,"Name":"Seshambe","Lat":38.5333,"Lon":68.25,"CountryCode":null},{"ID":38126,"Name":"Shahrinav","Lat":38.5667,"Lon":68.3333,"CountryCode":null},{"ID":28836,"Name":"Shahriston","Lat":39.7667,"Lon":68.8167,"CountryCode":null},{"ID":27704,"Name":"Shahritus","Lat":37.2667,"Lon":68.1333,"CountryCode":null},{"ID":38812,"Name":"Shing","Lat":39.2833,"Lon":67.8,"CountryCode":null},{"ID":39258,"Name":"Shurobod","Lat":37.8403,"Lon":70.0419,"CountryCode":null},{"ID":15172,"Name":"Simiganj","Lat":38.6525,"Lon":69.0064,"CountryCode":null},{"ID":20368,"Name":"Somoniyon","Lat":38.4422,"Lon":68.7769,"CountryCode":null},{"ID":28527,"Name":"Sujina","Lat":39.4833,"Lon":67.7167,"CountryCode":null},{"ID":29166,"Name":"Sultonobod","Lat":38.45,"Lon":68.95,"CountryCode":null},{"ID":10260,"Name":"Tursunzoda","Lat":38.5108,"Lon":68.2303,"CountryCode":null},{"ID":12747,"Name":"Vahdat","Lat":38.5531,"Lon":69.0206,"CountryCode":null},{"ID":30876,"Name":"Vakhsh","Lat":37.7108,"Lon":68.8311,"CountryCode":null},{"ID":37885,"Name":"Vanj","Lat":38.3731,"Lon":71.4553,"CountryCode":null},{"ID":37392,"Name":"Varzobkala","Lat":38.7667,"Lon":68.8167,"CountryCode":null},{"ID":14740,"Name":"Yovon","Lat":38.3167,"Lon":69.05,"CountryCode":null},{"ID":11422,"Name":"Zargar","Lat":37.8,"Lon":68.65,"CountryCode":null}]