[{"ID":5856,"Name":"Alchevsk","Lat":48.4778,"Lon":38.7978,"CountryCode":null},{"ID":17758,"Name":"Alushta","Lat":44.6672,"Lon":34.3978,"CountryCode":null},{"ID":26315,"Name":"Amvrosiivka","Lat":47.7833,"Lon":38.4833,"CountryCode":null},{"ID":34457,"Name":"Antonivka","Lat":46.6808,"Lon":32.7358,"CountryCode":null},{"ID":10831,"Name":"Antratsyt","Lat":48.1192,"Lon":39.09,"CountryCode":null},{"ID":33936,"Name":"Apostolove","Lat":47.6594,"Lon":33.7167,"CountryCode":null},{"ID":20946,"Name":"Armiansk","Lat":46.1074,"Lon":33.6919,"CountryCode":null},{"ID":31731,"Name":"Artsyz","Lat":45.9944,"Lon":29.4322,"CountryCode":null},{"ID":19282,"Name":"Bakhchysarai","Lat":44.7528,"Lon":33.8608,"CountryCode":null},{"ID":26275,"Name":"Bakhmach","Lat":51.1831,"Lon":32.8297,"CountryCode":null},{"ID":8263,"Name":"Bakhmut","Lat":48.5947,"Lon":38.0008,"CountryCode":null},{"ID":18177,"Name":"Balakliia","Lat":49.4658,"Lon":36.8678,"CountryCode":null},{"ID":25297,"Name":"Balta","Lat":47.94,"Lon":29.6219,"CountryCode":null},{"ID":30160,"Name":"Bar","Lat":49.075,"Lon":27.6761,"CountryCode":null},{"ID":36656,"Name":"Baranivka","Lat":50.3,"Lon":27.6667,"CountryCode":null},{"ID":45786,"Name":"Barvynkove","Lat":48.9,"Lon":37.0167,"CountryCode":null},{"ID":37983,"Name":"Baryshivka","Lat":50.3539,"Lon":31.3167,"CountryCode":null},{"ID":35738,"Name":"Bashtanka","Lat":47.4056,"Lon":32.4375,"CountryCode":null},{"ID":1192,"Name":"Bazal'tove","Lat":50.6765,"Lon":26.16,"CountryCode":null},{"ID":5804,"Name":"Berdiansk","Lat":46.7556,"Lon":36.7889,"CountryCode":null},{"ID":8064,"Name":"Berdychiv","Lat":49.9,"Lon":28.5667,"CountryCode":null},{"ID":21763,"Name":"Berehove","Lat":48.2056,"Lon":22.6472,"CountryCode":null},{"ID":28568,"Name":"Berezan","Lat":50.3197,"Lon":31.47,"CountryCode":null},{"ID":27780,"Name":"Berezhany","Lat":49.4458,"Lon":24.9361,"CountryCode":null},{"ID":41939,"Name":"Berezivka","Lat":47.2039,"Lon":30.9128,"CountryCode":null},{"ID":33543,"Name":"Berezne","Lat":50.9967,"Lon":26.7394,"CountryCode":null},{"ID":35685,"Name":"Bershad","Lat":48.3728,"Lon":29.5325,"CountryCode":null},{"ID":43167,"Name":"Bezliudivka","Lat":49.8692,"Lon":36.2697,"CountryCode":null},{"ID":3172,"Name":"Bila Tserkva","Lat":49.7989,"Lon":30.1153,"CountryCode":null},{"ID":44106,"Name":"Bilenke","Lat":48.7664,"Lon":37.6314,"CountryCode":null},{"ID":10021,"Name":"Bilhorod-Dnistrovskyi","Lat":46.1833,"Lon":30.35,"CountryCode":null},{"ID":35369,"Name":"Biliaivka","Lat":46.4828,"Lon":30.2014,"CountryCode":null},{"ID":28664,"Name":"Bilohirsk","Lat":45.0544,"Lon":34.6022,"CountryCode":null},{"ID":23390,"Name":"Bilohorodka","Lat":50.3942,"Lon":30.2314,"CountryCode":null},{"ID":36707,"Name":"Bilopillya","Lat":51.1458,"Lon":34.3117,"CountryCode":null},{"ID":36128,"Name":"Bilovodsk","Lat":49.2,"Lon":39.5756,"CountryCode":null},{"ID":42780,"Name":"Bilozerka","Lat":46.6278,"Lon":32.4431,"CountryCode":null},{"ID":31265,"Name":"Bilozerske","Lat":48.8667,"Lon":37.1333,"CountryCode":null},{"ID":46317,"Name":"Biloziria","Lat":49.3053,"Lon":31.8922,"CountryCode":null},{"ID":38750,"Name":"Bobrovytsia","Lat":50.745,"Lon":31.3869,"CountryCode":null},{"ID":38740,"Name":"Bobrynets","Lat":48.0578,"Lon":32.1581,"CountryCode":null},{"ID":30899,"Name":"Bohodukhiv","Lat":50.1617,"Lon":35.5256,"CountryCode":null},{"ID":39868,"Name":"Bolekhiv","Lat":49.0669,"Lon":23.8514,"CountryCode":null},{"ID":27474,"Name":"Bolhrad","Lat":45.6672,"Lon":28.6128,"CountryCode":null},{"ID":33650,"Name":"Borodyanka","Lat":50.6439,"Lon":29.9339,"CountryCode":null},{"ID":38979,"Name":"Borshchiv","Lat":48.8028,"Lon":26.0364,"CountryCode":null},{"ID":14596,"Name":"Boryslav","Lat":49.2892,"Lon":23.4189,"CountryCode":null},{"ID":9291,"Name":"Boryspil","Lat":50.35,"Lon":30.95,"CountryCode":null},{"ID":40679,"Name":"Borzna","Lat":51.2531,"Lon":32.4292,"CountryCode":null},{"ID":15202,"Name":"Boyarka","Lat":50.3292,"Lon":30.2886,"CountryCode":null},{"ID":12326,"Name":"Brianka","Lat":48.5133,"Lon":38.6431,"CountryCode":null},{"ID":21675,"Name":"Brody","Lat":50.0831,"Lon":25.1477,"CountryCode":null},{"ID":5652,"Name":"Brovary","Lat":50.5111,"Lon":30.79,"CountryCode":null},{"ID":14642,"Name":"Bucha","Lat":50.5486,"Lon":30.2208,"CountryCode":null},{"ID":35049,"Name":"Buchach","Lat":49.0833,"Lon":25.4,"CountryCode":null},{"ID":32954,"Name":"Bunhe","Lat":48.2206,"Lon":38.2739,"CountryCode":null},{"ID":30563,"Name":"Burshtyn","Lat":49.2583,"Lon":24.6278,"CountryCode":null},{"ID":46118,"Name":"Bushtyno","Lat":48.0536,"Lon":23.4767,"CountryCode":null},{"ID":42874,"Name":"Chaplynka","Lat":46.3644,"Lon":33.5331,"CountryCode":null},{"ID":35594,"Name":"Chasiv Yar","Lat":48.5884,"Lon":37.8359,"CountryCode":null},{"ID":2513,"Name":"Cherkasy","Lat":49.4444,"Lon":32.0597,"CountryCode":null},{"ID":43056,"Name":"Cherniakhiv","Lat":50.455,"Lon":28.6653,"CountryCode":null},{"ID":2395,"Name":"Chernihiv","Lat":51.4939,"Lon":31.2947,"CountryCode":null},{"ID":2547,"Name":"Chernivtsi","Lat":48.3,"Lon":25.9333,"CountryCode":null},{"ID":9046,"Name":"Chervonohrad","Lat":50.3867,"Lon":24.2289,"CountryCode":null},{"ID":30311,"Name":"Chervonopartyzansk","Lat":48.0833,"Lon":39.7833,"CountryCode":null},{"ID":45896,"Name":"Chop","Lat":48.4333,"Lon":22.2,"CountryCode":null},{"ID":29318,"Name":"Chornobaivka","Lat":46.7006,"Lon":32.5478,"CountryCode":null},{"ID":9901,"Name":"Chornomorsk","Lat":46.3017,"Lon":30.6569,"CountryCode":null},{"ID":38342,"Name":"Chornomorske","Lat":45.5019,"Lon":32.7025,"CountryCode":null},{"ID":18070,"Name":"Chortkiv","Lat":49.0075,"Lon":25.7906,"CountryCode":null},{"ID":16156,"Name":"Chuhuiv","Lat":49.8356,"Lon":36.6864,"CountryCode":null},{"ID":45788,"Name":"Chyhyryn","Lat":49.0772,"Lon":32.6492,"CountryCode":null},{"ID":10296,"Name":"Chystiakove","Lat":48.0219,"Lon":38.6264,"CountryCode":null},{"ID":46165,"Name":"Dachne","Lat":46.5775,"Lon":30.5489,"CountryCode":null},{"ID":21116,"Name":"Debaltseve","Lat":48.3333,"Lon":38.4,"CountryCode":null},{"ID":42166,"Name":"Derazhnia","Lat":49.2667,"Lon":27.4333,"CountryCode":null},{"ID":27434,"Name":"Derhachi","Lat":50.1114,"Lon":36.1219,"CountryCode":null},{"ID":792,"Name":"Dnipro","Lat":48.4675,"Lon":35.04,"CountryCode":null},{"ID":27058,"Name":"Dniprorudne","Lat":47.3863,"Lon":34.997,"CountryCode":null},{"ID":18537,"Name":"Dobropillia","Lat":48.4689,"Lon":37.0828,"CountryCode":null},{"ID":22110,"Name":"Dokuchaievsk","Lat":47.7519,"Lon":37.6783,"CountryCode":null},{"ID":23994,"Name":"Dolyna","Lat":48.9706,"Lon":24.0111,"CountryCode":null},{"ID":25364,"Name":"Dolynska","Lat":48.1111,"Lon":32.7647,"CountryCode":null},{"ID":853,"Name":"Donetsk","Lat":48.0028,"Lon":37.8053,"CountryCode":null},{"ID":6414,"Name":"Dovzhansk","Lat":48.0778,"Lon":39.6472,"CountryCode":null},{"ID":7915,"Name":"Drohobych","Lat":49.35,"Lon":23.5,"CountryCode":null},{"ID":9699,"Name":"Druzhkivka","Lat":48.6214,"Lon":37.5278,"CountryCode":null},{"ID":42238,"Name":"Dubliany","Lat":49.8961,"Lon":24.0925,"CountryCode":null},{"ID":14454,"Name":"Dubno","Lat":50.3931,"Lon":25.735,"CountryCode":null},{"ID":41663,"Name":"Dubove","Lat":48.1861,"Lon":23.8839,"CountryCode":null},{"ID":43197,"Name":"Dubrovytsya","Lat":51.5667,"Lon":26.5667,"CountryCode":null},{"ID":29402,"Name":"Dunaivtsi","Lat":48.8894,"Lon":26.8569,"CountryCode":null},{"ID":43345,"Name":"Dymka","Lat":48.0972,"Lon":25.9753,"CountryCode":null},{"ID":14071,"Name":"Dzhankoi","Lat":45.7086,"Lon":34.3933,"CountryCode":null},{"ID":10845,"Name":"Enerhodar","Lat":47.4989,"Lon":34.6558,"CountryCode":null},{"ID":12107,"Name":"Fastiv","Lat":50.0833,"Lon":29.9167,"CountryCode":null},{"ID":8495,"Name":"Fedosiia","Lat":45.0342,"Lon":35.3792,"CountryCode":null},{"ID":22161,"Name":"Hadyach","Lat":50.3667,"Lon":34,"CountryCode":null},{"ID":20045,"Name":"Haisyn","Lat":48.8103,"Lon":29.3842,"CountryCode":null},{"ID":32277,"Name":"Haivoron","Lat":48.3333,"Lon":29.8667,"CountryCode":null},{"ID":40360,"Name":"Haspra","Lat":44.4361,"Lon":34.1106,"CountryCode":null},{"ID":25398,"Name":"Henichesk","Lat":46.1667,"Lon":34.8,"CountryCode":null},{"ID":37518,"Name":"Hirnyk","Lat":48.05,"Lon":37.3667,"CountryCode":null},{"ID":44232,"Name":"Hirske","Lat":48.7519,"Lon":38.495,"CountryCode":null},{"ID":45122,"Name":"Hlevakha","Lat":50.2622,"Lon":30.2894,"CountryCode":null},{"ID":44759,"Name":"Hlobyne","Lat":49.3903,"Lon":33.2503,"CountryCode":null},{"ID":16022,"Name":"Hlukhiv","Lat":51.6747,"Lon":33.9133,"CountryCode":null},{"ID":43820,"Name":"Hlyboka","Lat":48.0833,"Lon":25.9333,"CountryCode":null},{"ID":35723,"Name":"Hnivan","Lat":49.0911,"Lon":28.3486,"CountryCode":null},{"ID":33110,"Name":"Hola Prystan","Lat":46.5167,"Lon":32.5167,"CountryCode":null},{"ID":14831,"Name":"Holubivske","Lat":48.6333,"Lon":38.65,"CountryCode":null},{"ID":10860,"Name":"Horishni Plavni","Lat":49.0167,"Lon":33.6667,"CountryCode":null},{"ID":2620,"Name":"Horlivka","Lat":48.3,"Lon":38.05,"CountryCode":null},{"ID":44182,"Name":"Horodenka","Lat":48.6675,"Lon":25.5003,"CountryCode":null},{"ID":36455,"Name":"Horodnia","Lat":51.8931,"Lon":31.5947,"CountryCode":null},{"ID":29128,"Name":"Horodok","Lat":49.7833,"Lon":23.6444,"CountryCode":null},{"ID":28559,"Name":"Horodok","Lat":49.1667,"Lon":26.5667,"CountryCode":null},{"ID":32671,"Name":"Horodyshche","Lat":49.2925,"Lon":31.4581,"CountryCode":null},{"ID":44861,"Name":"Horokhiv","Lat":50.4994,"Lon":24.765,"CountryCode":null},{"ID":28980,"Name":"Hostomel","Lat":50.5692,"Lon":30.2653,"CountryCode":null},{"ID":39407,"Name":"Hrebinka","Lat":50.1167,"Lon":32.4167,"CountryCode":null},{"ID":34511,"Name":"Hulyaypole","Lat":47.65,"Lon":36.2667,"CountryCode":null},{"ID":44167,"Name":"Hurzuf","Lat":44.5528,"Lon":34.2875,"CountryCode":null},{"ID":34655,"Name":"Hvardiiske","Lat":45.1,"Lon":34,"CountryCode":null},{"ID":39233,"Name":"Ichnia","Lat":50.85,"Lon":32.4,"CountryCode":null},{"ID":45107,"Name":"Ilarionove","Lat":48.4092,"Lon":35.2753,"CountryCode":null},{"ID":38188,"Name":"Illintsi","Lat":49.1056,"Lon":29.2089,"CountryCode":null},{"ID":30023,"Name":"Ilovaisk","Lat":47.926,"Lon":38.194,"CountryCode":null},{"ID":40707,"Name":"Inkerman","Lat":44.6,"Lon":33.6,"CountryCode":null},{"ID":10093,"Name":"Irpin","Lat":50.5167,"Lon":30.25,"CountryCode":null},{"ID":44023,"Name":"Irshava","Lat":48.3,"Lon":23.05,"CountryCode":null},{"ID":39962,"Name":"Ivankiv","Lat":50.9328,"Lon":29.9047,"CountryCode":null},{"ID":2810,"Name":"Ivano-Frankivsk","Lat":48.9228,"Lon":24.7106,"CountryCode":null},{"ID":28087,"Name":"Iziaslav","Lat":50.1167,"Lon":26.8,"CountryCode":null},{"ID":42653,"Name":"Izium","Lat":49.2128,"Lon":37.2569,"CountryCode":null},{"ID":8302,"Name":"Izmail","Lat":45.3517,"Lon":28.8364,"CountryCode":null},{"ID":33111,"Name":"Kaharlyk","Lat":49.8522,"Lon":30.8092,"CountryCode":null},{"ID":15014,"Name":"Kakhovka","Lat":46.7978,"Lon":33.475,"CountryCode":null},{"ID":43827,"Name":"Kalanchak","Lat":46.2522,"Lon":33.2906,"CountryCode":null},{"ID":36994,"Name":"Kalmiuske","Lat":47.6667,"Lon":38.0667,"CountryCode":null},{"ID":34352,"Name":"Kalush","Lat":49.0442,"Lon":24.3597,"CountryCode":null},{"ID":26222,"Name":"Kalynivka","Lat":49.4472,"Lon":28.5231,"CountryCode":null},{"ID":6121,"Name":"Kamianets-Podilskyi","Lat":48.6833,"Lon":26.5833,"CountryCode":null},{"ID":36710,"Name":"Kamianka","Lat":49.0333,"Lon":32.1,"CountryCode":null},{"ID":40084,"Name":"Kamianka-Buzka","Lat":50.1,"Lon":24.35,"CountryCode":null},{"ID":35855,"Name":"Kamianka-Dniprovska","Lat":47.4628,"Lon":34.4061,"CountryCode":null},{"ID":2943,"Name":"Kamianske","Lat":48.5167,"Lon":34.6167,"CountryCode":null},{"ID":35123,"Name":"Kamin-Kashyrskyi","Lat":51.62,"Lon":24.9653,"CountryCode":null},{"ID":21629,"Name":"Kaniv","Lat":49.75,"Lon":31.4667,"CountryCode":null},{"ID":32224,"Name":"Karlivka","Lat":49.45,"Lon":35.1333,"CountryCode":null},{"ID":4271,"Name":"Kerch","Lat":45.3619,"Lon":36.4711,"CountryCode":null},{"ID":548,"Name":"Kharkiv","Lat":49.9925,"Lon":36.2311,"CountryCode":null},{"ID":9647,"Name":"Khartsyzk","Lat":48.0428,"Lon":38.1425,"CountryCode":null},{"ID":2447,"Name":"Kherson","Lat":46.6425,"Lon":32.625,"CountryCode":null},{"ID":2477,"Name":"Khmelnytskyi","Lat":49.4167,"Lon":27,"CountryCode":null},{"ID":19253,"Name":"Khmilnyk","Lat":49.5569,"Lon":27.9572,"CountryCode":null},{"ID":34639,"Name":"Khorol","Lat":49.7667,"Lon":33.2667,"CountryCode":null},{"ID":43689,"Name":"Khotyn","Lat":48.5069,"Lon":26.4903,"CountryCode":null},{"ID":18553,"Name":"Khrestivka","Lat":48.1464,"Lon":38.3606,"CountryCode":null},{"ID":5039,"Name":"Khrustalnyi","Lat":48.1214,"Lon":38.9453,"CountryCode":null},{"ID":39082,"Name":"Khrystynivka","Lat":48.8,"Lon":29.9667,"CountryCode":null},{"ID":18616,"Name":"Khust","Lat":48.1814,"Lon":23.2978,"CountryCode":null},{"ID":25951,"Name":"Kiliia","Lat":45.45,"Lon":29.2667,"CountryCode":null},{"ID":19405,"Name":"Kirovsk","Lat":48.6375,"Lon":38.6428,"CountryCode":null},{"ID":32673,"Name":"Kivertsi","Lat":50.8331,"Lon":25.4614,"CountryCode":null},{"ID":26214,"Name":"Kivsharivka","Lat":49.6289,"Lon":37.6831,"CountryCode":null},{"ID":41952,"Name":"Kobeliaky","Lat":49.1333,"Lon":34.2,"CountryCode":null},{"ID":9434,"Name":"Kolomyia","Lat":48.5306,"Lon":25.0403,"CountryCode":null},{"ID":7084,"Name":"Konotop","Lat":51.2167,"Lon":33.2,"CountryCode":null},{"ID":35690,"Name":"Koriukivka","Lat":51.7833,"Lon":32.25,"CountryCode":null},{"ID":40792,"Name":"Korolevo","Lat":48.15,"Lon":23.1333,"CountryCode":null},{"ID":9407,"Name":"Korosten","Lat":50.95,"Lon":28.6333,"CountryCode":null},{"ID":21176,"Name":"Korostyshiv","Lat":50.3167,"Lon":29.0667,"CountryCode":null},{"ID":26325,"Name":"Korsun-Shevchenkivskyi","Lat":49.4833,"Lon":31.2833,"CountryCode":null},{"ID":46254,"Name":"Kosiv","Lat":48.315,"Lon":25.0953,"CountryCode":null},{"ID":8079,"Name":"Kostiantynivka","Lat":48.5333,"Lon":37.7167,"CountryCode":null},{"ID":16853,"Name":"Kostopil","Lat":50.8833,"Lon":26.45,"CountryCode":null},{"ID":8665,"Name":"Kovel","Lat":51.2167,"Lon":24.7167,"CountryCode":null},{"ID":22622,"Name":"Koziatyn","Lat":49.7167,"Lon":28.8333,"CountryCode":null},{"ID":44656,"Name":"Kozova","Lat":49.4319,"Lon":25.1594,"CountryCode":null},{"ID":4343,"Name":"Kramatorsk","Lat":48.7392,"Lon":37.5839,"CountryCode":null},{"ID":12643,"Name":"Krasnodon","Lat":48.3,"Lon":39.7333,"CountryCode":null},{"ID":30849,"Name":"Krasnohorivka","Lat":48.0067,"Lon":37.5128,"CountryCode":null},{"ID":24639,"Name":"Krasnohrad","Lat":49.3667,"Lon":35.45,"CountryCode":null},{"ID":40218,"Name":"Krasnoilsk","Lat":48.0147,"Lon":25.5872,"CountryCode":null},{"ID":7462,"Name":"Krasnyi Luch","Lat":48.1333,"Lon":38.9333,"CountryCode":null},{"ID":26370,"Name":"Krasyliv","Lat":49.6519,"Lon":26.9706,"CountryCode":null},{"ID":3032,"Name":"Kremenchuk","Lat":49.0631,"Lon":33.4039,"CountryCode":null},{"ID":24010,"Name":"Kremenets","Lat":50.1081,"Lon":25.7275,"CountryCode":null},{"ID":26304,"Name":"Kreminna","Lat":49.05,"Lon":38.2167,"CountryCode":null},{"ID":22735,"Name":"Krolevets","Lat":51.55,"Lon":33.3833,"CountryCode":null},{"ID":2938,"Name":"Kropyvnytskyi","Lat":48.5,"Lon":32.2667,"CountryCode":null},{"ID":1243,"Name":"Kryvyi Rih","Lat":47.91,"Lon":33.39,"CountryCode":null},{"ID":45328,"Name":"Kryzhopil","Lat":48.3842,"Lon":28.8625,"CountryCode":null},{"ID":19083,"Name":"Kupiansk","Lat":49.7167,"Lon":37.5833,"CountryCode":null},{"ID":26509,"Name":"Kurakhove","Lat":47.9833,"Lon":37.2667,"CountryCode":null},{"ID":38096,"Name":"Kurman","Lat":45.4947,"Lon":34.2947,"CountryCode":null},{"ID":265,"Name":"Kyiv","Lat":50.45,"Lon":30.5233,"CountryCode":null},{"ID":22458,"Name":"Ladyzhyn","Lat":48.6667,"Lon":29.25,"CountryCode":null},{"ID":21091,"Name":"Lebedyn","Lat":50.5831,"Lon":34.4822,"CountryCode":null},{"ID":40268,"Name":"Letychiv","Lat":49.3833,"Lon":27.6167,"CountryCode":null},{"ID":37236,"Name":"Liubashivka","Lat":47.8358,"Lon":30.2642,"CountryCode":null},{"ID":23810,"Name":"Liubotyn","Lat":49.9483,"Lon":35.9294,"CountryCode":null},{"ID":46061,"Name":"Liubymivka","Lat":48.0397,"Lon":39.44,"CountryCode":null},{"ID":37278,"Name":"Lokhvytsya","Lat":50.3598,"Lon":33.2723,"CountryCode":null},{"ID":10535,"Name":"Lozova","Lat":48.8833,"Lon":36.3833,"CountryCode":null},{"ID":12140,"Name":"Lubny","Lat":50.0167,"Lon":33,"CountryCode":null},{"ID":1724,"Name":"Luhansk","Lat":48.5678,"Lon":39.3031,"CountryCode":null},{"ID":3080,"Name":"Lutsk","Lat":50.75,"Lon":25.3358,"CountryCode":null},{"ID":1041,"Name":"Lviv","Lat":49.8425,"Lon":24.0322,"CountryCode":null},{"ID":22544,"Name":"Lyman","Lat":48.9853,"Lon":37.8111,"CountryCode":null},{"ID":39536,"Name":"Lymanka","Lat":46.3883,"Lon":30.6808,"CountryCode":null},{"ID":6355,"Name":"Lysychansk","Lat":48.9167,"Lon":38.4,"CountryCode":null},{"ID":40411,"Name":"Lyuboml'","Lat":51.2236,"Lon":24.0328,"CountryCode":null},{"ID":41969,"Name":"Makariv","Lat":50.4597,"Lon":29.8147,"CountryCode":null},{"ID":2046,"Name":"Makiivka","Lat":48.0556,"Lon":37.9611,"CountryCode":null},{"ID":36975,"Name":"Mala Vyska","Lat":48.65,"Lon":31.6333,"CountryCode":null},{"ID":20394,"Name":"Malyn","Lat":50.7689,"Lon":29.27,"CountryCode":null},{"ID":38937,"Name":"Manevychi","Lat":51.2914,"Lon":25.5331,"CountryCode":null},{"ID":12327,"Name":"Marhanets","Lat":47.6447,"Lon":34.6042,"CountryCode":null},{"ID":44277,"Name":"Marinka","Lat":47.9419,"Lon":37.5036,"CountryCode":null},{"ID":1625,"Name":"Mariupol","Lat":47.0958,"Lon":37.5494,"CountryCode":null},{"ID":46086,"Name":"Masandra","Lat":44.5167,"Lon":34.1833,"CountryCode":null},{"ID":4290,"Name":"Melitopol","Lat":46.8489,"Lon":35.3675,"CountryCode":null},{"ID":38652,"Name":"Mena","Lat":51.5167,"Lon":32.2167,"CountryCode":null},{"ID":23338,"Name":"Merefa","Lat":49.8167,"Lon":36.05,"CountryCode":null},{"ID":42771,"Name":"Mizhhiria","Lat":48.5286,"Lon":23.5019,"CountryCode":null},{"ID":17614,"Name":"Mohyliv-Podilskyi","Lat":48.45,"Lon":27.7833,"CountryCode":null},{"ID":22087,"Name":"Molodohvardiisk","Lat":48.3444,"Lon":39.6583,"CountryCode":null},{"ID":44860,"Name":"Monastyryshche","Lat":48.99,"Lon":29.8011,"CountryCode":null},{"ID":7024,"Name":"Mukacheve","Lat":48.45,"Lon":22.75,"CountryCode":null},{"ID":36268,"Name":"Mykhailivka","Lat":47.2694,"Lon":35.2222,"CountryCode":null},{"ID":1561,"Name":"Mykolaiv","Lat":46.975,"Lon":31.995,"CountryCode":null},{"ID":30853,"Name":"Mykolaiv","Lat":49.5247,"Lon":23.9789,"CountryCode":null},{"ID":31974,"Name":"Mykolaivka","Lat":48.8521,"Lon":37.774,"CountryCode":null},{"ID":13607,"Name":"Myrhorod","Lat":49.9667,"Lon":33.6,"CountryCode":null},{"ID":36475,"Name":"Myrne","Lat":47.4322,"Lon":37.7297,"CountryCode":null},{"ID":11183,"Name":"Myrnohrad","Lat":48.2911,"Lon":37.2681,"CountryCode":null},{"ID":37293,"Name":"Myronivka","Lat":49.65,"Lon":30.9833,"CountryCode":null},{"ID":22422,"Name":"Nadvirna","Lat":48.6333,"Lon":24.5833,"CountryCode":null},{"ID":37431,"Name":"Nemyriv","Lat":48.9667,"Lon":28.85,"CountryCode":null},{"ID":46132,"Name":"Nerubaiske","Lat":46.5467,"Lon":30.6306,"CountryCode":null},{"ID":14665,"Name":"Netishyn","Lat":50.35,"Lon":26.6333,"CountryCode":null},{"ID":5873,"Name":"Nikopol","Lat":47.5667,"Lon":34.4,"CountryCode":null},{"ID":8728,"Name":"Nizhyn","Lat":51.0381,"Lon":31.8861,"CountryCode":null},{"ID":33492,"Name":"Nosivka","Lat":50.93,"Lon":31.5806,"CountryCode":null},{"ID":12281,"Name":"Nova Kakhovka","Lat":46.755,"Lon":33.375,"CountryCode":null},{"ID":37213,"Name":"Nova Odesa","Lat":47.3097,"Lon":31.7792,"CountryCode":null},{"ID":38791,"Name":"Nova Vodolaha","Lat":49.7192,"Lon":35.8761,"CountryCode":null},{"ID":41724,"Name":"Novgorodskoye","Lat":48.3319,"Lon":37.8364,"CountryCode":null},{"ID":34780,"Name":"Novhorod-Siverskyi","Lat":51.9972,"Lon":33.2667,"CountryCode":null},{"ID":38310,"Name":"Novoazovsk","Lat":47.1117,"Lon":38.0825,"CountryCode":null},{"ID":39895,"Name":"Novodnistrovsk","Lat":48.5778,"Lon":27.4414,"CountryCode":null},{"ID":10367,"Name":"Novohrad-Volynskyi","Lat":50.5833,"Lon":27.6333,"CountryCode":null},{"ID":31821,"Name":"Novohrodivka","Lat":48.2,"Lon":37.3394,"CountryCode":null},{"ID":8433,"Name":"Novomoskovsk","Lat":48.6333,"Lon":35.2167,"CountryCode":null},{"ID":39216,"Name":"Novomyrhorod","Lat":48.7833,"Lon":31.65,"CountryCode":null},{"ID":41228,"Name":"Novooleksiivka","Lat":46.2261,"Lon":34.6417,"CountryCode":null},{"ID":43303,"Name":"Novopskov","Lat":49.5383,"Lon":39.1019,"CountryCode":null},{"ID":39402,"Name":"Novotroitske","Lat":46.35,"Lon":34.3333,"CountryCode":null},{"ID":28791,"Name":"Novoukrainka","Lat":48.3231,"Lon":31.5242,"CountryCode":null},{"ID":11317,"Name":"Novovolynsk","Lat":50.7333,"Lon":24.1667,"CountryCode":null},{"ID":17203,"Name":"Novoyavorovskoye","Lat":49.9311,"Lon":23.5731,"CountryCode":null},{"ID":30623,"Name":"Novyi Buh","Lat":47.6833,"Lon":32.5,"CountryCode":null},{"ID":18236,"Name":"Novyi Rozdil","Lat":49.4697,"Lon":24.1367,"CountryCode":null},{"ID":44627,"Name":"Novyi Svit","Lat":47.8167,"Lon":38.0333,"CountryCode":null},{"ID":32453,"Name":"Nyzhnia Krynka","Lat":48.1144,"Lon":38.1606,"CountryCode":null},{"ID":43110,"Name":"Nyzhnohirskyi","Lat":45.4436,"Lon":34.7406,"CountryCode":null},{"ID":16137,"Name":"Obukhiv","Lat":50.13,"Lon":30.6567,"CountryCode":null},{"ID":43983,"Name":"Obukhivka","Lat":48.5433,"Lon":34.8589,"CountryCode":null},{"ID":31175,"Name":"Ochakiv","Lat":46.6186,"Lon":31.5392,"CountryCode":null},{"ID":762,"Name":"Odesa","Lat":46.4775,"Lon":30.7326,"CountryCode":null},{"ID":25059,"Name":"Okhmalynka","Lat":47.5333,"Lon":29.3,"CountryCode":null},{"ID":11674,"Name":"Okhtyrka","Lat":50.303,"Lon":34.892,"CountryCode":null},{"ID":7249,"Name":"Oleksandriia","Lat":48.6667,"Lon":33.1167,"CountryCode":null},{"ID":20796,"Name":"Oleshky","Lat":46.6167,"Lon":32.7167,"CountryCode":null},{"ID":41211,"Name":"Olevsk","Lat":51.2167,"Lon":27.65,"CountryCode":null},{"ID":32500,"Name":"Orikhiv","Lat":47.5667,"Lon":35.7833,"CountryCode":null},{"ID":29757,"Name":"Ostroh","Lat":50.3333,"Lon":26.5167,"CountryCode":null},{"ID":36711,"Name":"Ovidiopol","Lat":46.2447,"Lon":30.4447,"CountryCode":null},{"ID":30268,"Name":"Ovruch","Lat":51.3244,"Lon":28.8081,"CountryCode":null},{"ID":6060,"Name":"Pavlohrad","Lat":48.5167,"Lon":35.8667,"CountryCode":null},{"ID":26958,"Name":"Pelahiivka","Lat":48.0989,"Lon":38.6128,"CountryCode":null},{"ID":34559,"Name":"Perehinske","Lat":48.81,"Lon":24.19,"CountryCode":null},{"ID":42566,"Name":"Pereshchepyne","Lat":49.0167,"Lon":35.35,"CountryCode":null},{"ID":19733,"Name":"Perevalsk","Lat":48.4333,"Lon":38.8167,"CountryCode":null},{"ID":19123,"Name":"Pereyaslav-Khmel'nyts'kyy","Lat":50.065,"Lon":31.445,"CountryCode":null},{"ID":19120,"Name":"Pershotravensk","Lat":48.3475,"Lon":36.4017,"CountryCode":null},{"ID":9156,"Name":"Pervomaisk","Lat":48.0439,"Lon":30.85,"CountryCode":null},{"ID":14046,"Name":"Pervomaisk","Lat":48.6297,"Lon":38.5619,"CountryCode":null},{"ID":18113,"Name":"Pervomaiskyi","Lat":49.3869,"Lon":36.2142,"CountryCode":null},{"ID":21698,"Name":"Pesochin","Lat":49.9594,"Lon":36.1108,"CountryCode":null},{"ID":34789,"Name":"Petrovske","Lat":48.2833,"Lon":38.8833,"CountryCode":null},{"ID":26591,"Name":"Piatykhatky","Lat":48.4136,"Lon":33.7028,"CountryCode":null},{"ID":25525,"Name":"Pidhorodne","Lat":48.575,"Lon":35.1022,"CountryCode":null},{"ID":44461,"Name":"Pivnichne","Lat":48.3886,"Lon":37.9067,"CountryCode":null},{"ID":13612,"Name":"Podilsk","Lat":47.7419,"Lon":29.535,"CountryCode":null},{"ID":43878,"Name":"Pohrebyshche","Lat":49.4833,"Lon":29.2667,"CountryCode":null},{"ID":43295,"Name":"Pokotylivka","Lat":49.9114,"Lon":36.1786,"CountryCode":null},{"ID":14473,"Name":"Pokrov","Lat":47.6533,"Lon":34.0842,"CountryCode":null},{"ID":9150,"Name":"Pokrovsk","Lat":48.2828,"Lon":37.1828,"CountryCode":null},{"ID":41743,"Name":"Pokrovske","Lat":47.9825,"Lon":36.2339,"CountryCode":null},{"ID":26630,"Name":"Polohy","Lat":47.4833,"Lon":36.25,"CountryCode":null},{"ID":24480,"Name":"Polonne","Lat":50.12,"Lon":27.5078,"CountryCode":null},{"ID":2424,"Name":"Poltava","Lat":49.5894,"Lon":34.5514,"CountryCode":null},{"ID":44636,"Name":"Pomichna","Lat":48.25,"Lon":31.4167,"CountryCode":null},{"ID":24083,"Name":"Popasna","Lat":48.6333,"Lon":38.38,"CountryCode":null},{"ID":10635,"Name":"Pryluky","Lat":50.5892,"Lon":32.3856,"CountryCode":null},{"ID":38034,"Name":"Prymorsk","Lat":46.7333,"Lon":36.35,"CountryCode":null},{"ID":34956,"Name":"Prymorskyi","Lat":45.1167,"Lon":35.4806,"CountryCode":null},{"ID":43358,"Name":"Pustomyty","Lat":49.7139,"Lon":23.9108,"CountryCode":null},{"ID":30480,"Name":"Putyvl","Lat":51.3167,"Lon":33.8667,"CountryCode":null},{"ID":30743,"Name":"Pyryatyn","Lat":50.25,"Lon":32.5333,"CountryCode":null},{"ID":42242,"Name":"Radekhiv","Lat":50.2828,"Lon":24.6375,"CountryCode":null},{"ID":32868,"Name":"Radomyshl","Lat":50.4947,"Lon":29.2333,"CountryCode":null},{"ID":40723,"Name":"Radyvyliv","Lat":50.1286,"Lon":25.2644,"CountryCode":null},{"ID":29894,"Name":"Rakhiv","Lat":48.05,"Lon":24.2,"CountryCode":null},{"ID":41605,"Name":"Ratne","Lat":51.65,"Lon":24.5333,"CountryCode":null},{"ID":46036,"Name":"Rava-Rus'ka","Lat":50.225,"Lon":23.6242,"CountryCode":null},{"ID":27059,"Name":"Reni","Lat":45.4575,"Lon":28.2711,"CountryCode":null},{"ID":43770,"Name":"Reshetylivka","Lat":49.5667,"Lon":34.0667,"CountryCode":null},{"ID":2744,"Name":"Rivne","Lat":50.6192,"Lon":26.2519,"CountryCode":null},{"ID":41920,"Name":"Rodynske","Lat":48.3531,"Lon":37.21,"CountryCode":null},{"ID":38646,"Name":"Rokytne","Lat":49.6667,"Lon":30.4833,"CountryCode":null},{"ID":13557,"Name":"Romny","Lat":50.75,"Lon":33.4667,"CountryCode":null},{"ID":11917,"Name":"Rovenky","Lat":48.0711,"Lon":39.3428,"CountryCode":null},{"ID":27420,"Name":"Rozdilna","Lat":46.8486,"Lon":30.0792,"CountryCode":null},{"ID":35108,"Name":"Rozhyshche","Lat":50.9131,"Lon":25.27,"CountryCode":null},{"ID":9617,"Name":"Rubizhne","Lat":49.01,"Lon":38.3714,"CountryCode":null},{"ID":31792,"Name":"Sadovoye","Lat":46.05,"Lon":30.3667,"CountryCode":null},{"ID":21050,"Name":"Saky","Lat":45.1336,"Lon":33.5772,"CountryCode":null},{"ID":15615,"Name":"Sambir","Lat":49.5167,"Lon":23.2028,"CountryCode":null},{"ID":18290,"Name":"Sarny","Lat":51.3372,"Lon":26.6058,"CountryCode":null},{"ID":40222,"Name":"Sartana","Lat":47.1667,"Lon":37.6833,"CountryCode":null},{"ID":21433,"Name":"Selydove","Lat":48.15,"Lon":37.3039,"CountryCode":null},{"ID":1524,"Name":"Sevastopol","Lat":44.605,"Lon":33.5225,"CountryCode":null},{"ID":11369,"Name":"Shakhtarsk","Lat":48.0469,"Lon":38.4686,"CountryCode":null},{"ID":34817,"Name":"Shchastia","Lat":48.7333,"Lon":39.2333,"CountryCode":null},{"ID":7709,"Name":"Shostka","Lat":51.8667,"Lon":33.4833,"CountryCode":null},{"ID":28444,"Name":"Shpola","Lat":48.9997,"Lon":31.3922,"CountryCode":null},{"ID":40690,"Name":"Shyroke","Lat":47.6844,"Lon":33.2728,"CountryCode":null},{"ID":41984,"Name":"Sieverne","Lat":48.0858,"Lon":38.6942,"CountryCode":null},{"ID":4256,"Name":"Sievierodonetsk","Lat":48.9481,"Lon":38.4933,"CountryCode":null},{"ID":2063,"Name":"Simferopol","Lat":44.9519,"Lon":34.1022,"CountryCode":null},{"ID":38807,"Name":"Siversk","Lat":48.8631,"Lon":38.0972,"CountryCode":null},{"ID":27530,"Name":"Skadovsk","Lat":46.1167,"Lon":32.9167,"CountryCode":null},{"ID":29444,"Name":"Skvyra","Lat":49.7167,"Lon":29.6667,"CountryCode":null},{"ID":15435,"Name":"Slavuta","Lat":50.3028,"Lon":26.8683,"CountryCode":null},{"ID":20487,"Name":"Slavutych","Lat":51.5206,"Lon":30.7569,"CountryCode":null},{"ID":32883,"Name":"Slobozhanske","Lat":49.5961,"Lon":36.5269,"CountryCode":null},{"ID":33665,"Name":"Slobozhanske","Lat":48.5336,"Lon":35.0781,"CountryCode":null},{"ID":5491,"Name":"Sloviansk","Lat":48.8533,"Lon":37.625,"CountryCode":null},{"ID":8870,"Name":"Smila","Lat":49.2117,"Lon":31.8731,"CountryCode":null},{"ID":43757,"Name":"Smoline","Lat":48.6017,"Lon":31.2947,"CountryCode":null},{"ID":41650,"Name":"Sniatyn","Lat":48.45,"Lon":25.5667,"CountryCode":null},{"ID":36009,"Name":"Snihurivka","Lat":47.0736,"Lon":32.8,"CountryCode":null},{"ID":11817,"Name":"Snizhne","Lat":48.0283,"Lon":38.7656,"CountryCode":null},{"ID":38936,"Name":"Snovsk","Lat":51.8203,"Lon":31.9508,"CountryCode":null},{"ID":42687,"Name":"Sofiivka","Lat":48.2603,"Lon":38.1594,"CountryCode":null},{"ID":19452,"Name":"Sofiyivs'ka Borshchahivka","Lat":50.4114,"Lon":30.3692,"CountryCode":null},{"ID":23730,"Name":"Sokal","Lat":50.4833,"Lon":24.2833,"CountryCode":null},{"ID":45808,"Name":"Sokyriany","Lat":48.45,"Lon":27.3667,"CountryCode":null},{"ID":39834,"Name":"Soledar","Lat":48.6953,"Lon":38.0675,"CountryCode":null},{"ID":32966,"Name":"Solonytsivka","Lat":49.9869,"Lon":36.0619,"CountryCode":null},{"ID":45875,"Name":"Solotvyno","Lat":47.9556,"Lon":23.8711,"CountryCode":null},{"ID":7809,"Name":"Stakhanov","Lat":48.5681,"Lon":38.6586,"CountryCode":null},{"ID":31417,"Name":"Stanytsia Luhanska","Lat":48.6706,"Lon":39.4722,"CountryCode":null},{"ID":25904,"Name":"Starobilsk","Lat":49.2775,"Lon":38.9242,"CountryCode":null},{"ID":15842,"Name":"Starokostiantyniv","Lat":49.7556,"Lon":27.2208,"CountryCode":null},{"ID":24455,"Name":"Stebnyk","Lat":49.3,"Lon":23.5667,"CountryCode":null},{"ID":32088,"Name":"Storozhynets","Lat":48.1619,"Lon":25.72,"CountryCode":null},{"ID":10362,"Name":"Stryi","Lat":49.25,"Lon":23.85,"CountryCode":null},{"ID":44104,"Name":"Stryzhavka","Lat":49.3103,"Lon":28.4808,"CountryCode":null},{"ID":28252,"Name":"Sudak","Lat":44.8514,"Lon":34.9725,"CountryCode":null},{"ID":23429,"Name":"Sukhodilsk","Lat":48.35,"Lon":39.7167,"CountryCode":null},{"ID":2545,"Name":"Sumy","Lat":50.9119,"Lon":34.8028,"CountryCode":null},{"ID":27858,"Name":"Svalyava","Lat":48.5472,"Lon":22.9861,"CountryCode":null},{"ID":26305,"Name":"Svatove","Lat":49.415,"Lon":38.155,"CountryCode":null},{"ID":37722,"Name":"Svitlodarsk","Lat":48.4333,"Lon":38.2167,"CountryCode":null},{"ID":12231,"Name":"Svitlovodsk","Lat":49.0503,"Lon":33.2419,"CountryCode":null},{"ID":17770,"Name":"Synelnykove","Lat":48.3178,"Lon":35.5119,"CountryCode":null},{"ID":43109,"Name":"Syurte","Lat":48.5033,"Lon":22.2319,"CountryCode":null},{"ID":33086,"Name":"Talne","Lat":48.8886,"Lon":30.7042,"CountryCode":null},{"ID":40710,"Name":"Tarashcha","Lat":49.55,"Lon":30.5,"CountryCode":null},{"ID":29510,"Name":"Taromske","Lat":48.4617,"Lon":34.7828,"CountryCode":null},{"ID":38902,"Name":"Tatarbunary","Lat":45.8403,"Lon":29.6125,"CountryCode":null},{"ID":40195,"Name":"Tavriisk","Lat":46.75,"Lon":33.4167,"CountryCode":null},{"ID":40838,"Name":"Teplodar","Lat":46.5036,"Lon":30.3244,"CountryCode":null},{"ID":43666,"Name":"Teplohirsk","Lat":48.5967,"Lon":38.5828,"CountryCode":null},{"ID":33555,"Name":"Terebovlya","Lat":49.3,"Lon":25.6903,"CountryCode":null},{"ID":19225,"Name":"Ternivka","Lat":48.5167,"Lon":36,"CountryCode":null},{"ID":2961,"Name":"Ternopil","Lat":49.5667,"Lon":25.6,"CountryCode":null},{"ID":34027,"Name":"Tetiiv","Lat":49.3708,"Lon":29.69,"CountryCode":null},{"ID":44981,"Name":"Tiachiv","Lat":48.0114,"Lon":23.5722,"CountryCode":null},{"ID":44987,"Name":"Tlumach","Lat":48.8667,"Lon":25,"CountryCode":null},{"ID":17808,"Name":"Tokmak","Lat":47.2556,"Lon":35.7056,"CountryCode":null},{"ID":15636,"Name":"Toretsk","Lat":48.3917,"Lon":37.8733,"CountryCode":null},{"ID":24725,"Name":"Trostyanets'","Lat":50.4667,"Lon":34.95,"CountryCode":null},{"ID":18471,"Name":"Truskavets","Lat":49.2806,"Lon":23.505,"CountryCode":null},{"ID":31574,"Name":"Tulchyn","Lat":48.6744,"Lon":28.8497,"CountryCode":null},{"ID":43621,"Name":"Tysmenytsia","Lat":48.9008,"Lon":24.8492,"CountryCode":null},{"ID":29175,"Name":"Ukrainka","Lat":50.1531,"Lon":30.7435,"CountryCode":null},{"ID":36529,"Name":"Ukrainsk","Lat":48.1,"Lon":37.3833,"CountryCode":null},{"ID":7260,"Name":"Uman","Lat":48.75,"Lon":30.2167,"CountryCode":null},{"ID":44704,"Name":"Uspenka","Lat":48.3939,"Lon":39.1536,"CountryCode":null},{"ID":5395,"Name":"Uzhhorod","Lat":48.6239,"Lon":22.295,"CountryCode":null},{"ID":35954,"Name":"Uzyn","Lat":49.8242,"Lon":30.4425,"CountryCode":null},{"ID":37430,"Name":"Vakhrusheve","Lat":48.1667,"Lon":38.8333,"CountryCode":null},{"ID":13141,"Name":"Varash","Lat":51.3444,"Lon":25.8508,"CountryCode":null},{"ID":34940,"Name":"Vasylivka","Lat":47.4431,"Lon":35.2819,"CountryCode":null},{"ID":14413,"Name":"Vasylkiv","Lat":50.1783,"Lon":30.3158,"CountryCode":null},{"ID":36721,"Name":"Vasylkivka","Lat":48.2083,"Lon":36.0294,"CountryCode":null},{"ID":28113,"Name":"Vatutine","Lat":49.0119,"Lon":31.0714,"CountryCode":null},{"ID":42821,"Name":"Velyka Dymerka","Lat":50.5928,"Lon":30.9103,"CountryCode":null},{"ID":44453,"Name":"Velyki Luchky","Lat":48.4167,"Lon":22.5667,"CountryCode":null},{"ID":33992,"Name":"Velykodolynske","Lat":46.3447,"Lon":30.5783,"CountryCode":null},{"ID":43714,"Name":"Velykyi Bychkiv","Lat":47.9667,"Lon":24.015,"CountryCode":null},{"ID":41627,"Name":"Verkhivtseve","Lat":48.4853,"Lon":34.2539,"CountryCode":null},{"ID":29974,"Name":"Verkhnodniprovsk","Lat":48.6561,"Lon":34.3283,"CountryCode":null},{"ID":42313,"Name":"Vesele","Lat":47.0158,"Lon":34.9122,"CountryCode":null},{"ID":22764,"Name":"Vilnohirsk","Lat":48.4781,"Lon":34.0281,"CountryCode":null},{"ID":31782,"Name":"Vil'nyans'k","Lat":47.9419,"Lon":35.4281,"CountryCode":null},{"ID":1908,"Name":"Vinnytsia","Lat":49.2333,"Lon":28.4833,"CountryCode":null},{"ID":23317,"Name":"Volnovakha","Lat":47.6022,"Lon":37.4919,"CountryCode":null},{"ID":26433,"Name":"Volochysk","Lat":49.5333,"Lon":26.1667,"CountryCode":null},{"ID":45645,"Name":"Volodymyrets","Lat":51.4208,"Lon":26.145,"CountryCode":null},{"ID":15267,"Name":"Voznesensk","Lat":47.5667,"Lon":31.3,"CountryCode":null},{"ID":30987,"Name":"Vuhledar","Lat":47.7792,"Lon":37.2483,"CountryCode":null},{"ID":29660,"Name":"Vynnyky","Lat":49.8156,"Lon":24.1297,"CountryCode":null},{"ID":20290,"Name":"Vynohradiv","Lat":48.1497,"Lon":23.025,"CountryCode":null},{"ID":17621,"Name":"Vyshhorod","Lat":50.5833,"Lon":30.5,"CountryCode":null},{"ID":13701,"Name":"Vyshneve","Lat":50.3869,"Lon":30.3581,"CountryCode":null},{"ID":41172,"Name":"Vysokyi","Lat":49.8875,"Lon":36.1211,"CountryCode":null},{"ID":25053,"Name":"Yahotyn","Lat":50.2569,"Lon":31.7817,"CountryCode":null},{"ID":37288,"Name":"Yakymivka","Lat":46.7,"Lon":35.1667,"CountryCode":null},{"ID":7491,"Name":"Yalta","Lat":44.4994,"Lon":34.17,"CountryCode":null},{"ID":39328,"Name":"Yampil","Lat":48.24,"Lon":28.2783,"CountryCode":null},{"ID":20204,"Name":"Yany Kapu","Lat":45.9675,"Lon":33.8003,"CountryCode":null},{"ID":44804,"Name":"Yasenivskyi","Lat":48.1606,"Lon":39.2175,"CountryCode":null},{"ID":46058,"Name":"Yasinia","Lat":48.2728,"Lon":24.3747,"CountryCode":null},{"ID":15244,"Name":"Yasynuvata","Lat":48.1278,"Lon":37.8625,"CountryCode":null},{"ID":34514,"Name":"Yavoriv","Lat":49.9469,"Lon":23.3931,"CountryCode":null},{"ID":7483,"Name":"Yenakiieve","Lat":48.2167,"Lon":38.2,"CountryCode":null},{"ID":5717,"Name":"Yevpatoriia","Lat":45.1939,"Lon":33.3681,"CountryCode":null},{"ID":28819,"Name":"Yuvileine","Lat":48.5531,"Lon":39.1742,"CountryCode":null},{"ID":16321,"Name":"Yuzhne","Lat":46.63,"Lon":31.1,"CountryCode":null},{"ID":13915,"Name":"Yuzhnoukrainsk","Lat":47.8217,"Lon":31.175,"CountryCode":null},{"ID":44473,"Name":"Zalishchyky","Lat":48.65,"Lon":25.7333,"CountryCode":null},{"ID":1050,"Name":"Zaporizhzhia","Lat":47.85,"Lon":35.1175,"CountryCode":null},{"ID":33421,"Name":"Zbarazh","Lat":49.6667,"Lon":25.7778,"CountryCode":null},{"ID":20879,"Name":"Zdolbuniv","Lat":50.5094,"Lon":26.2597,"CountryCode":null},{"ID":34685,"Name":"Zelenodolsk","Lat":47.5658,"Lon":33.6464,"CountryCode":null},{"ID":32571,"Name":"Zhashkiv","Lat":49.2358,"Lon":30.1111,"CountryCode":null},{"ID":36332,"Name":"Zhdanivka","Lat":48.1375,"Lon":38.2608,"CountryCode":null},{"ID":15912,"Name":"Zhmerynka","Lat":49.05,"Lon":28.1,"CountryCode":null},{"ID":32576,"Name":"Zhovkva","Lat":50.055,"Lon":23.9767,"CountryCode":null},{"ID":13044,"Name":"Zhovti Vody","Lat":48.35,"Lon":33.5,"CountryCode":null},{"ID":38579,"Name":"Zhydachiv","Lat":49.385,"Lon":24.1444,"CountryCode":null},{"ID":2582,"Name":"Zhytomyr","Lat":50.25,"Lon":28.6667,"CountryCode":null},{"ID":37680,"Name":"Zimna Voda","Lat":49.8222,"Lon":23.9028,"CountryCode":null},{"ID":41903,"Name":"Zinkiv","Lat":50.2103,"Lon":34.3581,"CountryCode":null},{"ID":22088,"Name":"Znamianka","Lat":48.7136,"Lon":32.6733,"CountryCode":null},{"ID":21276,"Name":"Zolochiv","Lat":49.8075,"Lon":24.9031,"CountryCode":null},{"ID":31706,"Name":"Zolote","Lat":48.6928,"Lon":38.5194,"CountryCode":null},{"ID":18728,"Name":"Zolotonosha","Lat":49.6667,"Lon":32.0333,"CountryCode":null},{"ID":26721,"Name":"Zuhres","Lat":48.0167,"Lon":38.2667,"CountryCode":null},{"ID":27851,"Name":"Zvenyhorodka","Lat":49.0697,"Lon":30.9678,"CountryCode":null},{"ID":42808,"Name":"Zymohiria","Lat":48.5819,"Lon":38.9319,"CountryCode":null}]