[{"ID":46997,"Name":"Aigua","Lat":-34.2,"Lon":-54.75,"CountryCode":null},{"ID":13462,"Name":"Artigas","Lat":-30.4667,"Lon":-56.4667,"CountryCode":null},{"ID":46987,"Name":"Baltasar Brum","Lat":-30.7167,"Lon":-57.3333,"CountryCode":null},{"ID":16780,"Name":"Barros Blancos","Lat":-34.7542,"Lon":-56.0042,"CountryCode":null},{"ID":25566,"Name":"Bella Union","Lat":-30.25,"Lon":-57.5833,"CountryCode":null},{"ID":24837,"Name":"Canelones","Lat":-34.5167,"Lon":-56.2833,"CountryCode":null},{"ID":26705,"Name":"Carmelo","Lat":-34,"Lon":-58.2833,"CountryCode":null},{"ID":46423,"Name":"Castillos","Lat":-34.1989,"Lon":-53.8575,"CountryCode":null},{"ID":42467,"Name":"Chuy","Lat":-33.6964,"Lon":-53.46,"CountryCode":null},{"ID":5520,"Name":"Ciudad de la Costa","Lat":-34.8167,"Lon":-55.95,"CountryCode":null},{"ID":17004,"Name":"Ciudad del Plata","Lat":-34.7667,"Lon":-56.3806,"CountryCode":null},{"ID":19667,"Name":"Colonia del Sacramento","Lat":-34.4714,"Lon":-57.8442,"CountryCode":null},{"ID":42599,"Name":"Colonia Nicolich","Lat":-34.8167,"Lon":-56.0167,"CountryCode":null},{"ID":29618,"Name":"Dolores","Lat":-33.5333,"Lon":-58.2167,"CountryCode":null},{"ID":15641,"Name":"Durazno","Lat":-33.3667,"Lon":-56.5167,"CountryCode":null},{"ID":23611,"Name":"El Pinar","Lat":-34.7972,"Lon":-55.9097,"CountryCode":null},{"ID":15960,"Name":"Florida","Lat":-34.1,"Lon":-56.2167,"CountryCode":null},{"ID":20953,"Name":"Fray Bentos","Lat":-33.1333,"Lon":-58.3,"CountryCode":null},{"ID":47044,"Name":"Jose Batlle y Ordonez","Lat":-33.4667,"Lon":-55.15,"CountryCode":null},{"ID":34447,"Name":"Juan L. Lacaze","Lat":-34.4311,"Lon":-57.4483,"CountryCode":null},{"ID":46856,"Name":"La Paloma","Lat":-34.65,"Lon":-54.1667,"CountryCode":null},{"ID":24164,"Name":"La Paz","Lat":-34.7617,"Lon":-56.2233,"CountryCode":null},{"ID":8243,"Name":"Las Piedras","Lat":-34.7167,"Lon":-56.2167,"CountryCode":null},{"ID":46412,"Name":"Lascano","Lat":-33.6739,"Lon":-54.2075,"CountryCode":null},{"ID":37341,"Name":"Libertad","Lat":-34.6333,"Lon":-56.6192,"CountryCode":null},{"ID":4668,"Name":"Maldonado","Lat":-34.9,"Lon":-54.95,"CountryCode":null},{"ID":10926,"Name":"Melo","Lat":-32.3667,"Lon":-54.1833,"CountryCode":null},{"ID":13070,"Name":"Mercedes","Lat":-33.25,"Lon":-58.0333,"CountryCode":null},{"ID":14157,"Name":"Minas","Lat":-34.3667,"Lon":-55.2333,"CountryCode":null},{"ID":466,"Name":"Montevideo","Lat":-34.8836,"Lon":-56.1819,"CountryCode":null},{"ID":39441,"Name":"Nueva Helvecia","Lat":-34.2833,"Lon":-57.2,"CountryCode":null},{"ID":41899,"Name":"Nueva Palmira","Lat":-33.8833,"Lon":-58.4167,"CountryCode":null},{"ID":46062,"Name":"Nuevo Paysandu","Lat":-32.2667,"Lon":-58.0667,"CountryCode":null},{"ID":19865,"Name":"Pando","Lat":-34.7167,"Lon":-55.9583,"CountryCode":null},{"ID":29413,"Name":"Paso de Carrasco","Lat":-34.8714,"Lon":-56.0272,"CountryCode":null},{"ID":34138,"Name":"Paso de los Toros","Lat":-32.8112,"Lon":-56.5086,"CountryCode":null},{"ID":7747,"Name":"Paysandu","Lat":-32.3214,"Lon":-58.0756,"CountryCode":null},{"ID":45186,"Name":"Piriapolis","Lat":-34.9,"Lon":-55.2833,"CountryCode":null},{"ID":28906,"Name":"Progreso","Lat":-34.665,"Lon":-56.2194,"CountryCode":null},{"ID":43645,"Name":"Punta del Este","Lat":-34.9667,"Lon":-54.95,"CountryCode":null},{"ID":31320,"Name":"Rio Branco","Lat":-32.5972,"Lon":-53.3833,"CountryCode":null},{"ID":9022,"Name":"Rivera","Lat":-30.9025,"Lon":-55.5506,"CountryCode":null},{"ID":20219,"Name":"Rocha","Lat":-34.4833,"Lon":-54.35,"CountryCode":null},{"ID":43552,"Name":"Rosario","Lat":-34.3139,"Lon":-57.3525,"CountryCode":null},{"ID":45897,"Name":"Salinas","Lat":-34.7833,"Lon":-55.8333,"CountryCode":null},{"ID":5005,"Name":"Salto","Lat":-31.3833,"Lon":-57.95,"CountryCode":null},{"ID":18944,"Name":"San Carlos","Lat":-34.8,"Lon":-54.9167,"CountryCode":null},{"ID":14726,"Name":"San Jose","Lat":-34.3333,"Lon":-56.7167,"CountryCode":null},{"ID":28299,"Name":"Santa Lucia","Lat":-34.4525,"Lon":-56.3964,"CountryCode":null},{"ID":10419,"Name":"Tacuarembo","Lat":-31.7333,"Lon":-55.9833,"CountryCode":null},{"ID":33604,"Name":"Tala","Lat":-34.35,"Lon":-55.7667,"CountryCode":null},{"ID":46450,"Name":"Tranqueras","Lat":-31.1833,"Lon":-55.7667,"CountryCode":null},{"ID":20178,"Name":"Treinta y Tres","Lat":-33.2333,"Lon":-54.3833,"CountryCode":null},{"ID":23333,"Name":"Trinidad","Lat":-33.5333,"Lon":-56.8833,"CountryCode":null},{"ID":46812,"Name":"Vergara","Lat":-32.95,"Lon":-53.9333,"CountryCode":null},{"ID":28282,"Name":"Young","Lat":-32.7,"Lon":-57.6333,"CountryCode":null}]