[{"ID":1350,"Name":"Andijon","Lat":40.7833,"Lon":72.3333,"CountryCode":null},{"ID":35697,"Name":"Andijon","Lat":40.6444,"Lon":72.3639,"CountryCode":null},{"ID":45279,"Name":"Angor","Lat":37.4639,"Lon":67.15,"CountryCode":null},{"ID":4942,"Name":"Angren","Lat":41.0167,"Lon":70.1436,"CountryCode":null},{"ID":9302,"Name":"Asaka","Lat":40.6333,"Lon":72.2333,"CountryCode":null},{"ID":34480,"Name":"Bag`dod","Lat":40.4606,"Lon":71.2214,"CountryCode":null},{"ID":20445,"Name":"Baliqchi","Lat":40.9,"Lon":71.8528,"CountryCode":null},{"ID":40967,"Name":"Bandixon","Lat":37.8614,"Lon":67.3861,"CountryCode":null},{"ID":27340,"Name":"Baxt","Lat":40.7139,"Lon":68.6933,"CountryCode":null},{"ID":7264,"Name":"Bekobod","Lat":40.2167,"Lon":69.2167,"CountryCode":null},{"ID":11122,"Name":"Beruniy","Lat":41.6833,"Lon":60.75,"CountryCode":null},{"ID":22208,"Name":"Beshariq","Lat":40.4358,"Lon":70.6103,"CountryCode":null},{"ID":25784,"Name":"Beshkent Shahri","Lat":38.8167,"Lon":65.65,"CountryCode":null},{"ID":18640,"Name":"Bo`ka","Lat":40.8136,"Lon":69.2019,"CountryCode":null},{"ID":43595,"Name":"Bo`z","Lat":40.6833,"Lon":71.9167,"CountryCode":null},{"ID":39261,"Name":"Bog'ot","Lat":41.35,"Lon":60.8167,"CountryCode":null},{"ID":32668,"Name":"Boyovut","Lat":40.2822,"Lon":69.0183,"CountryCode":null},{"ID":28317,"Name":"Boysun","Lat":38.2,"Lon":67.2,"CountryCode":null},{"ID":2442,"Name":"Bukhara","Lat":39.7667,"Lon":64.4231,"CountryCode":null},{"ID":16518,"Name":"Buloqboshi","Lat":40.6222,"Lon":72.5028,"CountryCode":null},{"ID":17987,"Name":"Bulung'ur Shahri","Lat":39.76,"Lon":67.27,"CountryCode":null},{"ID":28470,"Name":"Burbaliq","Lat":40.3247,"Lon":71.3692,"CountryCode":null},{"ID":33514,"Name":"Charxin","Lat":39.6967,"Lon":66.7686,"CountryCode":null},{"ID":23895,"Name":"Chelak","Lat":39.9203,"Lon":66.8611,"CountryCode":null},{"ID":14666,"Name":"Chimboy Shahri","Lat":42.9295,"Lon":59.782,"CountryCode":null},{"ID":21267,"Name":"Chinobod","Lat":40.8767,"Lon":71.9725,"CountryCode":null},{"ID":21500,"Name":"Chinoz","Lat":40.9375,"Lon":68.7578,"CountryCode":null},{"ID":4029,"Name":"Chirchiq","Lat":41.4667,"Lon":69.5833,"CountryCode":null},{"ID":33667,"Name":"Chiroqchi","Lat":39.0336,"Lon":66.5739,"CountryCode":null},{"ID":15120,"Name":"Chortoq","Lat":41.0689,"Lon":71.8153,"CountryCode":null},{"ID":6133,"Name":"Chust","Lat":40.9978,"Lon":71.2403,"CountryCode":null},{"ID":44603,"Name":"Dahbed","Lat":39.7636,"Lon":66.9131,"CountryCode":null},{"ID":37237,"Name":"Dang`ara","Lat":40.5831,"Lon":70.91,"CountryCode":null},{"ID":19796,"Name":"Dardoq","Lat":40.8156,"Lon":72.8311,"CountryCode":null},{"ID":14803,"Name":"Dashtobod","Lat":40.1269,"Lon":68.4944,"CountryCode":null},{"ID":39795,"Name":"Dehqonobod","Lat":40.5314,"Lon":69.0342,"CountryCode":null},{"ID":7576,"Name":"Denov","Lat":38.2667,"Lon":67.9,"CountryCode":null},{"ID":28964,"Name":"Do`stobod","Lat":40.8564,"Lon":68.9281,"CountryCode":null},{"ID":26428,"Name":"Do'stlik Shahri","Lat":40.5247,"Lon":68.0358,"CountryCode":null},{"ID":28229,"Name":"Druzhba","Lat":41.2222,"Lon":61.3067,"CountryCode":null},{"ID":34879,"Name":"Eski Arab","Lat":40.3686,"Lon":71.4231,"CountryCode":null},{"ID":38990,"Name":"Eski Yakkabog`","Lat":38.9314,"Lon":66.8389,"CountryCode":null},{"ID":2380,"Name":"Farg`ona","Lat":40.3864,"Lon":71.7864,"CountryCode":null},{"ID":23183,"Name":"G`azalkent","Lat":41.5625,"Lon":69.775,"CountryCode":null},{"ID":45285,"Name":"G`ozg`on","Lat":40.5944,"Lon":65.4964,"CountryCode":null},{"ID":27642,"Name":"G`uzor","Lat":38.6208,"Lon":66.2481,"CountryCode":null},{"ID":30341,"Name":"Gagarin Shahri","Lat":40.6619,"Lon":68.1722,"CountryCode":null},{"ID":34878,"Name":"Galaosiyo Shahri","Lat":39.85,"Lon":64.45,"CountryCode":null},{"ID":20758,"Name":"G'allaorol Shahri","Lat":40.0214,"Lon":67.5975,"CountryCode":null},{"ID":17312,"Name":"G'ijduvon Shahri","Lat":40.1,"Lon":64.6667,"CountryCode":null},{"ID":35491,"Name":"G'oliblar Qishlog'i","Lat":40.4953,"Lon":67.8778,"CountryCode":null},{"ID":35887,"Name":"Gulbahor","Lat":41.0747,"Lon":69.0275,"CountryCode":null},{"ID":10274,"Name":"Guliston","Lat":40.4833,"Lon":68.7833,"CountryCode":null},{"ID":19025,"Name":"Gurlan","Lat":41.85,"Lon":60.4,"CountryCode":null},{"ID":19197,"Name":"Haqqulobod","Lat":40.9061,"Lon":72.1194,"CountryCode":null},{"ID":25899,"Name":"Hazorasp","Lat":41.3167,"Lon":61.0667,"CountryCode":null},{"ID":42462,"Name":"Ingichka","Lat":39.7389,"Lon":65.9922,"CountryCode":null},{"ID":29283,"Name":"Ishtixon Shahri","Lat":39.9664,"Lon":66.4861,"CountryCode":null},{"ID":19716,"Name":"Iskandar","Lat":41.5581,"Lon":69.7047,"CountryCode":null},{"ID":21268,"Name":"Jalolquduq","Lat":40.7194,"Lon":72.6428,"CountryCode":null},{"ID":22295,"Name":"Jarqo`rg`on","Lat":37.5083,"Lon":67.4167,"CountryCode":null},{"ID":3942,"Name":"Jizzax","Lat":40.1158,"Lon":67.8422,"CountryCode":null},{"ID":40993,"Name":"Jomasho`y","Lat":40.8633,"Lon":71.4597,"CountryCode":null},{"ID":27475,"Name":"Jomboy Shahri","Lat":39.6989,"Lon":67.0933,"CountryCode":null},{"ID":45640,"Name":"Jondor Shaharchasi","Lat":39.7333,"Lon":64.1833,"CountryCode":null},{"ID":29856,"Name":"Juma Shahri","Lat":39.7161,"Lon":66.6642,"CountryCode":null},{"ID":23880,"Name":"Karmana","Lat":40.1422,"Lon":65.3625,"CountryCode":null},{"ID":6941,"Name":"Kattagan","Lat":40.2,"Lon":64.9167,"CountryCode":null},{"ID":9757,"Name":"Kattaqo'rg'on Shahri","Lat":39.8989,"Lon":66.2561,"CountryCode":null},{"ID":35275,"Name":"Kegeyli Shahar","Lat":42.7767,"Lon":59.6078,"CountryCode":null},{"ID":17265,"Name":"Keles","Lat":41.4033,"Lon":69.2067,"CountryCode":null},{"ID":30819,"Name":"Kimyogarlar","Lat":39.6672,"Lon":66.8461,"CountryCode":null},{"ID":13419,"Name":"Kitob","Lat":39.1336,"Lon":66.8819,"CountryCode":null},{"ID":5749,"Name":"Kogon Shahri","Lat":39.7275,"Lon":64.5547,"CountryCode":null},{"ID":16978,"Name":"Kosonsoy","Lat":41.25,"Lon":71.55,"CountryCode":null},{"ID":25485,"Name":"Krasnogorskiy","Lat":41.1542,"Lon":69.6697,"CountryCode":null},{"ID":35696,"Name":"Kuyganyor","Lat":40.8611,"Lon":72.3111,"CountryCode":null},{"ID":34542,"Name":"Loyish Shaharchasi","Lat":39.8839,"Lon":66.7481,"CountryCode":null},{"ID":22078,"Name":"Manghit","Lat":42.1167,"Lon":60.0667,"CountryCode":null},{"ID":3085,"Name":"Marg`ilon","Lat":40.4711,"Lon":71.7247,"CountryCode":null},{"ID":33020,"Name":"Marhamat","Lat":40.5,"Lon":72.3333,"CountryCode":null},{"ID":33176,"Name":"Muynoq","Lat":43.7667,"Lon":59.0333,"CountryCode":null},{"ID":1191,"Name":"Namangan","Lat":41.0011,"Lon":71.6683,"CountryCode":null},{"ID":4693,"Name":"Navoiy","Lat":40.0844,"Lon":65.3792,"CountryCode":null},{"ID":33513,"Name":"Nishon Tumani","Lat":38.6558,"Lon":65.6994,"CountryCode":null},{"ID":2185,"Name":"Nukus","Lat":42.4667,"Lon":59.6,"CountryCode":null},{"ID":39796,"Name":"Nuriston","Lat":38.4892,"Lon":65.6464,"CountryCode":null},{"ID":42679,"Name":"Nurobod Shahri","Lat":39.6086,"Lon":66.2867,"CountryCode":null},{"ID":23693,"Name":"Nurota","Lat":40.565,"Lon":65.685,"CountryCode":null},{"ID":32321,"Name":"O`nhayot","Lat":41.0103,"Lon":71.7614,"CountryCode":null},{"ID":14364,"Name":"Ohangaron","Lat":40.9061,"Lon":69.6444,"CountryCode":null},{"ID":4477,"Name":"Olmaliq","Lat":40.85,"Lon":69.6,"CountryCode":null},{"ID":20147,"Name":"Oltiariq","Lat":40.3917,"Lon":71.4767,"CountryCode":null},{"ID":18468,"Name":"Oltinko`l","Lat":43.0758,"Lon":58.9067,"CountryCode":null},{"ID":36359,"Name":"Oqqo`rg`on","Lat":40.8764,"Lon":69.0453,"CountryCode":null},{"ID":13165,"Name":"Oqtosh Shahri","Lat":39.9269,"Lon":65.9256,"CountryCode":null},{"ID":41405,"Name":"Oyim","Lat":40.8242,"Lon":72.7414,"CountryCode":null},{"ID":9558,"Name":"Parkent","Lat":41.2944,"Lon":69.6764,"CountryCode":null},{"ID":21344,"Name":"Paxtakor Shahri","Lat":40.3153,"Lon":67.9544,"CountryCode":null},{"ID":15631,"Name":"Paxtaobod","Lat":40.9294,"Lon":72.4969,"CountryCode":null},{"ID":35695,"Name":"Paxtaobod","Lat":40.3453,"Lon":68.1925,"CountryCode":null},{"ID":35393,"Name":"Payariq Shahri","Lat":39.9892,"Lon":66.8458,"CountryCode":null},{"ID":16390,"Name":"Payshamba Shahri","Lat":40.0078,"Lon":66.2372,"CountryCode":null},{"ID":15444,"Name":"Piskent","Lat":40.8992,"Lon":69.3425,"CountryCode":null},{"ID":17549,"Name":"Pop","Lat":40.8736,"Lon":71.1089,"CountryCode":null},{"ID":19824,"Name":"Poytug`","Lat":40.9,"Lon":72.25,"CountryCode":null},{"ID":44604,"Name":"Qahramon","Lat":40.305,"Lon":68.6017,"CountryCode":null},{"ID":40380,"Name":"Qanliko`l","Lat":42.8333,"Lon":59,"CountryCode":null},{"ID":2475,"Name":"Qarshi","Lat":38.8667,"Lon":65.8,"CountryCode":null},{"ID":18774,"Name":"Qibray","Lat":41.3897,"Lon":69.465,"CountryCode":null},{"ID":41814,"Name":"Qiziltepa","Lat":40.0361,"Lon":64.8503,"CountryCode":null},{"ID":14593,"Name":"Qo`ng`irot Shahri","Lat":43.0497,"Lon":58.8542,"CountryCode":null},{"ID":2598,"Name":"Qo`qon","Lat":40.5286,"Lon":70.9425,"CountryCode":null},{"ID":17173,"Name":"Qo`rg`ontepa","Lat":40.7336,"Lon":72.7583,"CountryCode":null},{"ID":22558,"Name":"Qorako`l Shahri","Lat":39.5028,"Lon":63.8556,"CountryCode":null},{"ID":35490,"Name":"Qorao`zak","Lat":43.0275,"Lon":60.0125,"CountryCode":null},{"ID":36360,"Name":"Qorashina","Lat":38.3394,"Lon":66.5619,"CountryCode":null},{"ID":25202,"Name":"Qorasuv","Lat":40.7222,"Lon":72.8872,"CountryCode":null},{"ID":46261,"Name":"Qorovul","Lat":41.5569,"Lon":60.5914,"CountryCode":null},{"ID":43900,"Name":"Qorovulbozor","Lat":39.5,"Lon":64.8,"CountryCode":null},{"ID":25990,"Name":"Qo'shko'pir","Lat":41.5333,"Lon":60.35,"CountryCode":null},{"ID":30877,"Name":"Qumqo`rg`on","Lat":37.8278,"Lon":67.5972,"CountryCode":null},{"ID":7412,"Name":"Qunghirot","Lat":43.0758,"Lon":58.9067,"CountryCode":null},{"ID":11996,"Name":"Quva","Lat":40.5247,"Lon":72.07,"CountryCode":null},{"ID":6320,"Name":"Quvasoy","Lat":40.3,"Lon":71.9667,"CountryCode":null},{"ID":21496,"Name":"Rishton","Lat":40.3567,"Lon":71.2847,"CountryCode":null},{"ID":31823,"Name":"Romitan Shahri","Lat":39.9333,"Lon":64.3833,"CountryCode":null},{"ID":20157,"Name":"Salor","Lat":41.3833,"Lon":69.3583,"CountryCode":null},{"ID":1354,"Name":"Samarkand","Lat":39.6547,"Lon":66.9758,"CountryCode":null},{"ID":29282,"Name":"Sardoba","Lat":40.5422,"Lon":68.4125,"CountryCode":null},{"ID":31824,"Name":"Sariosiyo","Lat":38.4133,"Lon":67.9572,"CountryCode":null},{"ID":32842,"Name":"Sariq","Lat":37.6722,"Lon":67.2375,"CountryCode":null},{"ID":6128,"Name":"Shahrisabz","Lat":39.05,"Lon":66.8333,"CountryCode":null},{"ID":8233,"Name":"Shahrixon","Lat":40.7167,"Lon":72.05,"CountryCode":null},{"ID":39214,"Name":"Sharg`un","Lat":38.46,"Lon":67.9669,"CountryCode":null},{"ID":18046,"Name":"Sherobod","Lat":37.6667,"Lon":67,"CountryCode":null},{"ID":25785,"Name":"Shirin","Lat":40.2269,"Lon":69.1344,"CountryCode":null},{"ID":20535,"Name":"Sho`rchi","Lat":38.0111,"Lon":67.7875,"CountryCode":null},{"ID":32322,"Name":"Shofirkon Shahri","Lat":40.1167,"Lon":64.5,"CountryCode":null},{"ID":40994,"Name":"Shohimardon","Lat":39.9833,"Lon":71.8,"CountryCode":null},{"ID":25696,"Name":"Shovot","Lat":41.65,"Lon":60.3,"CountryCode":null},{"ID":39761,"Name":"Shumanay","Lat":42.6333,"Lon":58.9167,"CountryCode":null},{"ID":24680,"Name":"Sultonobod","Lat":40.7644,"Lon":72.9764,"CountryCode":null},{"ID":38991,"Name":"Tallimarjon Shahri","Lat":38.2967,"Lon":65.5533,"CountryCode":null},{"ID":264,"Name":"Tashkent","Lat":41.3111,"Lon":69.2797,"CountryCode":null},{"ID":27824,"Name":"Taxtako`pir","Lat":43.0225,"Lon":60.2886,"CountryCode":null},{"ID":4636,"Name":"Termiz","Lat":37.2167,"Lon":67.2833,"CountryCode":null},{"ID":39412,"Name":"Tinchlik","Lat":40.4264,"Lon":71.4956,"CountryCode":null},{"ID":17401,"Name":"To`raqo`rg`on","Lat":41,"Lon":71.5158,"CountryCode":null},{"ID":26097,"Name":"Toshloq","Lat":40.4808,"Lon":71.7608,"CountryCode":null},{"ID":32841,"Name":"Toyloq Qishlog'i","Lat":39.6014,"Lon":67.0908,"CountryCode":null},{"ID":11103,"Name":"Turtkul","Lat":41.55,"Lon":61,"CountryCode":null},{"ID":21124,"Name":"Uchquduq Shahri","Lat":42.1567,"Lon":63.5556,"CountryCode":null},{"ID":13670,"Name":"Uchqurghon Shahri","Lat":41.1214,"Lon":72.0936,"CountryCode":null},{"ID":40966,"Name":"Uchtepa Qishlog'i","Lat":40.205,"Lon":67.9011,"CountryCode":null},{"ID":4257,"Name":"Urganch","Lat":41.55,"Lon":60.6333,"CountryCode":null},{"ID":6172,"Name":"Urgut Shahri","Lat":39.419,"Lon":67.2612,"CountryCode":null},{"ID":33572,"Name":"Urtaowul","Lat":41.1908,"Lon":69.1494,"CountryCode":null},{"ID":39794,"Name":"Usmat Shaharchasi","Lat":39.7386,"Lon":67.6433,"CountryCode":null},{"ID":17748,"Name":"Uychi","Lat":41.0294,"Lon":71.8483,"CountryCode":null},{"ID":31328,"Name":"Uzun","Lat":38.3667,"Lon":68.0056,"CountryCode":null},{"ID":35381,"Name":"Vobkent Shahri","Lat":40.0333,"Lon":64.5167,"CountryCode":null},{"ID":28965,"Name":"Vodil","Lat":40.1789,"Lon":71.7297,"CountryCode":null},{"ID":43899,"Name":"Xalqobod","Lat":37.4597,"Lon":66.9222,"CountryCode":null},{"ID":41404,"Name":"Xishrov","Lat":39.6383,"Lon":66.8897,"CountryCode":null},{"ID":5862,"Name":"Xiva","Lat":41.3814,"Lon":60.3611,"CountryCode":null},{"ID":24456,"Name":"Xo`jaobod","Lat":40.6653,"Lon":72.5667,"CountryCode":null},{"ID":9688,"Name":"Xo`jayli Shahri","Lat":42.4,"Lon":59.45,"CountryCode":null},{"ID":12973,"Name":"Xonobod","Lat":40.8,"Lon":73,"CountryCode":null},{"ID":13856,"Name":"Xonqa","Lat":41.4742,"Lon":60.7822,"CountryCode":null},{"ID":19026,"Name":"Xovos","Lat":40.2197,"Lon":68.84,"CountryCode":null},{"ID":24084,"Name":"Yakkabog`","Lat":38.98,"Lon":66.68,"CountryCode":null},{"ID":21612,"Name":"Yangi Marg`ilon","Lat":40.4311,"Lon":71.7183,"CountryCode":null},{"ID":27975,"Name":"Yangi Mirishkor","Lat":38.8514,"Lon":65.2778,"CountryCode":null},{"ID":35698,"Name":"Yangiariq","Lat":41.3628,"Lon":60.6075,"CountryCode":null},{"ID":44952,"Name":"Yangiobod","Lat":41.1192,"Lon":70.0942,"CountryCode":null},{"ID":37098,"Name":"Yangiqo`rg`on","Lat":41.1872,"Lon":71.7333,"CountryCode":null},{"ID":37566,"Name":"Yangirabot","Lat":40.0253,"Lon":65.9608,"CountryCode":null},{"ID":18314,"Name":"Yangiyer","Lat":40.2667,"Lon":68.8167,"CountryCode":null},{"ID":9375,"Name":"Yangiyul","Lat":41.1125,"Lon":69.0467,"CountryCode":null},{"ID":29319,"Name":"Yaypan","Lat":40.3758,"Lon":70.8156,"CountryCode":null},{"ID":34481,"Name":"Yozyovon","Lat":40.6619,"Lon":71.7431,"CountryCode":null},{"ID":10494,"Name":"Zarafshon Shahri","Lat":41.6081,"Lon":64.2264,"CountryCode":null},{"ID":44195,"Name":"Zarbdor Shaharchasi","Lat":40.0747,"Lon":68.1683,"CountryCode":null},{"ID":36982,"Name":"Ziyodin Shaharchasi","Lat":40.0342,"Lon":65.6547,"CountryCode":null},{"ID":19137,"Name":"Zomin Shaharchasi","Lat":39.9631,"Lon":68.3939,"CountryCode":null}]