[{"ID":3370,"Name":"Acarigua","Lat":9.5597,"Lon":-69.2019,"CountryCode":null},{"ID":14130,"Name":"Achaguas","Lat":7.7667,"Lon":-68.2333,"CountryCode":null},{"ID":36446,"Name":"Aguasay","Lat":9.4249,"Lon":-63.7308,"CountryCode":null},{"ID":13643,"Name":"Altagracia de Orituco","Lat":9.8504,"Lon":-66.38,"CountryCode":null},{"ID":3950,"Name":"Anaco","Lat":9.4819,"Lon":-64.4917,"CountryCode":null},{"ID":19198,"Name":"Aragua de Barcelona","Lat":9.4575,"Lon":-64.8261,"CountryCode":null},{"ID":20536,"Name":"Araira","Lat":10.4525,"Lon":-66.485,"CountryCode":null},{"ID":3468,"Name":"Araure","Lat":9.5667,"Lon":-69.2167,"CountryCode":null},{"ID":28612,"Name":"Barbacoas","Lat":9.4833,"Lon":-66.9761,"CountryCode":null},{"ID":1628,"Name":"Barcelona","Lat":10.1403,"Lon":-64.6833,"CountryCode":null},{"ID":883,"Name":"Barinas","Lat":8.6333,"Lon":-70.2,"CountryCode":null},{"ID":728,"Name":"Barquisimeto","Lat":10.0636,"Lon":-69.3347,"CountryCode":null},{"ID":2788,"Name":"Baruta","Lat":10.4322,"Lon":-66.8739,"CountryCode":null},{"ID":6131,"Name":"Bocono","Lat":9.2461,"Lon":-70.2617,"CountryCode":null},{"ID":1998,"Name":"Cabimas","Lat":10.4,"Lon":-71.45,"CountryCode":null},{"ID":8326,"Name":"Cabudare","Lat":10.0331,"Lon":-69.2633,"CountryCode":null},{"ID":5091,"Name":"Cagua","Lat":10.1875,"Lon":-67.4611,"CountryCode":null},{"ID":3823,"Name":"Calabozo","Lat":8.9333,"Lon":-67.4333,"CountryCode":null},{"ID":6745,"Name":"Cantaura","Lat":9.3111,"Lon":-64.3594,"CountryCode":null},{"ID":33777,"Name":"Capaya","Lat":10.4286,"Lon":-66.2717,"CountryCode":null},{"ID":11545,"Name":"Caraballeda","Lat":10.6131,"Lon":-66.8506,"CountryCode":null},{"ID":371,"Name":"Caracas","Lat":10.4806,"Lon":-66.9036,"CountryCode":null},{"ID":16285,"Name":"Carache","Lat":9.7072,"Lon":-70.1933,"CountryCode":null},{"ID":8966,"Name":"Caripito","Lat":10.1167,"Lon":-63.1,"CountryCode":null},{"ID":5511,"Name":"Carora","Lat":10.1711,"Lon":-70.0797,"CountryCode":null},{"ID":3709,"Name":"Carupano","Lat":10.6722,"Lon":-63.2403,"CountryCode":null},{"ID":9769,"Name":"Carvajal","Lat":9.33,"Lon":-70.5767,"CountryCode":null},{"ID":1134,"Name":"Catia La Mar","Lat":10.6,"Lon":-67.0333,"CountryCode":null},{"ID":15378,"Name":"Caucagua","Lat":10.2822,"Lon":-66.3772,"CountryCode":null},{"ID":8725,"Name":"Cedeno","Lat":7.6492,"Lon":-66.1759,"CountryCode":null},{"ID":30689,"Name":"Chaguaramas","Lat":9.3333,"Lon":-66.2667,"CountryCode":null},{"ID":5291,"Name":"Charallave","Lat":10.2431,"Lon":-66.8622,"CountryCode":null},{"ID":25732,"Name":"Chichiriviche","Lat":10.9343,"Lon":-68.2771,"CountryCode":null},{"ID":9743,"Name":"Chivacoa","Lat":10.16,"Lon":-68.9097,"CountryCode":null},{"ID":1309,"Name":"Ciudad Bolivar","Lat":8.1219,"Lon":-63.55,"CountryCode":null},{"ID":994,"Name":"Ciudad Guayana","Lat":8.3667,"Lon":-62.65,"CountryCode":null},{"ID":5105,"Name":"Ciudad Ojeda","Lat":10.2,"Lon":-71.3,"CountryCode":null},{"ID":13383,"Name":"Ciudad Piar","Lat":7.4522,"Lon":-63.32,"CountryCode":null},{"ID":30690,"Name":"Clarines","Lat":9.9433,"Lon":-65.1661,"CountryCode":null},{"ID":13885,"Name":"Cocorote","Lat":10.3217,"Lon":-68.7825,"CountryCode":null},{"ID":32227,"Name":"Cojedes","Lat":9.6167,"Lon":-68.9167,"CountryCode":null},{"ID":14661,"Name":"Colon","Lat":8.0378,"Lon":-72.2519,"CountryCode":null},{"ID":4300,"Name":"Coro","Lat":11.417,"Lon":-69.67,"CountryCode":null},{"ID":3096,"Name":"Cua","Lat":10.1667,"Lon":-66.8833,"CountryCode":null},{"ID":1776,"Name":"Cumana","Lat":10.4564,"Lon":-64.1675,"CountryCode":null},{"ID":5770,"Name":"Ejido","Lat":8.3333,"Lon":-71.4,"CountryCode":null},{"ID":23033,"Name":"El Callao","Lat":7.3463,"Lon":-61.8271,"CountryCode":null},{"ID":13128,"Name":"El Consejo","Lat":10.2442,"Lon":-67.245,"CountryCode":null},{"ID":47007,"Name":"El Dorado","Lat":6.7167,"Lon":-61.6167,"CountryCode":null},{"ID":5813,"Name":"El Limon","Lat":10.3003,"Lon":-67.6336,"CountryCode":null},{"ID":47039,"Name":"El Manteco","Lat":7.3483,"Lon":-62.5395,"CountryCode":null},{"ID":29920,"Name":"El Palmar","Lat":8.0244,"Lon":-61.8819,"CountryCode":null},{"ID":32218,"Name":"El Socorro","Lat":8.9936,"Lon":-65.7456,"CountryCode":null},{"ID":3112,"Name":"El Tigre","Lat":8.8861,"Lon":-64.2611,"CountryCode":null},{"ID":13255,"Name":"El Tocuyo","Lat":9.7822,"Lon":-69.7931,"CountryCode":null},{"ID":12177,"Name":"El Valle del Espiritu Santo","Lat":10.9833,"Lon":-63.8833,"CountryCode":null},{"ID":16262,"Name":"Escuque","Lat":9.25,"Lon":-70.75,"CountryCode":null},{"ID":3304,"Name":"Guacara","Lat":10.2536,"Lon":-67.9,"CountryCode":null},{"ID":3416,"Name":"Guanare","Lat":9.0436,"Lon":-69.7489,"CountryCode":null},{"ID":15379,"Name":"Guanta","Lat":10.2383,"Lon":-64.5917,"CountryCode":null},{"ID":3177,"Name":"Guarenas","Lat":10.4667,"Lon":-66.6167,"CountryCode":null},{"ID":4904,"Name":"Guasdualito","Lat":7.2467,"Lon":-70.7292,"CountryCode":null},{"ID":23554,"Name":"Guasipati","Lat":7.4667,"Lon":-61.4667,"CountryCode":null},{"ID":3492,"Name":"Guatire","Lat":10.4717,"Lon":-66.5406,"CountryCode":null},{"ID":9593,"Name":"Guigue","Lat":10.0833,"Lon":-67.7833,"CountryCode":null},{"ID":20537,"Name":"Higuerote","Lat":10.4833,"Lon":-66.1,"CountryCode":null},{"ID":34849,"Name":"Isla Raton","Lat":5.1311,"Lon":-67.8106,"CountryCode":null},{"ID":18488,"Name":"Juangriego","Lat":11.0833,"Lon":-63.9667,"CountryCode":null},{"ID":5299,"Name":"La Asuncion","Lat":11.0333,"Lon":-63.8628,"CountryCode":null},{"ID":19629,"Name":"La Ceiba","Lat":9.4764,"Lon":-71.0556,"CountryCode":null},{"ID":23712,"Name":"La Colonia Tovar","Lat":10.4056,"Lon":-67.2894,"CountryCode":null},{"ID":24625,"Name":"La Esmeralda","Lat":3.1739,"Lon":-65.5467,"CountryCode":null},{"ID":6824,"Name":"La Grita","Lat":8.1333,"Lon":-71.9833,"CountryCode":null},{"ID":3248,"Name":"La Guaira","Lat":10.6,"Lon":-66.9331,"CountryCode":null},{"ID":3100,"Name":"La Victoria","Lat":10.2278,"Lon":-67.3336,"CountryCode":null},{"ID":16206,"Name":"Las Mercedes","Lat":9.1104,"Lon":-66.3961,"CountryCode":null},{"ID":14817,"Name":"Lecherias","Lat":10.1889,"Lon":-64.6951,"CountryCode":null},{"ID":4816,"Name":"Los Guayos","Lat":10.1833,"Lon":-67.9333,"CountryCode":null},{"ID":2673,"Name":"Los Teques","Lat":10.3333,"Lon":-67.0417,"CountryCode":null},{"ID":5084,"Name":"Machiques","Lat":10.0667,"Lon":-72.5667,"CountryCode":null},{"ID":15965,"Name":"Macuro","Lat":10.65,"Lon":-61.9333,"CountryCode":null},{"ID":6857,"Name":"Maiquetia","Lat":10.5958,"Lon":-66.9772,"CountryCode":null},{"ID":505,"Name":"Maracaibo","Lat":10.6333,"Lon":-71.6333,"CountryCode":null},{"ID":6615,"Name":"Maracay","Lat":10.2469,"Lon":-67.5961,"CountryCode":null},{"ID":1438,"Name":"Maturin","Lat":9.75,"Lon":-63.183,"CountryCode":null},{"ID":2714,"Name":"Merida","Lat":8.48,"Lon":-71.19,"CountryCode":null},{"ID":20608,"Name":"Montalban","Lat":10.2522,"Lon":-68.3019,"CountryCode":null},{"ID":29003,"Name":"Monte Carmelo","Lat":9.1875,"Lon":-70.8131,"CountryCode":null},{"ID":24489,"Name":"Motatan","Lat":9.3931,"Lon":-70.5933,"CountryCode":null},{"ID":9760,"Name":"Nirgua","Lat":10.0833,"Lon":-68.6667,"CountryCode":null},{"ID":4258,"Name":"Ocumare del Tuy","Lat":10.1136,"Lon":-66.7814,"CountryCode":null},{"ID":37519,"Name":"Onoto","Lat":9.5958,"Lon":-65.1897,"CountryCode":null},{"ID":13918,"Name":"Ospino","Lat":9.3,"Lon":-69.45,"CountryCode":null},{"ID":4153,"Name":"Palo Negro","Lat":10.16,"Lon":-67.5582,"CountryCode":null},{"ID":11753,"Name":"Pampan","Lat":9.4511,"Lon":-70.4758,"CountryCode":null},{"ID":16701,"Name":"Pampanito","Lat":9.4114,"Lon":-70.4958,"CountryCode":null},{"ID":15209,"Name":"Pampatar","Lat":10.9994,"Lon":-63.7944,"CountryCode":null},{"ID":1911,"Name":"Petare","Lat":10.4833,"Lon":-66.8167,"CountryCode":null},{"ID":21823,"Name":"Piritu","Lat":10.0395,"Lon":-65.0304,"CountryCode":null},{"ID":5153,"Name":"Porlamar","Lat":10.95,"Lon":-63.85,"CountryCode":null},{"ID":7426,"Name":"Puerto Ayacucho","Lat":5.6631,"Lon":-67.6264,"CountryCode":null},{"ID":3169,"Name":"Puerto Cabello","Lat":10.4667,"Lon":-68.0167,"CountryCode":null},{"ID":16150,"Name":"Puerto Cumarebo","Lat":11.4861,"Lon":-69.3503,"CountryCode":null},{"ID":2264,"Name":"Puerto La Cruz","Lat":10.2,"Lon":-64.6333,"CountryCode":null},{"ID":19845,"Name":"Puerto Piritu","Lat":10.0667,"Lon":-65.05,"CountryCode":null},{"ID":18667,"Name":"Punceres","Lat":9.9898,"Lon":-63.3366,"CountryCode":null},{"ID":2391,"Name":"Punto Fijo","Lat":11.7167,"Lon":-70.1833,"CountryCode":null},{"ID":5608,"Name":"Quibor","Lat":9.9311,"Lon":-69.6247,"CountryCode":null},{"ID":32895,"Name":"Rio Caribe","Lat":10.7008,"Lon":-63.1086,"CountryCode":null},{"ID":6427,"Name":"Rubio","Lat":7.7,"Lon":-72.35,"CountryCode":null},{"ID":18726,"Name":"Sabaneta","Lat":8.7522,"Lon":-69.9325,"CountryCode":null},{"ID":7930,"Name":"San Antonio de Los Altos","Lat":10.3744,"Lon":-66.9669,"CountryCode":null},{"ID":9387,"Name":"San Antonio del Tachira","Lat":7.8167,"Lon":-72.45,"CountryCode":null},{"ID":5187,"Name":"San Carlos","Lat":9.65,"Lon":-68.5833,"CountryCode":null},{"ID":7427,"Name":"San Carlos del Zulia","Lat":9,"Lon":-71.9333,"CountryCode":null},{"ID":757,"Name":"San Cristobal","Lat":7.7667,"Lon":-72.2333,"CountryCode":null},{"ID":3494,"Name":"San Diego","Lat":10.254,"Lon":-68.0109,"CountryCode":null},{"ID":3024,"Name":"San Felipe","Lat":10.3406,"Lon":-68.7369,"CountryCode":null},{"ID":3396,"Name":"San Fernando","Lat":7.894,"Lon":-67.473,"CountryCode":null},{"ID":38019,"Name":"San Jose de Aerocuar","Lat":10.6027,"Lon":-63.3273,"CountryCode":null},{"ID":37418,"Name":"San Jose de Guaribe","Lat":9.8602,"Lon":-65.8131,"CountryCode":null},{"ID":6866,"Name":"San Juan de los Morros","Lat":9.901,"Lon":-67.354,"CountryCode":null},{"ID":14272,"Name":"San Mateo","Lat":10.2133,"Lon":-67.4225,"CountryCode":null},{"ID":34282,"Name":"San Mateo","Lat":9.74,"Lon":-64.5531,"CountryCode":null},{"ID":45443,"Name":"San Pedro de Coche","Lat":10.7772,"Lon":-63.9311,"CountryCode":null},{"ID":11519,"Name":"Sanare","Lat":9.7822,"Lon":-69.7931,"CountryCode":null},{"ID":14662,"Name":"Santa Ana","Lat":7.6453,"Lon":-72.2758,"CountryCode":null},{"ID":16038,"Name":"Santa Ana","Lat":11.068,"Lon":-63.9221,"CountryCode":null},{"ID":42574,"Name":"Santa Ana","Lat":9.3056,"Lon":-64.6548,"CountryCode":null},{"ID":42042,"Name":"Santa Barbara","Lat":9.6,"Lon":-63.6,"CountryCode":null},{"ID":17689,"Name":"Santa Cruz","Lat":10.1819,"Lon":-67.5025,"CountryCode":null},{"ID":13174,"Name":"Santa Cruz de Los Taques","Lat":11.8217,"Lon":-70.2561,"CountryCode":null},{"ID":5523,"Name":"Santa Lucia","Lat":10.2606,"Lon":-66.6639,"CountryCode":null},{"ID":33762,"Name":"Santa Maria de Ipire","Lat":8.8134,"Lon":-65.3221,"CountryCode":null},{"ID":16709,"Name":"Santa Rita","Lat":10.5367,"Lon":-71.5108,"CountryCode":null},{"ID":3810,"Name":"Santa Rita","Lat":10.2003,"Lon":-67.5514,"CountryCode":null},{"ID":1403,"Name":"Santa Teresa del Tuy","Lat":10.2333,"Lon":-66.6639,"CountryCode":null},{"ID":35004,"Name":"Sarare","Lat":9.7839,"Lon":-69.1611,"CountryCode":null},{"ID":5609,"Name":"Socopo","Lat":8.2322,"Lon":-70.8206,"CountryCode":null},{"ID":4888,"Name":"Tariba","Lat":7.8167,"Lon":-72.2167,"CountryCode":null},{"ID":5630,"Name":"Tinaquillo","Lat":9.9167,"Lon":-68.3,"CountryCode":null},{"ID":3342,"Name":"Tocuyito","Lat":10.1144,"Lon":-68.0656,"CountryCode":null},{"ID":14257,"Name":"Trujillo","Lat":9.417,"Lon":-70.5,"CountryCode":null},{"ID":32495,"Name":"Tucacas","Lat":10.7978,"Lon":-68.3175,"CountryCode":null},{"ID":6954,"Name":"Tucupita","Lat":9.0592,"Lon":-62.0681,"CountryCode":null},{"ID":2637,"Name":"Turmero","Lat":10.2283,"Lon":-67.4725,"CountryCode":null},{"ID":10589,"Name":"Upata","Lat":8.0204,"Lon":-62.41,"CountryCode":null},{"ID":42596,"Name":"Uracoa","Lat":8.9943,"Lon":-62.352,"CountryCode":null},{"ID":14310,"Name":"Urena","Lat":7.9183,"Lon":-72.4467,"CountryCode":null},{"ID":528,"Name":"Valencia","Lat":10.1833,"Lon":-68,"CountryCode":null},{"ID":3435,"Name":"Valera","Lat":9.3206,"Lon":-70.6078,"CountryCode":null},{"ID":5376,"Name":"Valle de La Pascua","Lat":9.2033,"Lon":-66.0103,"CountryCode":null},{"ID":4391,"Name":"Villa de Cura","Lat":10.0383,"Lon":-67.4892,"CountryCode":null},{"ID":4520,"Name":"Yaritagua","Lat":10.0753,"Lon":-69.1283,"CountryCode":null},{"ID":9323,"Name":"Zaraza","Lat":9.3394,"Lon":-65.3167,"CountryCode":null}]