[{"ID":32344,"Name":"Bandraboua","Lat":-12.7254,"Lon":45.1072,"CountryCode":null},{"ID":40453,"Name":"Bandrele","Lat":-12.9092,"Lon":45.1944,"CountryCode":null},{"ID":44878,"Name":"Chirongui","Lat":-12.9344,"Lon":45.1511,"CountryCode":null},{"ID":29492,"Name":"Dembeni","Lat":-12.8339,"Lon":45.1725,"CountryCode":null},{"ID":16543,"Name":"Koungou","Lat":-12.7385,"Lon":45.2071,"CountryCode":null},{"ID":8228,"Name":"Mamoudzou","Lat":-12.7806,"Lon":45.2278,"CountryCode":null},{"ID":40683,"Name":"Ouangani","Lat":-12.8487,"Lon":45.1446,"CountryCode":null},{"ID":38038,"Name":"Sada","Lat":-12.8511,"Lon":45.0997,"CountryCode":null},{"ID":32438,"Name":"Tsingoni","Lat":-12.7858,"Lon":45.1113,"CountryCode":null}]