[{"ID":5248,"Name":"Bwana Mkubwa","Lat":-12.9833,"Lon":28.7,"CountryCode":null},{"ID":33494,"Name":"Chifubu","Lat":-12.9333,"Lon":28.6167,"CountryCode":null},{"ID":6678,"Name":"Chililabombwe","Lat":-12.3667,"Lon":27.8278,"CountryCode":null},{"ID":36536,"Name":"Chilonga","Lat":-12.0244,"Lon":31.3364,"CountryCode":null},{"ID":4331,"Name":"Chingola","Lat":-12.5333,"Lon":27.85,"CountryCode":null},{"ID":30346,"Name":"Chinsali","Lat":-10.5522,"Lon":32.0692,"CountryCode":null},{"ID":6240,"Name":"Chipata","Lat":-13.6453,"Lon":32.6464,"CountryCode":null},{"ID":7086,"Name":"Chirundu","Lat":-16.05,"Lon":28.8333,"CountryCode":null},{"ID":10924,"Name":"Choma","Lat":-16.7711,"Lon":26.9922,"CountryCode":null},{"ID":5298,"Name":"Kabwe","Lat":-14.4333,"Lon":28.45,"CountryCode":null},{"ID":3042,"Name":"Kafue","Lat":-15.7667,"Lon":28.1833,"CountryCode":null},{"ID":46407,"Name":"Kalabo","Lat":-14.9911,"Lon":22.6789,"CountryCode":null},{"ID":31990,"Name":"Kaoma","Lat":-14.8,"Lon":24.8,"CountryCode":null},{"ID":31033,"Name":"Kapiri Mposhi","Lat":-13.9772,"Lon":28.6847,"CountryCode":null},{"ID":3835,"Name":"Kasama","Lat":-10.2117,"Lon":31.1783,"CountryCode":null},{"ID":5580,"Name":"Kasempa","Lat":-13.455,"Lon":25.835,"CountryCode":null},{"ID":4250,"Name":"Kashikishi","Lat":-9.3,"Lon":28.7167,"CountryCode":null},{"ID":24097,"Name":"Kawambwa","Lat":-9.7914,"Lon":29.0789,"CountryCode":null},{"ID":1460,"Name":"Kitwe","Lat":-12.8167,"Lon":28.2,"CountryCode":null},{"ID":16215,"Name":"Livingstone","Lat":-17.85,"Lon":25.8667,"CountryCode":null},{"ID":5294,"Name":"Luanshya","Lat":-13.1333,"Lon":28.4,"CountryCode":null},{"ID":46869,"Name":"Lukulu","Lat":-14.4083,"Lon":23.2667,"CountryCode":null},{"ID":36926,"Name":"Lundazi","Lat":-12.3,"Lon":33.1833,"CountryCode":null},{"ID":332,"Name":"Lusaka","Lat":-15.4167,"Lon":28.2833,"CountryCode":null},{"ID":4864,"Name":"Mansa","Lat":-11.2,"Lon":28.8833,"CountryCode":null},{"ID":3252,"Name":"Mazabuka","Lat":-15.8467,"Lon":27.7475,"CountryCode":null},{"ID":24119,"Name":"Mbala","Lat":-8.8333,"Lon":31.3833,"CountryCode":null},{"ID":3619,"Name":"Mongu","Lat":-15.2775,"Lon":23.1319,"CountryCode":null},{"ID":18391,"Name":"Mpika","Lat":-11.83,"Lon":31.46,"CountryCode":null},{"ID":6089,"Name":"Mporokoso","Lat":-9.3833,"Lon":30.1,"CountryCode":null},{"ID":5101,"Name":"Mufulira","Lat":-12.5356,"Lon":28.2419,"CountryCode":null},{"ID":25585,"Name":"Mumbwa","Lat":-14.9853,"Lon":27.0619,"CountryCode":null},{"ID":29681,"Name":"Mwinilunga","Lat":-11.7172,"Lon":24.4289,"CountryCode":null},{"ID":39388,"Name":"Nakonde","Lat":-9.3272,"Lon":32.7583,"CountryCode":null},{"ID":4318,"Name":"Nchelenge","Lat":-9.3533,"Lon":28.7403,"CountryCode":null},{"ID":1398,"Name":"Ndola","Lat":-12.9689,"Lon":28.6325,"CountryCode":null},{"ID":47178,"Name":"Nyimba","Lat":-14.5495,"Lon":30.81,"CountryCode":null},{"ID":41286,"Name":"Senanga","Lat":-16.1167,"Lon":23.2667,"CountryCode":null},{"ID":24503,"Name":"Sesheke","Lat":-17.4667,"Lon":24.3,"CountryCode":null},{"ID":6659,"Name":"Solwezi","Lat":-12.1433,"Lon":26.3858,"CountryCode":null},{"ID":46462,"Name":"Zambezi","Lat":-13.55,"Lon":23.1167,"CountryCode":null}]